[{"country_code": "BD", "postal_code": "1000", "place_name": "Dhaka GPO", "latitude": "23.729", "longitude": "90.4112"}, {"country_code": "BD", "postal_code": "1100", "place_name": "Dhaka Sadar HO", "latitude": "23.9996", "longitude": "90.4222"}, {"country_code": "BD", "postal_code": "1203", "place_name": "Wari TSO", "latitude": "23.7415", "longitude": "90.4276"}, {"country_code": "BD", "postal_code": "1204", "place_name": "Gendaria TSO", "latitude": "23.7011", "longitude": "90.4263"}, {"country_code": "BD", "postal_code": "1205", "place_name": "New Market TSO", "latitude": "23.7433", "longitude": "90.3841"}, {"country_code": "BD", "postal_code": "1206", "place_name": "Dhaka CantonmentTSO", "latitude": "23.8179", "longitude": "90.4103"}, {"country_code": "BD", "postal_code": "1207", "place_name": "Mohammadpur Housing", "latitude": "23.7701", "longitude": "90.3628"}, {"country_code": "BD", "postal_code": "1208", "place_name": "Dhaka Politechnic", "latitude": "23.7591", "longitude": "90.4003"}, {"country_code": "BD", "postal_code": "1209", "place_name": "Jigatala TSO", "latitude": "23.7552", "longitude": "90.3731"}, {"country_code": "BD", "postal_code": "1211", "place_name": "Posta TSO", "latitude": "23.8196", "longitude": "90.364"}, {"country_code": "BD", "postal_code": "1212", "place_name": "Gulshan Model Town", "latitude": "23.7916", "longitude": "90.4152"}, {"country_code": "BD", "postal_code": "1213", "place_name": "Banani TSO", "latitude": "23.7931", "longitude": "90.4048"}, {"country_code": "BD", "postal_code": "1214", "place_name": "Basabo TSO", "latitude": "23.7418", "longitude": "90.4277"}, {"country_code": "BD", "postal_code": "1215", "place_name": "Tejgaon TSO", "latitude": "23.7687", "longitude": "90.3901"}, {"country_code": "BD", "postal_code": "1216", "place_name": "Mirpur TSO", "latitude": "23.8219", "longitude": "90.3657"}, {"country_code": "BD", "postal_code": "1217", "place_name": "Shantinagr TSO", "latitude": "23.726", "longitude": "90.4251"}, {"country_code": "BD", "postal_code": "1219", "place_name": "KhilgaonTSO", "latitude": "23.7518", "longitude": "90.4254"}, {"country_code": "BD", "postal_code": "1222", "place_name": "BangabhabanTSO", "latitude": "23.9072", "longitude": "90.4599"}, {"country_code": "BD", "postal_code": "1223", "place_name": "DilkushaTSO", "latitude": "23.8822", "longitude": "90.4576"}, {"country_code": "BD", "postal_code": "1225", "place_name": "Sangsad BhabanTSO", "latitude": "23.7617", "longitude": "90.3784"}, {"country_code": "BD", "postal_code": "1229", "place_name": "KhilkhetTSO", "latitude": "23.8515", "longitude": "90.403"}, {"country_code": "BD", "postal_code": "1230", "place_name": "Uttara Model TwonTSO", "latitude": "23.8667", "longitude": "90.4"}, {"country_code": "BD", "postal_code": "1232", "place_name": "Dhania TSO", "latitude": "23.7117", "longitude": "90.4463"}, {"country_code": "BD", "postal_code": "1310", "place_name": "Keraniganj", "latitude": "23.7223", "longitude": "90.311"}, {"country_code": "BD", "postal_code": "1311", "place_name": "Dhaka Jute Mills", "latitude": "23.7223", "longitude": "90.311"}, {"country_code": "BD", "postal_code": "1312", "place_name": "Ati", "latitude": "23.7167", "longitude": "90.35"}, {"country_code": "BD", "postal_code": "1313", "place_name": "Kalatia", "latitude": "23.7279", "longitude": "90.2721"}, {"country_code": "BD", "postal_code": "1320", "place_name": "Nawabganj", "latitude": "23.663", "longitude": "90.1593"}, {"country_code": "BD", "postal_code": "1321", "place_name": "Hasnabad", "latitude": "23.6551", "longitude": "90.1055"}, {"country_code": "BD", "postal_code": "1322", "place_name": "Daudpur", "latitude": "23.8833", "longitude": "90.5333"}, {"country_code": "BD", "postal_code": "1323", "place_name": "Agla", "latitude": "23.6503", "longitude": "90.2185"}, {"country_code": "BD", "postal_code": "1324", "place_name": "Khalpar", "latitude": "23.6298", "longitude": "90.1313"}, {"country_code": "BD", "postal_code": "1325", "place_name": "Churain", "latitude": "23.6189", "longitude": "90.224"}, {"country_code": "BD", "postal_code": "1330", "place_name": "Joypara", "latitude": "23.6215", "longitude": "90.1241"}, {"country_code": "BD", "postal_code": "1331", "place_name": "Palamganj", "latitude": "23.5412", "longitude": "90.2538"}, {"country_code": "BD", "postal_code": "1332", "place_name": "Narisha", "latitude": "23.5412", "longitude": "90.2538"}, {"country_code": "BD", "postal_code": "1340", "place_name": "Savar", "latitude": "23.8486", "longitude": "90.25"}, {"country_code": "BD", "postal_code": "1341", "place_name": "Dairy Farm", "latitude": "23.8486", "longitude": "90.25"}, {"country_code": "BD", "postal_code": "1342", "place_name": "Jahangirnagar Univer", "latitude": "23.8486", "longitude": "90.25"}, {"country_code": "BD", "postal_code": "1343", "place_name": "Saver P.A.T.C", "latitude": "23.8486", "longitude": "90.25"}, {"country_code": "BD", "postal_code": "1344", "place_name": "Savar Canttonment", "latitude": "23.8486", "longitude": "90.25"}, {"country_code": "BD", "postal_code": "1345", "place_name": "Shimulia", "latitude": "23.8486", "longitude": "90.25"}, {"country_code": "BD", "postal_code": "1346", "place_name": "Kashem Cotton Mills", "latitude": "23.8486", "longitude": "90.25"}, {"country_code": "BD", "postal_code": "1347", "place_name": "Rajphulbaria", "latitude": "23.8486", "longitude": "90.25"}, {"country_code": "BD", "postal_code": "1348", "place_name": "Amin Bazar", "latitude": "23.8486", "longitude": "90.25"}, {"country_code": "BD", "postal_code": "1349", "place_name": "EPZ", "latitude": "23.8486", "longitude": "90.25"}, {"country_code": "BD", "postal_code": "1350", "place_name": "Dhamrai", "latitude": "23.9122", "longitude": "90.2683"}, {"country_code": "BD", "postal_code": "1351", "place_name": "Kamalpur", "latitude": "23.9994", "longitude": "90.8099"}, {"country_code": "BD", "postal_code": "1360", "place_name": "Demra", "latitude": "23.7099", "longitude": "90.4546"}, {"country_code": "BD", "postal_code": "1361", "place_name": "Sarulia", "latitude": "23.8429", "longitude": "90.3244"}, {"country_code": "BD", "postal_code": "1362", "place_name": "Matuail", "latitude": "23.7121", "longitude": "90.4598"}, {"country_code": "BD", "postal_code": "7800", "place_name": "Faridpursadar", "latitude": "23.55", "longitude": "89.7833"}, {"country_code": "BD", "postal_code": "7801", "place_name": "Kanaipur", "latitude": "23.55", "longitude": "89.7833"}, {"country_code": "BD", "postal_code": "7802", "place_name": "Ambikapur", "latitude": "23.55", "longitude": "89.7833"}, {"country_code": "BD", "postal_code": "7803", "place_name": "Baitulaman Politecni", "latitude": "23.55", "longitude": "89.7833"}, {"country_code": "BD", "postal_code": "7804", "place_name": "Shriangan", "latitude": "23.55", "longitude": "89.7833"}, {"country_code": "BD", "postal_code": "7810", "place_name": "Charbadrashan", "latitude": "23.4224", "longitude": "89.8067"}, {"country_code": "BD", "postal_code": "7820", "place_name": "Sadarpur", "latitude": "23.4224", "longitude": "89.8067"}, {"country_code": "BD", "postal_code": "7821", "place_name": "Hat Krishapur", "latitude": "23.4224", "longitude": "89.8067"}, {"country_code": "BD", "postal_code": "7822", "place_name": "Bishwa jaker Manjil", "latitude": "23.4224", "longitude": "89.8067"}, {"country_code": "BD", "postal_code": "7830", "place_name": "Bhanga", "latitude": "23.3919", "longitude": "89.9839"}, {"country_code": "BD", "postal_code": "7840", "place_name": "Nagarkanda", "latitude": "23.4888", "longitude": "89.8771"}, {"country_code": "BD", "postal_code": "7841", "place_name": "Talma", "latitude": "23.4888", "longitude": "89.8771"}, {"country_code": "BD", "postal_code": "7850", "place_name": "Madukhali", "latitude": "23.4224", "longitude": "89.8067"}, {"country_code": "BD", "postal_code": "7851", "place_name": "Kamarkali", "latitude": "23.4224", "longitude": "89.8067"}, {"country_code": "BD", "postal_code": "7860", "place_name": "Boalmari", "latitude": "23.3921", "longitude": "89.6831"}, {"country_code": "BD", "postal_code": "7861", "place_name": "Rupatpat", "latitude": "23.3921", "longitude": "89.6831"}, {"country_code": "BD", "postal_code": "7870", "place_name": "Alfadanga", "latitude": "23.289", "longitude": "89.706"}, {"country_code": "BD", "postal_code": "1700", "place_name": "Gazipur Sadar", "latitude": "23.9874", "longitude": "90.4052"}, {"country_code": "BD", "postal_code": "1701", "place_name": "B.R.R", "latitude": "23.9874", "longitude": "90.4052"}, {"country_code": "BD", "postal_code": "1702", "place_name": "Chandna", "latitude": "23.9874", "longitude": "90.4052"}, {"country_code": "BD", "postal_code": "1703", "place_name": "B.O.F", "latitude": "23.9874", "longitude": "90.4052"}, {"country_code": "BD", "postal_code": "1704", "place_name": "National University", "latitude": "23.9874", "longitude": "90.4052"}, {"country_code": "BD", "postal_code": "1710", "place_name": "Monnunagar", "latitude": "24.0942", "longitude": "90.4858"}, {"country_code": "BD", "postal_code": "1711", "place_name": "Nishat Nagar", "latitude": "24.0942", "longitude": "90.4858"}, {"country_code": "BD", "postal_code": "1712", "place_name": "Ershad Nagar", "latitude": "24.0942", "longitude": "90.4858"}, {"country_code": "BD", "postal_code": "1720", "place_name": "Kaliganj", "latitude": "23.923", "longitude": "90.5655"}, {"country_code": "BD", "postal_code": "1721", "place_name": "Pubail", "latitude": "23.9387", "longitude": "90.4744"}, {"country_code": "BD", "postal_code": "1722", "place_name": "Santanpara", "latitude": "23.9193", "longitude": "90.6112"}, {"country_code": "BD", "postal_code": "1723", "place_name": "Vaoal Jamalpur", "latitude": "23.927", "longitude": "90.5504"}, {"country_code": "BD", "postal_code": "1730", "place_name": "kapashia", "latitude": "24.0942", "longitude": "90.4858"}, {"country_code": "BD", "postal_code": "1740", "place_name": "Sreepur", "latitude": "24.43", "longitude": "90.5342"}, {"country_code": "BD", "postal_code": "1741", "place_name": "Rajendrapur", "latitude": "24.6233", "longitude": "90.5782"}, {"country_code": "BD", "postal_code": "1742", "place_name": "Rajendrapur Canttome", "latitude": "24.43", "longitude": "90.5342"}, {"country_code": "BD", "postal_code": "1743", "place_name": "Barmi", "latitude": "24.43", "longitude": "90.5342"}, {"country_code": "BD", "postal_code": "1744", "place_name": "Satkhamair", "latitude": "24.2368", "longitude": "90.4903"}, {"country_code": "BD", "postal_code": "1745", "place_name": "Kawraid", "latitude": "24.43", "longitude": "90.5342"}, {"country_code": "BD", "postal_code": "1747", "place_name": "Bashamur", "latitude": "24.43", "longitude": "90.5342"}, {"country_code": "BD", "postal_code": "1748", "place_name": "Boubi", "latitude": "24.43", "longitude": "90.5342"}, {"country_code": "BD", "postal_code": "1750", "place_name": "Kaliakaar", "latitude": "24.0311", "longitude": "90.276"}, {"country_code": "BD", "postal_code": "1751", "place_name": "Safipur", "latitude": "24.0311", "longitude": "90.276"}, {"country_code": "BD", "postal_code": "8013", "place_name": "Chandradighalia", "latitude": "23.2328", "longitude": "90.4242"}, {"country_code": "BD", "postal_code": "8100", "place_name": "Gopalganj Sadar", "latitude": "23.0713", "longitude": "89.8345"}, {"country_code": "BD", "postal_code": "8101", "place_name": "Ulpur", "latitude": "23.0713", "longitude": "89.8345"}, {"country_code": "BD", "postal_code": "8102", "place_name": "Barfa", "latitude": "23.0713", "longitude": "89.8345"}, {"country_code": "BD", "postal_code": "8110", "place_name": "Kotalipara", "latitude": "23.1528", "longitude": "89.8974"}, {"country_code": "BD", "postal_code": "8120", "place_name": "Tungipara", "latitude": "22.8998", "longitude": "89.9033"}, {"country_code": "BD", "postal_code": "8121", "place_name": "Patgati", "latitude": "22.8927", "longitude": "89.897"}, {"country_code": "BD", "postal_code": "8130", "place_name": "Kashiani", "latitude": "23.2357", "longitude": "89.7205"}, {"country_code": "BD", "postal_code": "8131", "place_name": "Ramdia College", "latitude": "23.2357", "longitude": "89.7205"}, {"country_code": "BD", "postal_code": "8132", "place_name": "Ratoil", "latitude": "23.2357", "longitude": "89.7205"}, {"country_code": "BD", "postal_code": "8133", "place_name": "Jonapur", "latitude": "23.2357", "longitude": "89.7205"}, {"country_code": "BD", "postal_code": "8140", "place_name": "Maksudpur", "latitude": "23.5506", "longitude": "90.1623"}, {"country_code": "BD", "postal_code": "8141", "place_name": "Batkiamari", "latitude": "23.4086", "longitude": "90.0145"}, {"country_code": "BD", "postal_code": "8142", "place_name": "Khandarpara", "latitude": "23.2667", "longitude": "89.8667"}, {"country_code": "BD", "postal_code": "2300", "place_name": "Kishoreganj Sadar", "latitude": "24.3394", "longitude": "90.7603"}, {"country_code": "BD", "postal_code": "2301", "place_name": "Kishoreganj S.Mills", "latitude": "24.3394", "longitude": "90.7603"}, {"country_code": "BD", "postal_code": "2302", "place_name": "Maizhati", "latitude": "24.3394", "longitude": "90.7603"}, {"country_code": "BD", "postal_code": "2303", "place_name": "Nilganj", "latitude": "24.3394", "longitude": "90.7603"}, {"country_code": "BD", "postal_code": "2310", "place_name": "Karimganj", "latitude": "24.4678", "longitude": "90.8705"}, {"country_code": "BD", "postal_code": "2316", "place_name": "Tarial", "latitude": "24.4678", "longitude": "90.8705"}, {"country_code": "BD", "postal_code": "2320", "place_name": "Hossenpur", "latitude": "24.3491", "longitude": "90.9571"}, {"country_code": "BD", "postal_code": "2326", "place_name": "Pakundia", "latitude": "24.3491", "longitude": "90.9571"}, {"country_code": "BD", "postal_code": "2330", "place_name": "Katiadi", "latitude": "24.2162", "longitude": "90.95"}, {"country_code": "BD", "postal_code": "2331", "place_name": "Gochhihata", "latitude": "24.2162", "longitude": "90.95"}, {"country_code": "BD", "postal_code": "2336", "place_name": "Bajitpur", "latitude": "24.2162", "longitude": "90.95"}, {"country_code": "BD", "postal_code": "2337", "place_name": "Sararchar", "latitude": "24.2162", "longitude": "90.95"}, {"country_code": "BD", "postal_code": "2338", "place_name": "Laksmipur", "latitude": "24.2162", "longitude": "90.95"}, {"country_code": "BD", "postal_code": "2340", "place_name": "Kuliarchar", "latitude": "24.155", "longitude": "90.9"}, {"country_code": "BD", "postal_code": "2341", "place_name": "Chhoysuti", "latitude": "24.155", "longitude": "90.9"}, {"country_code": "BD", "postal_code": "2350", "place_name": "Bhairab", "latitude": "24.3491", "longitude": "90.9571"}, {"country_code": "BD", "postal_code": "2360", "place_name": "Nikli", "latitude": "24.3491", "longitude": "90.9571"}, {"country_code": "BD", "postal_code": "2370", "place_name": "MIthamoin", "latitude": "24.3895", "longitude": "91.1657"}, {"country_code": "BD", "postal_code": "2371", "place_name": "Abdullahpur", "latitude": "24.3895", "longitude": "91.1657"}, {"country_code": "BD", "postal_code": "2380", "place_name": "Ostagram", "latitude": "24.3491", "longitude": "90.9571"}, {"country_code": "BD", "postal_code": "2390", "place_name": "Itna", "latitude": "24.5269", "longitude": "91.096"}, {"country_code": "BD", "postal_code": "7900", "place_name": "Madaripur Sadar", "latitude": "23.1691", "longitude": "90.2258"}, {"country_code": "BD", "postal_code": "7901", "place_name": "Charmugria", "latitude": "23.1691", "longitude": "90.2258"}, {"country_code": "BD", "postal_code": "7902", "place_name": "Kulpaddi", "latitude": "23.1691", "longitude": "90.2258"}, {"country_code": "BD", "postal_code": "7903", "place_name": "Habiganj", "latitude": "23.1691", "longitude": "90.2258"}, {"country_code": "BD", "postal_code": "7904", "place_name": "Mustafapur", "latitude": "23.1691", "longitude": "90.2258"}, {"country_code": "BD", "postal_code": "7910", "place_name": "Rajoir", "latitude": "23.2069", "longitude": "90.0505"}, {"country_code": "BD", "postal_code": "7911", "place_name": "Khalia", "latitude": "23.2221", "longitude": "90.0013"}, {"country_code": "BD", "postal_code": "7920", "place_name": "Kalkini", "latitude": "23.1", "longitude": "90.2667"}, {"country_code": "BD", "postal_code": "7921", "place_name": "Sahabrampur", "latitude": "23.1", "longitude": "90.2667"}, {"country_code": "BD", "postal_code": "7930", "place_name": "Barhamganj", "latitude": "23.2786", "longitude": "90.1741"}, {"country_code": "BD", "postal_code": "7931", "place_name": "Nilaksmibandar", "latitude": "23.2786", "longitude": "90.1741"}, {"country_code": "BD", "postal_code": "7932", "place_name": "Bahadurpur", "latitude": "23.2365", "longitude": "90.1424"}, {"country_code": "BD", "postal_code": "7933", "place_name": "Umedpur", "latitude": "23.3208", "longitude": "90.2057"}, {"country_code": "BD", "postal_code": "1800", "place_name": "Manikganj Sadar", "latitude": "23.8473", "longitude": "89.8707"}, {"country_code": "BD", "postal_code": "1801", "place_name": "Manikganj Bazar", "latitude": "23.8473", "longitude": "89.8707"}, {"country_code": "BD", "postal_code": "1802", "place_name": "Gorpara", "latitude": "23.8473", "longitude": "89.8707"}, {"country_code": "BD", "postal_code": "1803", "place_name": "Mahadebpur", "latitude": "23.8499", "longitude": "89.8783"}, {"country_code": "BD", "postal_code": "1804", "place_name": "Barangail", "latitude": "23.8447", "longitude": "89.8631"}, {"country_code": "BD", "postal_code": "1810", "place_name": "Saturia", "latitude": "23.8863", "longitude": "89.7719"}, {"country_code": "BD", "postal_code": "1811", "place_name": "Baliati", "latitude": "23.9939", "longitude": "90.0404"}, {"country_code": "BD", "postal_code": "1820", "place_name": "Singair", "latitude": "23.8129", "longitude": "90.1428"}, {"country_code": "BD", "postal_code": "1821", "place_name": "Baira", "latitude": "23.8206", "longitude": "90.0727"}, {"country_code": "BD", "postal_code": "1822", "place_name": "joymantop", "latitude": "23.8167", "longitude": "90.1078"}, {"country_code": "BD", "postal_code": "1830", "place_name": "Lechhraganj", "latitude": "23.8609", "longitude": "89.9366"}, {"country_code": "BD", "postal_code": "1831", "place_name": "Jhitka", "latitude": "23.8609", "longitude": "89.9366"}, {"country_code": "BD", "postal_code": "1840", "place_name": "Gheor", "latitude": "23.8609", "longitude": "89.9366"}, {"country_code": "BD", "postal_code": "1850", "place_name": "Shibaloy", "latitude": "23.8178", "longitude": "89.7866"}, {"country_code": "BD", "postal_code": "1851", "place_name": "Aricha", "latitude": "23.8178", "longitude": "89.7866"}, {"country_code": "BD", "postal_code": "1852", "place_name": "Tewta", "latitude": "23.8178", "longitude": "89.7866"}, {"country_code": "BD", "postal_code": "1853", "place_name": "Uthli", "latitude": "23.8178", "longitude": "89.7866"}, {"country_code": "BD", "postal_code": "1860", "place_name": "Doulatpur", "latitude": "23.8609", "longitude": "89.9366"}, {"country_code": "BD", "postal_code": "1333", "place_name": "Haridia", "latitude": "23.4608", "longitude": "90.3835"}, {"country_code": "BD", "postal_code": "1334", "place_name": "Gouragonj", "latitude": "23.5412", "longitude": "90.2538"}, {"country_code": "BD", "postal_code": "1335", "place_name": "Madini Mandal", "latitude": "23.5412", "longitude": "90.2538"}, {"country_code": "BD", "postal_code": "1500", "place_name": "Munshiganj Sadar", "latitude": "23.55", "longitude": "90.4167"}, {"country_code": "BD", "postal_code": "1501", "place_name": "Rikabibazar", "latitude": "23.55", "longitude": "90.4167"}, {"country_code": "BD", "postal_code": "1502", "place_name": "Mirkadim", "latitude": "23.55", "longitude": "90.4167"}, {"country_code": "BD", "postal_code": "1503", "place_name": "Kathakhali", "latitude": "23.55", "longitude": "90.4167"}, {"country_code": "BD", "postal_code": "1510", "place_name": "Gajaria", "latitude": "23.8167", "longitude": "90.4833"}, {"country_code": "BD", "postal_code": "1511", "place_name": "Hossendi", "latitude": "23.675", "longitude": "90.5462"}, {"country_code": "BD", "postal_code": "1512", "place_name": "Rasulpur", "latitude": "23.5333", "longitude": "90.609"}, {"country_code": "BD", "postal_code": "1520", "place_name": "Tangibari", "latitude": "23.5126", "longitude": "90.4664"}, {"country_code": "BD", "postal_code": "1521", "place_name": "Betkahat", "latitude": "23.4576", "longitude": "90.4677"}, {"country_code": "BD", "postal_code": "1522", "place_name": "Baligao", "latitude": "23.4576", "longitude": "90.4677"}, {"country_code": "BD", "postal_code": "1523", "place_name": "Bajrajugini", "latitude": "23.4576", "longitude": "90.4677"}, {"country_code": "BD", "postal_code": "1524", "place_name": "Hasail", "latitude": "23.4354", "longitude": "90.452"}, {"country_code": "BD", "postal_code": "1525", "place_name": "Dighirpar", "latitude": "23.4249", "longitude": "90.4848"}, {"country_code": "BD", "postal_code": "1526", "place_name": "Pura EDSO", "latitude": "23.4576", "longitude": "90.4677"}, {"country_code": "BD", "postal_code": "1527", "place_name": "Pura", "latitude": "23.4576", "longitude": "90.4677"}, {"country_code": "BD", "postal_code": "1530", "place_name": "Lohajang", "latitude": "23.45", "longitude": "90.35"}, {"country_code": "BD", "postal_code": "1531", "place_name": "Korhati", "latitude": "23.45", "longitude": "90.3"}, {"country_code": "BD", "postal_code": "1532", "place_name": "Haldia SO", "latitude": "23.45", "longitude": "90.325"}, {"country_code": "BD", "postal_code": "1533", "place_name": "Haridia DESO", "latitude": "23.45", "longitude": "90.325"}, {"country_code": "BD", "postal_code": "1534", "place_name": "Gouragonj", "latitude": "23.45", "longitude": "90.325"}, {"country_code": "BD", "postal_code": "1535", "place_name": "Medini Mandal EDSO", "latitude": "23.45", "longitude": "90.325"}, {"country_code": "BD", "postal_code": "1540", "place_name": "Sirajdikhan", "latitude": "23.5604", "longitude": "90.3444"}, {"country_code": "BD", "postal_code": "1541", "place_name": "Kola", "latitude": "23.5604", "longitude": "90.3444"}, {"country_code": "BD", "postal_code": "1542", "place_name": "Ichapur", "latitude": "23.5604", "longitude": "90.3444"}, {"country_code": "BD", "postal_code": "1543", "place_name": "Malkha Nagar", "latitude": "23.5604", "longitude": "90.3444"}, {"country_code": "BD", "postal_code": "1544", "place_name": "Shekher Nagar", "latitude": "23.5604", "longitude": "90.3444"}, {"country_code": "BD", "postal_code": "1550", "place_name": "Srinagar", "latitude": "23.55", "longitude": "90.65"}, {"country_code": "BD", "postal_code": "1551", "place_name": "Barikhal", "latitude": "23.5284", "longitude": "90.3663"}, {"country_code": "BD", "postal_code": "1552", "place_name": "Mazpara", "latitude": "23.5284", "longitude": "90.3663"}, {"country_code": "BD", "postal_code": "1553", "place_name": "Hashara", "latitude": "23.5284", "longitude": "90.3663"}, {"country_code": "BD", "postal_code": "1554", "place_name": "Kolapara", "latitude": "23.4988", "longitude": "90.2571"}, {"country_code": "BD", "postal_code": "1555", "place_name": "Kumarbhog", "latitude": "23.5284", "longitude": "90.3663"}, {"country_code": "BD", "postal_code": "1556", "place_name": "Vaggyakul SO", "latitude": "23.5284", "longitude": "90.3663"}, {"country_code": "BD", "postal_code": "1557", "place_name": "Baghra", "latitude": "23.5364", "longitude": "90.1919"}, {"country_code": "BD", "postal_code": "1558", "place_name": "Bhaggyakul", "latitude": "23.5284", "longitude": "90.3663"}, {"country_code": "BD", "postal_code": "1400", "place_name": "Narayanganj Sadar", "latitude": "23.7197", "longitude": "90.5634"}, {"country_code": "BD", "postal_code": "1410", "place_name": "Bandar", "latitude": "23.6173", "longitude": "90.5283"}, {"country_code": "BD", "postal_code": "1411", "place_name": "D.C Mills", "latitude": "23.6106", "longitude": "90.5234"}, {"country_code": "BD", "postal_code": "1412", "place_name": "Nabiganj", "latitude": "23.6286", "longitude": "90.5197"}, {"country_code": "BD", "postal_code": "1413", "place_name": "BIDS", "latitude": "23.6106", "longitude": "90.5234"}, {"country_code": "BD", "postal_code": "1414", "place_name": "Madanganj", "latitude": "23.5858", "longitude": "90.522"}, {"country_code": "BD", "postal_code": "1420", "place_name": "Fatullah", "latitude": "23.65", "longitude": "90.49"}, {"country_code": "BD", "postal_code": "1421", "place_name": "Fatulla Bazar", "latitude": "23.65", "longitude": "90.49"}, {"country_code": "BD", "postal_code": "1430", "place_name": "Siddirganj", "latitude": "23.7197", "longitude": "90.5634"}, {"country_code": "BD", "postal_code": "1431", "place_name": "Adamjeenagar", "latitude": "23.7197", "longitude": "90.5634"}, {"country_code": "BD", "postal_code": "1432", "place_name": "LN Mills", "latitude": "23.7197", "longitude": "90.5634"}, {"country_code": "BD", "postal_code": "1440", "place_name": "Baidder Bazar", "latitude": "23.7197", "longitude": "90.5634"}, {"country_code": "BD", "postal_code": "1441", "place_name": "Bara Nagar", "latitude": "23.7197", "longitude": "90.5634"}, {"country_code": "BD", "postal_code": "1442", "place_name": "Barodi", "latitude": "23.7197", "longitude": "90.5634"}, {"country_code": "BD", "postal_code": "1450", "place_name": "Araihazar", "latitude": "23.7941", "longitude": "90.6575"}, {"country_code": "BD", "postal_code": "1451", "place_name": "Gopaldi", "latitude": "23.8057", "longitude": "90.7103"}, {"country_code": "BD", "postal_code": "1460", "place_name": "Rupganj", "latitude": "23.7986", "longitude": "90.5475"}, {"country_code": "BD", "postal_code": "1461", "place_name": "Kanchan", "latitude": "23.831", "longitude": "90.558"}, {"country_code": "BD", "postal_code": "1462", "place_name": "Bhulta", "latitude": "23.7775", "longitude": "90.5593"}, {"country_code": "BD", "postal_code": "1463", "place_name": "Nagri", "latitude": "23.7986", "longitude": "90.5475"}, {"country_code": "BD", "postal_code": "1464", "place_name": "Murapara", "latitude": "23.7871", "longitude": "90.5252"}, {"country_code": "BD", "postal_code": "1600", "place_name": "Narshingdi Sadar", "latitude": "23.9282", "longitude": "90.6994"}, {"country_code": "BD", "postal_code": "1601", "place_name": "UMC Jute Mills", "latitude": "23.9282", "longitude": "90.6994"}, {"country_code": "BD", "postal_code": "1602", "place_name": "Narshingdi College", "latitude": "23.9282", "longitude": "90.6994"}, {"country_code": "BD", "postal_code": "1603", "place_name": "Panchdona", "latitude": "23.8983", "longitude": "90.6615"}, {"country_code": "BD", "postal_code": "1604", "place_name": "Madhabdi", "latitude": "23.999", "longitude": "90.6925"}, {"country_code": "BD", "postal_code": "1605", "place_name": "Karimpur", "latitude": "23.8874", "longitude": "90.7442"}, {"country_code": "BD", "postal_code": "1610", "place_name": "Palash", "latitude": "23.95", "longitude": "90.625"}, {"country_code": "BD", "postal_code": "1611", "place_name": "Ghorashal Urea Facto", "latitude": "23.9456", "longitude": "90.6277"}, {"country_code": "BD", "postal_code": "1612", "place_name": "Char Sindhur", "latitude": "23.9456", "longitude": "90.6277"}, {"country_code": "BD", "postal_code": "1613", "place_name": "Ghorashal", "latitude": "23.9413", "longitude": "90.6304"}, {"country_code": "BD", "postal_code": "1620", "place_name": "Shibpur", "latitude": "24.0394", "longitude": "90.7392"}, {"country_code": "BD", "postal_code": "1630", "place_name": "Raypura", "latitude": "24.0186", "longitude": "90.7129"}, {"country_code": "BD", "postal_code": "1631", "place_name": "Bazar Hasnabad", "latitude": "24.0186", "longitude": "90.7129"}, {"country_code": "BD", "postal_code": "1632", "place_name": "Radhaganj bazar", "latitude": "24.0186", "longitude": "90.7129"}, {"country_code": "BD", "postal_code": "1640", "place_name": "Belabo", "latitude": "24.1035", "longitude": "90.8458"}, {"country_code": "BD", "postal_code": "1650", "place_name": "Monohordi", "latitude": "24.1155", "longitude": "90.7271"}, {"country_code": "BD", "postal_code": "1651", "place_name": "Hatirdia", "latitude": "24.1007", "longitude": "90.703"}, {"country_code": "BD", "postal_code": "1652", "place_name": "Katabaria", "latitude": "24.1508", "longitude": "90.7608"}, {"country_code": "BD", "postal_code": "7700", "place_name": "Rajbari Sadar", "latitude": "23.7187", "longitude": "89.6105"}, {"country_code": "BD", "postal_code": "7710", "place_name": "Goalanda", "latitude": "23.7241", "longitude": "89.765"}, {"country_code": "BD", "postal_code": "7711", "place_name": "Khankhanapur", "latitude": "23.6924", "longitude": "89.7064"}, {"country_code": "BD", "postal_code": "7720", "place_name": "Pangsha", "latitude": "23.7808", "longitude": "89.4246"}, {"country_code": "BD", "postal_code": "7721", "place_name": "Ramkol", "latitude": "23.7968", "longitude": "89.3513"}, {"country_code": "BD", "postal_code": "7722", "place_name": "Ratandia", "latitude": "23.7648", "longitude": "89.4978"}, {"country_code": "BD", "postal_code": "7723", "place_name": "Mrigibazar", "latitude": "23.7808", "longitude": "89.4246"}, {"country_code": "BD", "postal_code": "7730", "place_name": "Baliakandi", "latitude": "23.7252", "longitude": "89.7201"}, {"country_code": "BD", "postal_code": "7731", "place_name": "Nalia", "latitude": "23.6091", "longitude": "89.6226"}, {"country_code": "BD", "postal_code": "8000", "place_name": "Shariatpur Sadar", "latitude": "23.2578", "longitude": "90.3152"}, {"country_code": "BD", "postal_code": "8001", "place_name": "Angaria", "latitude": "23.2578", "longitude": "90.3152"}, {"country_code": "BD", "postal_code": "8002", "place_name": "Chikandi", "latitude": "23.2578", "longitude": "90.3152"}, {"country_code": "BD", "postal_code": "8010", "place_name": "Jajira", "latitude": "23.2328", "longitude": "90.4242"}, {"country_code": "BD", "postal_code": "8020", "place_name": "Naria", "latitude": "23.3029", "longitude": "90.4087"}, {"country_code": "BD", "postal_code": "8021", "place_name": "Bhozeshwar", "latitude": "23.2709", "longitude": "90.453"}, {"country_code": "BD", "postal_code": "8022", "place_name": "Gharisar", "latitude": "23.2707", "longitude": "90.4776"}, {"country_code": "BD", "postal_code": "8023", "place_name": "Upshi", "latitude": "23.2709", "longitude": "90.453"}, {"country_code": "BD", "postal_code": "8024", "place_name": "Kartikpur", "latitude": "23.2391", "longitude": "90.4729"}, {"country_code": "BD", "postal_code": "8030", "place_name": "Bhedorganj", "latitude": "23.2328", "longitude": "90.4242"}, {"country_code": "BD", "postal_code": "8040", "place_name": "Damudhya", "latitude": "23.2328", "longitude": "90.4242"}, {"country_code": "BD", "postal_code": "8050", "place_name": "Gosairhat", "latitude": "23.0934", "longitude": "90.4468"}, {"country_code": "BD", "postal_code": "1900", "place_name": "Tangail Sadar", "latitude": "24.3551", "longitude": "90.0386"}, {"country_code": "BD", "postal_code": "1901", "place_name": "Kagmari", "latitude": "24.3551", "longitude": "90.0386"}, {"country_code": "BD", "postal_code": "1902", "place_name": "Santosh", "latitude": "24.3551", "longitude": "90.0386"}, {"country_code": "BD", "postal_code": "1903", "place_name": "Korotia", "latitude": "24.3551", "longitude": "90.0386"}, {"country_code": "BD", "postal_code": "1904", "place_name": "Purabari", "latitude": "24.3551", "longitude": "90.0386"}, {"country_code": "BD", "postal_code": "1910", "place_name": "Delduar", "latitude": "24.1597", "longitude": "89.9621"}, {"country_code": "BD", "postal_code": "1911", "place_name": "Jangalia", "latitude": "23.9854", "longitude": "90.0662"}, {"country_code": "BD", "postal_code": "1912", "place_name": "Patharail", "latitude": "23.8667", "longitude": "89.95"}, {"country_code": "BD", "postal_code": "1913", "place_name": "Elasin", "latitude": "24.0039", "longitude": "89.9928"}, {"country_code": "BD", "postal_code": "1914", "place_name": "Hinga Nagar", "latitude": "24.0039", "longitude": "89.9928"}, {"country_code": "BD", "postal_code": "1915", "place_name": "Lowhati", "latitude": "24.0039", "longitude": "89.9928"}, {"country_code": "BD", "postal_code": "1920", "place_name": "Basail", "latitude": "24.2857", "longitude": "90.0003"}, {"country_code": "BD", "postal_code": "1930", "place_name": "Kashkawlia", "latitude": "24.0578", "longitude": "89.877"}, {"country_code": "BD", "postal_code": "1936", "place_name": "Nagarpur", "latitude": "24.0578", "longitude": "89.877"}, {"country_code": "BD", "postal_code": "1937", "place_name": "Dhuburia", "latitude": "24.0578", "longitude": "89.877"}, {"country_code": "BD", "postal_code": "1938", "place_name": "Salimabad", "latitude": "24.0578", "longitude": "89.877"}, {"country_code": "BD", "postal_code": "1940", "place_name": "Mirzapur", "latitude": "24.1029", "longitude": "90.0984"}, {"country_code": "BD", "postal_code": "1941", "place_name": "Gorai", "latitude": "24.0926", "longitude": "90.1623"}, {"country_code": "BD", "postal_code": "1942", "place_name": "M.C. College", "latitude": "24.0977", "longitude": "90.1303"}, {"country_code": "BD", "postal_code": "1943", "place_name": "Warri paikpara", "latitude": "24.0977", "longitude": "90.1303"}, {"country_code": "BD", "postal_code": "1944", "place_name": "Jarmuki", "latitude": "24.0977", "longitude": "90.1303"}, {"country_code": "BD", "postal_code": "1945", "place_name": "Mohera", "latitude": "24.0977", "longitude": "90.1303"}, {"country_code": "BD", "postal_code": "1950", "place_name": "Sakhipur", "latitude": "24.3199", "longitude": "90.1694"}, {"country_code": "BD", "postal_code": "1951", "place_name": "Kochua", "latitude": "24.3199", "longitude": "90.1694"}, {"country_code": "BD", "postal_code": "1960", "place_name": "Bhuapur", "latitude": "24.4604", "longitude": "89.8727"}, {"country_code": "BD", "postal_code": "1970", "place_name": "Kalihati", "latitude": "24.3824", "longitude": "90.0006"}, {"country_code": "BD", "postal_code": "1971", "place_name": "Rajafair", "latitude": "24.4", "longitude": "90.0333"}, {"country_code": "BD", "postal_code": "1972", "place_name": "Nagbari", "latitude": "24.3451", "longitude": "90.0494"}, {"country_code": "BD", "postal_code": "1973", "place_name": "Ballabazar", "latitude": "24.3824", "longitude": "90.0006"}, {"country_code": "BD", "postal_code": "1974", "place_name": "Elinga", "latitude": "24.3824", "longitude": "90.0006"}, {"country_code": "BD", "postal_code": "1975", "place_name": "Palisha", "latitude": "24.3824", "longitude": "90.0006"}, {"country_code": "BD", "postal_code": "1976", "place_name": "Nagarbari SO", "latitude": "24.3824", "longitude": "90.0006"}, {"country_code": "BD", "postal_code": "1977", "place_name": "Nagarbari", "latitude": "24.4022", "longitude": "89.919"}, {"country_code": "BD", "postal_code": "1980", "place_name": "Ghatial", "latitude": "24.2857", "longitude": "90.0003"}, {"country_code": "BD", "postal_code": "1981", "place_name": "Zahidganj", "latitude": "24.2857", "longitude": "90.0003"}, {"country_code": "BD", "postal_code": "1982", "place_name": "D. Pakutia", "latitude": "24.2857", "longitude": "90.0003"}, {"country_code": "BD", "postal_code": "1983", "place_name": "Dhalapara", "latitude": "24.2857", "longitude": "90.0003"}, {"country_code": "BD", "postal_code": "1984", "place_name": "Lohani", "latitude": "24.2857", "longitude": "90.0003"}, {"country_code": "BD", "postal_code": "1990", "place_name": "Gopalpur", "latitude": "24.5601", "longitude": "89.9218"}, {"country_code": "BD", "postal_code": "1991", "place_name": "Jhowail", "latitude": "24.5793", "longitude": "89.9353"}, {"country_code": "BD", "postal_code": "1992", "place_name": "Hemnagar", "latitude": "24.5658", "longitude": "89.8525"}, {"country_code": "BD", "postal_code": "1996", "place_name": "Madhupur", "latitude": "24.6119", "longitude": "90.0315"}, {"country_code": "BD", "postal_code": "1997", "place_name": "Dhobari", "latitude": "24.5793", "longitude": "89.9353"}, {"country_code": "BD", "postal_code": "9300", "place_name": "Bagerhat Sadar", "latitude": "22.6953", "longitude": "89.7194"}, {"country_code": "BD", "postal_code": "9301", "place_name": "P.C College", "latitude": "22.6953", "longitude": "89.7194"}, {"country_code": "BD", "postal_code": "9302", "place_name": "Rangdia", "latitude": "22.6953", "longitude": "89.7194"}, {"country_code": "BD", "postal_code": "9310", "place_name": "Kachua", "latitude": "22.6526", "longitude": "89.8856"}, {"country_code": "BD", "postal_code": "9311", "place_name": "Sonarkola", "latitude": "22.6526", "longitude": "89.8856"}, {"country_code": "BD", "postal_code": "9320", "place_name": "Morelganj", "latitude": "22.6953", "longitude": "89.7194"}, {"country_code": "BD", "postal_code": "9321", "place_name": "Sannasi Bazar", "latitude": "22.6953", "longitude": "89.7194"}, {"country_code": "BD", "postal_code": "9322", "place_name": "Telisatee", "latitude": "22.6953", "longitude": "89.7194"}, {"country_code": "BD", "postal_code": "9330", "place_name": "Rayenda", "latitude": "22.3096", "longitude": "89.8421"}, {"country_code": "BD", "postal_code": "9340", "place_name": "Rampal", "latitude": "22.6686", "longitude": "89.6365"}, {"country_code": "BD", "postal_code": "9341", "place_name": "Foylahat", "latitude": "22.6686", "longitude": "89.6365"}, {"country_code": "BD", "postal_code": "9342", "place_name": "Sonatunia", "latitude": "22.6686", "longitude": "89.6365"}, {"country_code": "BD", "postal_code": "9343", "place_name": "Gourambha", "latitude": "22.6686", "longitude": "89.6365"}, {"country_code": "BD", "postal_code": "9350", "place_name": "Chalna Ankorage", "latitude": "22.4889", "longitude": "89.5958"}, {"country_code": "BD", "postal_code": "9351", "place_name": "Mongla Port", "latitude": "22.4889", "longitude": "89.5958"}, {"country_code": "BD", "postal_code": "9360", "place_name": "Chitalmari", "latitude": "22.7571", "longitude": "89.6683"}, {"country_code": "BD", "postal_code": "9361", "place_name": "Barabaria", "latitude": "22.7571", "longitude": "89.6683"}, {"country_code": "BD", "postal_code": "9370", "place_name": "Fakirhat", "latitude": "22.7785", "longitude": "89.7058"}, {"country_code": "BD", "postal_code": "9371", "place_name": "Mansa", "latitude": "22.7935", "longitude": "89.6723"}, {"country_code": "BD", "postal_code": "9372", "place_name": "Bhanganpar Bazar", "latitude": "22.786", "longitude": "89.689"}, {"country_code": "BD", "postal_code": "9380", "place_name": "Mollahat", "latitude": "22.9044", "longitude": "89.7341"}, {"country_code": "BD", "postal_code": "9381", "place_name": "Kahalpur", "latitude": "22.9044", "longitude": "89.7341"}, {"country_code": "BD", "postal_code": "9382", "place_name": "Dariala", "latitude": "22.9141", "longitude": "89.739"}, {"country_code": "BD", "postal_code": "9383", "place_name": "Charkulia", "latitude": "22.9044", "longitude": "89.7341"}, {"country_code": "BD", "postal_code": "9384", "place_name": "Nagarkandi", "latitude": "22.8946", "longitude": "89.7292"}, {"country_code": "BD", "postal_code": "9385", "place_name": "Pak Gangni", "latitude": "22.9044", "longitude": "89.7341"}, {"country_code": "BD", "postal_code": "7200", "place_name": "Chuadanga Sadar", "latitude": "23.7144", "longitude": "88.8957"}, {"country_code": "BD", "postal_code": "7201", "place_name": "Munshiganj", "latitude": "23.7144", "longitude": "88.8957"}, {"country_code": "BD", "postal_code": "7210", "place_name": "Alamdanga", "latitude": "23.7899", "longitude": "88.9033"}, {"country_code": "BD", "postal_code": "7211", "place_name": "Hardi", "latitude": "23.7899", "longitude": "88.9033"}, {"country_code": "BD", "postal_code": "7220", "place_name": "Damurhuda", "latitude": "23.6101", "longitude": "88.7798"}, {"country_code": "BD", "postal_code": "7221", "place_name": "Darshana", "latitude": "23.5149", "longitude": "88.8019"}, {"country_code": "BD", "postal_code": "7222", "place_name": "Andulbaria", "latitude": "23.4804", "longitude": "88.892"}, {"country_code": "BD", "postal_code": "7230", "place_name": "Doulatganj", "latitude": "23.6219", "longitude": "88.8545"}, {"country_code": "BD", "postal_code": "7400", "place_name": "Jessore Sadar", "latitude": "23.1586", "longitude": "89.2586"}, {"country_code": "BD", "postal_code": "7401", "place_name": "Jessore Upa-Shahar", "latitude": "23.1586", "longitude": "89.2586"}, {"country_code": "BD", "postal_code": "7402", "place_name": "Chanchra", "latitude": "23.1484", "longitude": "89.2138"}, {"country_code": "BD", "postal_code": "7403", "place_name": "Jessore canttonment", "latitude": "23.1586", "longitude": "89.2586"}, {"country_code": "BD", "postal_code": "7404", "place_name": "Jessore Airbach", "latitude": "23.1586", "longitude": "89.2586"}, {"country_code": "BD", "postal_code": "7405", "place_name": "Rupdia", "latitude": "23.1315", "longitude": "89.294"}, {"country_code": "BD", "postal_code": "7406", "place_name": "Basundia", "latitude": "23.1245", "longitude": "89.3709"}, {"country_code": "BD", "postal_code": "7407", "place_name": "Churamankathi", "latitude": "23.23", "longitude": "89.1558"}, {"country_code": "BD", "postal_code": "7410", "place_name": "Chougachha", "latitude": "23.2576", "longitude": "89.0201"}, {"country_code": "BD", "postal_code": "7420", "place_name": "Jhikargachha", "latitude": "23.1113", "longitude": "89.0906"}, {"country_code": "BD", "postal_code": "7430", "place_name": "Sarsa", "latitude": "23.0572", "longitude": "88.9525"}, {"country_code": "BD", "postal_code": "7431", "place_name": "Benapole", "latitude": "23.047", "longitude": "88.9059"}, {"country_code": "BD", "postal_code": "7432", "place_name": "Jadabpur", "latitude": "23.0487", "longitude": "89.0122"}, {"country_code": "BD", "postal_code": "7433", "place_name": "Bag Achra", "latitude": "22.9655", "longitude": "88.9701"}, {"country_code": "BD", "postal_code": "7440", "place_name": "Monirampur", "latitude": "23.0263", "longitude": "89.234"}, {"country_code": "BD", "postal_code": "7450", "place_name": "Keshobpur", "latitude": "23.6172", "longitude": "88.7799"}, {"country_code": "BD", "postal_code": "7460", "place_name": "Noapara", "latitude": "23.1783", "longitude": "89.231"}, {"country_code": "BD", "postal_code": "7461", "place_name": "Rajghat", "latitude": "23.0024", "longitude": "89.4303"}, {"country_code": "BD", "postal_code": "7462", "place_name": "Bhugilhat", "latitude": "23.0143", "longitude": "89.4563"}, {"country_code": "BD", "postal_code": "7470", "place_name": "Bagharpara", "latitude": "23.227", "longitude": "89.3375"}, {"country_code": "BD", "postal_code": "7471", "place_name": "Gouranagar", "latitude": "23.227", "longitude": "89.3375"}, {"country_code": "BD", "postal_code": "7300", "place_name": "Jinaidaha Sadar", "latitude": "23.451", "longitude": "89.1023"}, {"country_code": "BD", "postal_code": "7301", "place_name": "Jinaidaha Cadet College", "latitude": "23.451", "longitude": "89.1023"}, {"country_code": "BD", "postal_code": "7310", "place_name": "Harinakundu", "latitude": "23.451", "longitude": "89.1023"}, {"country_code": "BD", "postal_code": "7320", "place_name": "Shailakupa", "latitude": "23.6098", "longitude": "89.3147"}, {"country_code": "BD", "postal_code": "7321", "place_name": "Kumiradaha", "latitude": "23.6098", "longitude": "89.3147"}, {"country_code": "BD", "postal_code": "7330", "place_name": "Kotchandpur", "latitude": "23.4023", "longitude": "89.0137"}, {"country_code": "BD", "postal_code": "7340", "place_name": "Maheshpur", "latitude": "23.3529", "longitude": "88.9122"}, {"country_code": "BD", "postal_code": "7350", "place_name": "Naldanga", "latitude": "23.439", "longitude": "89.1684"}, {"country_code": "BD", "postal_code": "7351", "place_name": "Hatbar Bazar", "latitude": "23.439", "longitude": "89.1684"}, {"country_code": "BD", "postal_code": "9000", "place_name": "Khulna G.P.O", "latitude": "22.8404", "longitude": "89.5392"}, {"country_code": "BD", "postal_code": "9100", "place_name": "Khula Sadar", "latitude": "22.8174", "longitude": "89.5648"}, {"country_code": "BD", "postal_code": "9201", "place_name": "Khulna Shipyard", "latitude": "23.1149", "longitude": "89.3222"}, {"country_code": "BD", "postal_code": "9202", "place_name": "Doulatpur", "latitude": "23.3139", "longitude": "89.1382"}, {"country_code": "BD", "postal_code": "9203", "place_name": "BIT Khulna", "latitude": "23.1149", "longitude": "89.3222"}, {"country_code": "BD", "postal_code": "9204", "place_name": "Siramani", "latitude": "22.916", "longitude": "89.5062"}, {"country_code": "BD", "postal_code": "9205", "place_name": "Jahanabad Canttonmen", "latitude": "23.1149", "longitude": "89.3222"}, {"country_code": "BD", "postal_code": "9206", "place_name": "Sonali Jute Mills", "latitude": "23.1149", "longitude": "89.3222"}, {"country_code": "BD", "postal_code": "9207", "place_name": "Atra Shilpa Area", "latitude": "23.1149", "longitude": "89.3222"}, {"country_code": "BD", "postal_code": "9208", "place_name": "Khulna University", "latitude": "23.1149", "longitude": "89.3222"}, {"country_code": "BD", "postal_code": "9210", "place_name": "Phultala", "latitude": "22.7167", "longitude": "89.5119"}, {"country_code": "BD", "postal_code": "9220", "place_name": "Digalia", "latitude": "22.9325", "longitude": "89.5598"}, {"country_code": "BD", "postal_code": "9221", "place_name": "Chandni Mahal", "latitude": "22.9325", "longitude": "89.5598"}, {"country_code": "BD", "postal_code": "9222", "place_name": "Senhati", "latitude": "22.8752", "longitude": "89.55"}, {"country_code": "BD", "postal_code": "9223", "place_name": "Ghoshghati", "latitude": "22.9325", "longitude": "89.5598"}, {"country_code": "BD", "postal_code": "9224", "place_name": "Gazirhat", "latitude": "22.9899", "longitude": "89.5696"}, {"country_code": "BD", "postal_code": "9230", "place_name": "Terakhada", "latitude": "22.9359", "longitude": "89.6706"}, {"country_code": "BD", "postal_code": "9231", "place_name": "Pak Barasat", "latitude": "22.9359", "longitude": "89.6706"}, {"country_code": "BD", "postal_code": "9240", "place_name": "Alaipur", "latitude": "22.8116", "longitude": "89.6364"}, {"country_code": "BD", "postal_code": "9241", "place_name": "Rupsha", "latitude": "22.8116", "longitude": "89.6364"}, {"country_code": "BD", "postal_code": "9242", "place_name": "Belphulia", "latitude": "22.8116", "longitude": "89.6364"}, {"country_code": "BD", "postal_code": "9250", "place_name": "Sajiara", "latitude": "22.823", "longitude": "89.42"}, {"country_code": "BD", "postal_code": "9251", "place_name": "Ghonabanda", "latitude": "22.7486", "longitude": "89.3095"}, {"country_code": "BD", "postal_code": "9252", "place_name": "Chuknagar", "latitude": "22.8395", "longitude": "89.3086"}, {"country_code": "BD", "postal_code": "9253", "place_name": "Shahapur", "latitude": "22.5833", "longitude": "89.2"}, {"country_code": "BD", "postal_code": "9260", "place_name": "Batiaghat", "latitude": "22.7442", "longitude": "89.4143"}, {"country_code": "BD", "postal_code": "9261", "place_name": "Surkalee", "latitude": "22.7442", "longitude": "89.4143"}, {"country_code": "BD", "postal_code": "9270", "place_name": "Chalna Bazar", "latitude": "22.4981", "longitude": "89.4937"}, {"country_code": "BD", "postal_code": "9271", "place_name": "Dakup", "latitude": "22.4981", "longitude": "89.4937"}, {"country_code": "BD", "postal_code": "9272", "place_name": "Bajua", "latitude": "22.5499", "longitude": "89.5394"}, {"country_code": "BD", "postal_code": "9273", "place_name": "Nalian", "latitude": "22.4462", "longitude": "89.448"}, {"country_code": "BD", "postal_code": "9280", "place_name": "Paikgachha", "latitude": "22.5831", "longitude": "89.3285"}, {"country_code": "BD", "postal_code": "9281", "place_name": "Godaipur", "latitude": "22.5829", "longitude": "89.2827"}, {"country_code": "BD", "postal_code": "9282", "place_name": "Kapilmoni", "latitude": "22.5829", "longitude": "89.2827"}, {"country_code": "BD", "postal_code": "9283", "place_name": "Katipara", "latitude": "22.6319", "longitude": "89.2579"}, {"country_code": "BD", "postal_code": "9284", "place_name": "Chandkhali", "latitude": "22.5338", "longitude": "89.2617"}, {"country_code": "BD", "postal_code": "9285", "place_name": "Garaikhali", "latitude": "22.5829", "longitude": "89.2827"}, {"country_code": "BD", "postal_code": "9290", "place_name": "Madinabad", "latitude": "22.357", "longitude": "89.281"}, {"country_code": "BD", "postal_code": "9291", "place_name": "Amadee", "latitude": "22.357", "longitude": "89.281"}, {"country_code": "BD", "postal_code": "7000", "place_name": "Kustia Sadar", "latitude": "23.9368", "longitude": "89.127"}, {"country_code": "BD", "postal_code": "7001", "place_name": "Kushtia Mohini", "latitude": "23.9086", "longitude": "89.1097"}, {"country_code": "BD", "postal_code": "7002", "place_name": "Jagati", "latitude": "23.8804", "longitude": "89.0925"}, {"country_code": "BD", "postal_code": "7003", "place_name": "Islami University", "latitude": "23.9086", "longitude": "89.1097"}, {"country_code": "BD", "postal_code": "7010", "place_name": "Kumarkhali", "latitude": "23.8613", "longitude": "89.242"}, {"country_code": "BD", "postal_code": "7011", "place_name": "Panti", "latitude": "23.7681", "longitude": "89.2129"}, {"country_code": "BD", "postal_code": "7020", "place_name": "Janipur", "latitude": "23.8003", "longitude": "89.2815"}, {"country_code": "BD", "postal_code": "7021", "place_name": "Khoksa", "latitude": "23.8003", "longitude": "89.2815"}, {"country_code": "BD", "postal_code": "7030", "place_name": "Mirpur", "latitude": "23.9372", "longitude": "88.9979"}, {"country_code": "BD", "postal_code": "7031", "place_name": "Poradaha", "latitude": "23.8662", "longitude": "89.0316"}, {"country_code": "BD", "postal_code": "7032", "place_name": "Amla Sadarpur", "latitude": "23.9017", "longitude": "89.0148"}, {"country_code": "BD", "postal_code": "7040", "place_name": "Bheramara", "latitude": "24.0245", "longitude": "88.9923"}, {"country_code": "BD", "postal_code": "7041", "place_name": "Ganges Bheramara", "latitude": "24.0245", "longitude": "88.9923"}, {"country_code": "BD", "postal_code": "7042", "place_name": "Allardarga", "latitude": "24.0245", "longitude": "88.9923"}, {"country_code": "BD", "postal_code": "7050", "place_name": "Rafayetpur", "latitude": "23.8843", "longitude": "89.1222"}, {"country_code": "BD", "postal_code": "7051", "place_name": "Taragunia", "latitude": "23.8843", "longitude": "89.1222"}, {"country_code": "BD", "postal_code": "7052", "place_name": "Khasmathurapur", "latitude": "23.8843", "longitude": "89.1222"}, {"country_code": "BD", "postal_code": "7600", "place_name": "Magura Sadar", "latitude": "23.3824", "longitude": "89.4612"}, {"country_code": "BD", "postal_code": "7610", "place_name": "Shripur", "latitude": "23.3824", "longitude": "89.4612"}, {"country_code": "BD", "postal_code": "7611", "place_name": "Langalbadh", "latitude": "23.3824", "longitude": "89.4612"}, {"country_code": "BD", "postal_code": "7612", "place_name": "Nachol", "latitude": "23.3824", "longitude": "89.4612"}, {"country_code": "BD", "postal_code": "7620", "place_name": "Arpara", "latitude": "23.3732", "longitude": "89.3764"}, {"country_code": "BD", "postal_code": "7630", "place_name": "Mohammadpur", "latitude": "23.387", "longitude": "89.5036"}, {"country_code": "BD", "postal_code": "7631", "place_name": "Binodpur", "latitude": "23.4381", "longitude": "89.504"}, {"country_code": "BD", "postal_code": "7632", "place_name": "Nahata", "latitude": "23.3359", "longitude": "89.5032"}, {"country_code": "BD", "postal_code": "7100", "place_name": "Meherpur Sadar", "latitude": "23.7431", "longitude": "88.685"}, {"country_code": "BD", "postal_code": "7101", "place_name": "Amjhupi", "latitude": "23.7431", "longitude": "88.685"}, {"country_code": "BD", "postal_code": "7102", "place_name": "Mujib Nagar Complex", "latitude": "23.7431", "longitude": "88.685"}, {"country_code": "BD", "postal_code": "7110", "place_name": "Gangni", "latitude": "23.7431", "longitude": "88.685"}, {"country_code": "BD", "postal_code": "7152", "place_name": "Amjhupi", "latitude": "23.7431", "longitude": "88.685"}, {"country_code": "BD", "postal_code": "7500", "place_name": "Narail Sadar", "latitude": "23.1404", "longitude": "89.6383"}, {"country_code": "BD", "postal_code": "7501", "place_name": "Ratanganj", "latitude": "23.1404", "longitude": "89.6383"}, {"country_code": "BD", "postal_code": "7510", "place_name": "Laxmipasha", "latitude": "23.1729", "longitude": "89.6408"}, {"country_code": "BD", "postal_code": "7511", "place_name": "Lohagora", "latitude": "23.1729", "longitude": "89.6408"}, {"country_code": "BD", "postal_code": "7512", "place_name": "Itna", "latitude": "23.1569", "longitude": "89.6935"}, {"country_code": "BD", "postal_code": "7513", "place_name": "Naldi", "latitude": "23.274", "longitude": "89.5492"}, {"country_code": "BD", "postal_code": "7514", "place_name": "Baradia", "latitude": "23.0878", "longitude": "89.6795"}, {"country_code": "BD", "postal_code": "7520", "place_name": "Kalia", "latitude": "23.043", "longitude": "89.6309"}, {"country_code": "BD", "postal_code": "7521", "place_name": "Mohajan", "latitude": "23.043", "longitude": "89.6309"}, {"country_code": "BD", "postal_code": "9400", "place_name": "Satkhira Sadar", "latitude": "22.6297", "longitude": "89.1474"}, {"country_code": "BD", "postal_code": "9401", "place_name": "Satkhira Islamia Acc", "latitude": "22.6297", "longitude": "89.1474"}, {"country_code": "BD", "postal_code": "9402", "place_name": "Gunakar kati", "latitude": "22.6297", "longitude": "89.1474"}, {"country_code": "BD", "postal_code": "9403", "place_name": "Budhhat", "latitude": "22.6297", "longitude": "89.1474"}, {"country_code": "BD", "postal_code": "9410", "place_name": "kalaroa", "latitude": "22.8593", "longitude": "89.043"}, {"country_code": "BD", "postal_code": "9411", "place_name": "Murarikati", "latitude": "22.3017", "longitude": "89.0538"}, {"country_code": "BD", "postal_code": "9412", "place_name": "Jhaudanga", "latitude": "22.8089", "longitude": "89.0363"}, {"country_code": "BD", "postal_code": "9413", "place_name": "Hamidpur", "latitude": "23.1556", "longitude": "89.2476"}, {"country_code": "BD", "postal_code": "9414", "place_name": "Khordo", "latitude": "22.7814", "longitude": "89.0952"}, {"country_code": "BD", "postal_code": "9415", "place_name": "Chandanpur", "latitude": "22.7814", "longitude": "89.0952"}, {"country_code": "BD", "postal_code": "9420", "place_name": "Taala", "latitude": "22.7733", "longitude": "89.1605"}, {"country_code": "BD", "postal_code": "9421", "place_name": "Patkelghata", "latitude": "22.7733", "longitude": "89.1605"}, {"country_code": "BD", "postal_code": "9430", "place_name": "Debbhata", "latitude": "22.6297", "longitude": "89.1474"}, {"country_code": "BD", "postal_code": "9431", "place_name": "Gurugram", "latitude": "22.6297", "longitude": "89.1474"}, {"country_code": "BD", "postal_code": "9440", "place_name": "Kaliganj UPO", "latitude": "22.6297", "longitude": "89.1474"}, {"country_code": "BD", "postal_code": "9441", "place_name": "Nalta Mubaroknagar", "latitude": "22.6297", "longitude": "89.1474"}, {"country_code": "BD", "postal_code": "9442", "place_name": "Ratanpur", "latitude": "22.6297", "longitude": "89.1474"}, {"country_code": "BD", "postal_code": "9450", "place_name": "Nakipur", "latitude": "22.3314", "longitude": "89.1191"}, {"country_code": "BD", "postal_code": "9451", "place_name": "Noornagar", "latitude": "22.3081", "longitude": "89.1964"}, {"country_code": "BD", "postal_code": "9452", "place_name": "Naobeki", "latitude": "22.3081", "longitude": "89.1964"}, {"country_code": "BD", "postal_code": "9453", "place_name": "Buri Goalini", "latitude": "22.3081", "longitude": "89.1964"}, {"country_code": "BD", "postal_code": "9454", "place_name": "Gabura", "latitude": "22.2847", "longitude": "89.2738"}, {"country_code": "BD", "postal_code": "9455", "place_name": "Habinagar", "latitude": "22.3081", "longitude": "89.1964"}, {"country_code": "BD", "postal_code": "9460", "place_name": "Ashashuni", "latitude": "22.5227", "longitude": "89.2455"}, {"country_code": "BD", "postal_code": "9461", "place_name": "Baradal", "latitude": "22.5227", "longitude": "89.2455"}, {"country_code": "BD", "postal_code": "5800", "place_name": "Bogra Sadar", "latitude": "24.806", "longitude": "89.3138"}, {"country_code": "BD", "postal_code": "5801", "place_name": "Bogra Canttonment", "latitude": "24.806", "longitude": "89.3138"}, {"country_code": "BD", "postal_code": "5810", "place_name": "Shibganj", "latitude": "25.0015", "longitude": "89.3227"}, {"country_code": "BD", "postal_code": "5820", "place_name": "Gabtoli", "latitude": "24.806", "longitude": "89.3138"}, {"country_code": "BD", "postal_code": "5821", "place_name": "Sukhanpukur", "latitude": "24.806", "longitude": "89.3138"}, {"country_code": "BD", "postal_code": "5826", "place_name": "Sonatola", "latitude": "24.806", "longitude": "89.3138"}, {"country_code": "BD", "postal_code": "5830", "place_name": "Sariakandi", "latitude": "24.8846", "longitude": "89.57"}, {"country_code": "BD", "postal_code": "5831", "place_name": "Chandan Baisha", "latitude": "24.8", "longitude": "89.5833"}, {"country_code": "BD", "postal_code": "5840", "place_name": "Sherpur", "latitude": "24.6765", "longitude": "89.4159"}, {"country_code": "BD", "postal_code": "5841", "place_name": "Chandaikona", "latitude": "24.5505", "longitude": "89.5063"}, {"country_code": "BD", "postal_code": "5842", "place_name": "Palli Unnyan Accadem", "latitude": "24.6135", "longitude": "89.4611"}, {"country_code": "BD", "postal_code": "5850", "place_name": "Dhunat", "latitude": "24.6859", "longitude": "89.5414"}, {"country_code": "BD", "postal_code": "5851", "place_name": "Gosaibari", "latitude": "25.0021", "longitude": "88.7189"}, {"country_code": "BD", "postal_code": "5860", "place_name": "Nandigram", "latitude": "24.806", "longitude": "89.3138"}, {"country_code": "BD", "postal_code": "5870", "place_name": "Kahalu", "latitude": "24.806", "longitude": "89.3138"}, {"country_code": "BD", "postal_code": "5880", "place_name": "Dupchachia", "latitude": "24.8441", "longitude": "89.1789"}, {"country_code": "BD", "postal_code": "5881", "place_name": "Talora", "latitude": "24.8441", "longitude": "89.1789"}, {"country_code": "BD", "postal_code": "5890", "place_name": "Adamdighi", "latitude": "24.8089", "longitude": "88.987"}, {"country_code": "BD", "postal_code": "5891", "place_name": "Santahar", "latitude": "24.8089", "longitude": "88.987"}, {"country_code": "BD", "postal_code": "5892", "place_name": "Nasharatpur", "latitude": "24.8089", "longitude": "88.987"}, {"country_code": "BD", "postal_code": "5900", "place_name": "Joypurhat Sadar", "latitude": "25.0971", "longitude": "89.1033"}, {"country_code": "BD", "postal_code": "5910", "place_name": "Panchbibi", "latitude": "25.1907", "longitude": "89.0221"}, {"country_code": "BD", "postal_code": "5920", "place_name": "Khetlal", "latitude": "25.0389", "longitude": "89.1214"}, {"country_code": "BD", "postal_code": "5930", "place_name": "kalai", "latitude": "25.0617", "longitude": "89.1665"}, {"country_code": "BD", "postal_code": "5940", "place_name": "Akklepur", "latitude": "25.0971", "longitude": "89.1033"}, {"country_code": "BD", "postal_code": "5941", "place_name": "jamalganj", "latitude": "25.0971", "longitude": "89.1033"}, {"country_code": "BD", "postal_code": "5942", "place_name": "Tilakpur", "latitude": "25.0971", "longitude": "89.1033"}, {"country_code": "BD", "postal_code": "6500", "place_name": "Naogaon Sadar", "latitude": "24.9317", "longitude": "88.6882"}, {"country_code": "BD", "postal_code": "6510", "place_name": "Prasadpur", "latitude": "24.833", "longitude": "88.7168"}, {"country_code": "BD", "postal_code": "6511", "place_name": "Manda", "latitude": "24.7989", "longitude": "88.7028"}, {"country_code": "BD", "postal_code": "6512", "place_name": "Balihar", "latitude": "24.816", "longitude": "88.7098"}, {"country_code": "BD", "postal_code": "6520", "place_name": "Niamatpur", "latitude": "24.8354", "longitude": "88.5646"}, {"country_code": "BD", "postal_code": "6530", "place_name": "Mahadebpur", "latitude": "24.9186", "longitude": "88.7511"}, {"country_code": "BD", "postal_code": "6540", "place_name": "Patnitala", "latitude": "25.0462", "longitude": "88.7515"}, {"country_code": "BD", "postal_code": "6550", "place_name": "Nitpur", "latitude": "25.0285", "longitude": "88.4611"}, {"country_code": "BD", "postal_code": "6551", "place_name": "Porsa", "latitude": "25.0285", "longitude": "88.4611"}, {"country_code": "BD", "postal_code": "6552", "place_name": "Panguria", "latitude": "25.0285", "longitude": "88.4611"}, {"country_code": "BD", "postal_code": "6560", "place_name": "Sapahar", "latitude": "25.1198", "longitude": "88.6013"}, {"country_code": "BD", "postal_code": "6561", "place_name": "Moduhil", "latitude": "25.1198", "longitude": "88.6013"}, {"country_code": "BD", "postal_code": "6570", "place_name": "Badalgachhi", "latitude": "24.9678", "longitude": "88.9074"}, {"country_code": "BD", "postal_code": "6580", "place_name": "Dhamuirhat", "latitude": "24.9317", "longitude": "88.6882"}, {"country_code": "BD", "postal_code": "6590", "place_name": "Raninagar", "latitude": "24.7398", "longitude": "88.9639"}, {"country_code": "BD", "postal_code": "6591", "place_name": "Kashimpur", "latitude": "24.7398", "longitude": "88.9639"}, {"country_code": "BD", "postal_code": "6596", "place_name": "Ahsanganj", "latitude": "24.7398", "longitude": "88.9639"}, {"country_code": "BD", "postal_code": "6597", "place_name": "Bandai", "latitude": "24.7398", "longitude": "88.9639"}, {"country_code": "BD", "postal_code": "6400", "place_name": "Natore Sadar", "latitude": "24.3519", "longitude": "89.0462"}, {"country_code": "BD", "postal_code": "6401", "place_name": "Digapatia", "latitude": "24.3519", "longitude": "89.0462"}, {"country_code": "BD", "postal_code": "6402", "place_name": "Baiddyabal Gharia", "latitude": "24.3519", "longitude": "89.0462"}, {"country_code": "BD", "postal_code": "6403", "place_name": "Madhnagar", "latitude": "24.3519", "longitude": "89.0462"}, {"country_code": "BD", "postal_code": "6410", "place_name": "Laxman", "latitude": "24.3519", "longitude": "89.0462"}, {"country_code": "BD", "postal_code": "6420", "place_name": "Gopalpur U.P.O", "latitude": "24.2581", "longitude": "88.9859"}, {"country_code": "BD", "postal_code": "6421", "place_name": "Lalpur S.O", "latitude": "24.2581", "longitude": "88.9859"}, {"country_code": "BD", "postal_code": "6422", "place_name": "Abdulpur", "latitude": "24.2581", "longitude": "88.9859"}, {"country_code": "BD", "postal_code": "6430", "place_name": "Harua", "latitude": "24.2952", "longitude": "89.0063"}, {"country_code": "BD", "postal_code": "6431", "place_name": "Dayarampur", "latitude": "24.2952", "longitude": "89.0063"}, {"country_code": "BD", "postal_code": "6432", "place_name": "Baraigram", "latitude": "24.2952", "longitude": "89.0063"}, {"country_code": "BD", "postal_code": "6440", "place_name": "Hatgurudaspur", "latitude": "24.3519", "longitude": "89.0462"}, {"country_code": "BD", "postal_code": "6450", "place_name": "Singra", "latitude": "24.5026", "longitude": "89.1462"}, {"country_code": "BD", "postal_code": "6300", "place_name": "Chapinawbganj Sadar", "latitude": "24.5992", "longitude": "88.2939"}, {"country_code": "BD", "postal_code": "6301", "place_name": "Rajarampur", "latitude": "24.5797", "longitude": "88.2741"}, {"country_code": "BD", "postal_code": "6302", "place_name": "Ramchandrapur", "latitude": "24.5987", "longitude": "88.2046"}, {"country_code": "BD", "postal_code": "6303", "place_name": "Amnura", "latitude": "24.6194", "longitude": "88.403"}, {"country_code": "BD", "postal_code": "6310", "place_name": "Nachol", "latitude": "24.7303", "longitude": "88.4203"}, {"country_code": "BD", "postal_code": "6311", "place_name": "Mandumala", "latitude": "24.7303", "longitude": "88.4203"}, {"country_code": "BD", "postal_code": "6320", "place_name": "Rohanpur", "latitude": "24.6962", "longitude": "88.2995"}, {"country_code": "BD", "postal_code": "6321", "place_name": "Gomashtapur", "latitude": "24.6962", "longitude": "88.2995"}, {"country_code": "BD", "postal_code": "6330", "place_name": "Bholahat", "latitude": "24.953", "longitude": "88.1957"}, {"country_code": "BD", "postal_code": "6340", "place_name": "Shibganj U.P.O", "latitude": "24.6962", "longitude": "88.2995"}, {"country_code": "BD", "postal_code": "6341", "place_name": "Kansart", "latitude": "24.6962", "longitude": "88.2995"}, {"country_code": "BD", "postal_code": "6342", "place_name": "Manaksha", "latitude": "24.6962", "longitude": "88.2995"}, {"country_code": "BD", "postal_code": "6600", "place_name": "Pabna Sadar", "latitude": "24.0034", "longitude": "89.2493"}, {"country_code": "BD", "postal_code": "6601", "place_name": "Kaliko Cotton Mills", "latitude": "24.0034", "longitude": "89.2493"}, {"country_code": "BD", "postal_code": "6602", "place_name": "Hamayetpur", "latitude": "24.0034", "longitude": "89.2493"}, {"country_code": "BD", "postal_code": "6610", "place_name": "Debottar", "latitude": "24.0793", "longitude": "89.4358"}, {"country_code": "BD", "postal_code": "6620", "place_name": "Ishwardi", "latitude": "24.393", "longitude": "89.0088"}, {"country_code": "BD", "postal_code": "6621", "place_name": "Dhapari", "latitude": "24.393", "longitude": "89.0088"}, {"country_code": "BD", "postal_code": "6622", "place_name": "Pakshi", "latitude": "24.393", "longitude": "89.0088"}, {"country_code": "BD", "postal_code": "6623", "place_name": "Rajapur", "latitude": "24.393", "longitude": "89.0088"}, {"country_code": "BD", "postal_code": "6630", "place_name": "Chatmohar", "latitude": "24.2296", "longitude": "89.2911"}, {"country_code": "BD", "postal_code": "6640", "place_name": "Bhangura", "latitude": "24.0793", "longitude": "89.4358"}, {"country_code": "BD", "postal_code": "6650", "place_name": "Banwarinagar", "latitude": "24.0793", "longitude": "89.4358"}, {"country_code": "BD", "postal_code": "6660", "place_name": "Sujanagar", "latitude": "23.8505", "longitude": "89.5954"}, {"country_code": "BD", "postal_code": "6661", "place_name": "Sagarkandi", "latitude": "23.8505", "longitude": "89.5954"}, {"country_code": "BD", "postal_code": "6670", "place_name": "Sathia", "latitude": "24.0793", "longitude": "89.4358"}, {"country_code": "BD", "postal_code": "6680", "place_name": "Bera", "latitude": "24.0782", "longitude": "89.6326"}, {"country_code": "BD", "postal_code": "6681", "place_name": "Nakalia", "latitude": "24.0347", "longitude": "89.6655"}, {"country_code": "BD", "postal_code": "6682", "place_name": "Kashinathpur", "latitude": "23.9657", "longitude": "89.6076"}, {"country_code": "BD", "postal_code": "6683", "place_name": "Puran Bharenga", "latitude": "24.0262", "longitude": "89.6352"}, {"country_code": "BD", "postal_code": "6000", "place_name": "Rajshahi Sadar", "latitude": "24.3644", "longitude": "88.6049"}, {"country_code": "BD", "postal_code": "6100", "place_name": "Ghuramara", "latitude": "24.3663", "longitude": "88.605"}, {"country_code": "BD", "postal_code": "6201", "place_name": "Rajshahi Court", "latitude": "24.7514", "longitude": "88.3819"}, {"country_code": "BD", "postal_code": "6202", "place_name": "Rajshahi Canttonment", "latitude": "24.7514", "longitude": "88.3819"}, {"country_code": "BD", "postal_code": "6203", "place_name": "Sapura", "latitude": "24.7514", "longitude": "88.3819"}, {"country_code": "BD", "postal_code": "6204", "place_name": "Kazla", "latitude": "24.7514", "longitude": "88.3819"}, {"country_code": "BD", "postal_code": "6205", "place_name": "Rajshahi University", "latitude": "24.7514", "longitude": "88.3819"}, {"country_code": "BD", "postal_code": "6206", "place_name": "Binodpur Bazar", "latitude": "24.7514", "longitude": "88.3819"}, {"country_code": "BD", "postal_code": "6210", "place_name": "Lalitganj", "latitude": "24.4067", "longitude": "89.1145"}, {"country_code": "BD", "postal_code": "6211", "place_name": "Rajshahi Sugar Mills", "latitude": "24.4067", "longitude": "89.1145"}, {"country_code": "BD", "postal_code": "6212", "place_name": "Shyampur", "latitude": "24.4067", "longitude": "89.1145"}, {"country_code": "BD", "postal_code": "6220", "place_name": "Khodmohanpur", "latitude": "24.4461", "longitude": "88.7166"}, {"country_code": "BD", "postal_code": "6230", "place_name": "Tanor", "latitude": "24.5909", "longitude": "88.5778"}, {"country_code": "BD", "postal_code": "6240", "place_name": "Durgapur", "latitude": "24.4466", "longitude": "88.7636"}, {"country_code": "BD", "postal_code": "6250", "place_name": "Bhabaniganj", "latitude": "24.5837", "longitude": "88.8216"}, {"country_code": "BD", "postal_code": "6251", "place_name": "Taharpur", "latitude": "24.5837", "longitude": "88.8216"}, {"country_code": "BD", "postal_code": "6260", "place_name": "Putia", "latitude": "24.4461", "longitude": "88.7166"}, {"country_code": "BD", "postal_code": "6270", "place_name": "Charghat", "latitude": "24.2821", "longitude": "88.7585"}, {"country_code": "BD", "postal_code": "6271", "place_name": "Sarda", "latitude": "24.2821", "longitude": "88.7585"}, {"country_code": "BD", "postal_code": "6280", "place_name": "Bagha", "latitude": "24.1978", "longitude": "88.8464"}, {"country_code": "BD", "postal_code": "6281", "place_name": "Arani", "latitude": "24.2878", "longitude": "88.8621"}, {"country_code": "BD", "postal_code": "6290", "place_name": "Godagari", "latitude": "24.4683", "longitude": "88.3236"}, {"country_code": "BD", "postal_code": "6291", "place_name": "Premtoli", "latitude": "24.4683", "longitude": "88.3236"}, {"country_code": "BD", "postal_code": "6700", "place_name": "Sirajganj Sadar", "latitude": "24.6494", "longitude": "88.9346"}, {"country_code": "BD", "postal_code": "6701", "place_name": "Raipur", "latitude": "24.6494", "longitude": "88.9346"}, {"country_code": "BD", "postal_code": "6702", "place_name": "Rashidabad", "latitude": "24.6494", "longitude": "88.9346"}, {"country_code": "BD", "postal_code": "6710", "place_name": "Kazipur", "latitude": "24.6115", "longitude": "89.6328"}, {"country_code": "BD", "postal_code": "6711", "place_name": "Shuvgachha", "latitude": "24.6115", "longitude": "89.6328"}, {"country_code": "BD", "postal_code": "6712", "place_name": "Gandail", "latitude": "24.6115", "longitude": "89.6328"}, {"country_code": "BD", "postal_code": "6720", "place_name": "Dhangora", "latitude": "24.4083", "longitude": "89.5358"}, {"country_code": "BD", "postal_code": "6721", "place_name": "Malonga", "latitude": "24.4083", "longitude": "89.5358"}, {"country_code": "BD", "postal_code": "6730", "place_name": "Baiddya Jam Toil", "latitude": "24.4083", "longitude": "89.5358"}, {"country_code": "BD", "postal_code": "6740", "place_name": "Belkuchi", "latitude": "24.2981", "longitude": "89.7041"}, {"country_code": "BD", "postal_code": "6741", "place_name": "Sohagpur", "latitude": "24.3238", "longitude": "89.705"}, {"country_code": "BD", "postal_code": "6742", "place_name": "Rajapur", "latitude": "24.3496", "longitude": "89.7059"}, {"country_code": "BD", "postal_code": "6751", "place_name": "Enayetpur", "latitude": "25.0468", "longitude": "89.33"}, {"country_code": "BD", "postal_code": "6752", "place_name": "Sthal", "latitude": "24.1972", "longitude": "89.7272"}, {"country_code": "BD", "postal_code": "6760", "place_name": "Ullapara", "latitude": "24.3128", "longitude": "89.5701"}, {"country_code": "BD", "postal_code": "6761", "place_name": "Ullapara R.S", "latitude": "24.3016", "longitude": "89.5942"}, {"country_code": "BD", "postal_code": "6762", "place_name": "Lahiri Mohanpur", "latitude": "24.3016", "longitude": "89.5942"}, {"country_code": "BD", "postal_code": "6763", "place_name": "Salap", "latitude": "24.2905", "longitude": "89.6183"}, {"country_code": "BD", "postal_code": "6770", "place_name": "Shahjadpur", "latitude": "24.1525", "longitude": "89.649"}, {"country_code": "BD", "postal_code": "6771", "place_name": "Porjana", "latitude": "24.1565", "longitude": "89.6481"}, {"country_code": "BD", "postal_code": "6772", "place_name": "Jamirta", "latitude": "24.1484", "longitude": "89.6499"}, {"country_code": "BD", "postal_code": "6773", "place_name": "Kaijuri", "latitude": "24.1525", "longitude": "89.649"}, {"country_code": "BD", "postal_code": "6780", "place_name": "Tarash", "latitude": "24.4303", "longitude": "89.3722"}, {"country_code": "BD", "postal_code": "4600", "place_name": "Bandarban Sadar", "latitude": "21.839", "longitude": "92.3415"}, {"country_code": "BD", "postal_code": "4610", "place_name": "Roanchhari", "latitude": "21.839", "longitude": "92.3415"}, {"country_code": "BD", "postal_code": "4620", "place_name": "Ruma", "latitude": "22.0492", "longitude": "92.4093"}, {"country_code": "BD", "postal_code": "4630", "place_name": "Thanchi", "latitude": "21.839", "longitude": "92.3415"}, {"country_code": "BD", "postal_code": "4641", "place_name": "Lama", "latitude": "21.7744", "longitude": "92.2191"}, {"country_code": "BD", "postal_code": "4650", "place_name": "Alikadam", "latitude": "21.6934", "longitude": "92.3963"}, {"country_code": "BD", "postal_code": "4660", "place_name": "Naikhong", "latitude": "21.839", "longitude": "92.3415"}, {"country_code": "BD", "postal_code": "3400", "place_name": "Brahamanbaria Sadar", "latitude": "24.0402", "longitude": "91.0117"}, {"country_code": "BD", "postal_code": "3401", "place_name": "Talshahar", "latitude": "24.0402", "longitude": "91.0117"}, {"country_code": "BD", "postal_code": "3402", "place_name": "Ashuganj", "latitude": "24.0402", "longitude": "91.0117"}, {"country_code": "BD", "postal_code": "3403", "place_name": "Ashuganj Share", "latitude": "24.0402", "longitude": "91.0117"}, {"country_code": "BD", "postal_code": "3404", "place_name": "Poun", "latitude": "24.0402", "longitude": "91.0117"}, {"country_code": "BD", "postal_code": "3410", "place_name": "Nabinagar", "latitude": "23.8879", "longitude": "90.9679"}, {"country_code": "BD", "postal_code": "3411", "place_name": "Laubfatehpur", "latitude": "23.8455", "longitude": "90.9851"}, {"country_code": "BD", "postal_code": "3412", "place_name": "Rasullabad", "latitude": "23.8455", "longitude": "90.9851"}, {"country_code": "BD", "postal_code": "3413", "place_name": "Shamgram", "latitude": "23.8455", "longitude": "90.9851"}, {"country_code": "BD", "postal_code": "3414", "place_name": "Ratanpur", "latitude": "23.8455", "longitude": "90.9851"}, {"country_code": "BD", "postal_code": "3415", "place_name": "Shahapur", "latitude": "23.7777", "longitude": "90.9153"}, {"country_code": "BD", "postal_code": "3417", "place_name": "Kaitala", "latitude": "23.8709", "longitude": "91.0719"}, {"country_code": "BD", "postal_code": "3418", "place_name": "Salimganj", "latitude": "23.8455", "longitude": "90.9851"}, {"country_code": "BD", "postal_code": "3419", "place_name": "Jibanganj", "latitude": "23.8455", "longitude": "90.9851"}, {"country_code": "BD", "postal_code": "3420", "place_name": "Banchharampur", "latitude": "23.906", "longitude": "91.1189"}, {"country_code": "BD", "postal_code": "3430", "place_name": "Sarial", "latitude": "24.0512", "longitude": "91.2331"}, {"country_code": "BD", "postal_code": "3431", "place_name": "Shahbajpur", "latitude": "24.0512", "longitude": "91.2331"}, {"country_code": "BD", "postal_code": "3432", "place_name": "Chandura", "latitude": "24.0512", "longitude": "91.2331"}, {"country_code": "BD", "postal_code": "3440", "place_name": "Nasirnagar", "latitude": "24.2283", "longitude": "91.2428"}, {"country_code": "BD", "postal_code": "3441", "place_name": "Fandauk", "latitude": "24.2283", "longitude": "91.2428"}, {"country_code": "BD", "postal_code": "3450", "place_name": "Akhaura", "latitude": "23.8724", "longitude": "91.2077"}, {"country_code": "BD", "postal_code": "3451", "place_name": "Azampur", "latitude": "23.8529", "longitude": "91.2122"}, {"country_code": "BD", "postal_code": "3452", "place_name": "Gangasagar", "latitude": "23.8333", "longitude": "91.2167"}, {"country_code": "BD", "postal_code": "3460", "place_name": "Kasba", "latitude": "23.815", "longitude": "91.1417"}, {"country_code": "BD", "postal_code": "3461", "place_name": "Kuti", "latitude": "23.795", "longitude": "91.1158"}, {"country_code": "BD", "postal_code": "3462", "place_name": "Chandidar", "latitude": "23.8014", "longitude": "91.1468"}, {"country_code": "BD", "postal_code": "3463", "place_name": "Chargachh", "latitude": "23.8014", "longitude": "91.1468"}, {"country_code": "BD", "postal_code": "3464", "place_name": "Gopinathpur", "latitude": "23.7943", "longitude": "91.183"}, {"country_code": "BD", "postal_code": "3600", "place_name": "Chandpur Sadar", "latitude": "23.2453", "longitude": "90.7281"}, {"country_code": "BD", "postal_code": "3601", "place_name": "Puranbazar", "latitude": "23.2453", "longitude": "90.7281"}, {"country_code": "BD", "postal_code": "3602", "place_name": "Baburhat", "latitude": "23.2453", "longitude": "90.7281"}, {"country_code": "BD", "postal_code": "3603", "place_name": "Sahatali", "latitude": "23.2453", "longitude": "90.7281"}, {"country_code": "BD", "postal_code": "3610", "place_name": "Hajiganj", "latitude": "23.2519", "longitude": "90.8551"}, {"country_code": "BD", "postal_code": "3611", "place_name": "Bolakhal", "latitude": "23.2519", "longitude": "90.8551"}, {"country_code": "BD", "postal_code": "3620", "place_name": "Shahrasti", "latitude": "23.2748", "longitude": "90.7355"}, {"country_code": "BD", "postal_code": "3621", "place_name": "Khilabazar", "latitude": "23.2748", "longitude": "90.7355"}, {"country_code": "BD", "postal_code": "3622", "place_name": "Pashchim Kherihar Al", "latitude": "23.2748", "longitude": "90.7355"}, {"country_code": "BD", "postal_code": "3623", "place_name": "Chotoshi", "latitude": "23.2748", "longitude": "90.7355"}, {"country_code": "BD", "postal_code": "3624", "place_name": "Islamia Madrasha", "latitude": "23.2748", "longitude": "90.7355"}, {"country_code": "BD", "postal_code": "3630", "place_name": "Kachua", "latitude": "23.3485", "longitude": "90.9085"}, {"country_code": "BD", "postal_code": "3631", "place_name": "Pak Shrirampur", "latitude": "23.3485", "longitude": "90.9085"}, {"country_code": "BD", "postal_code": "3632", "place_name": "Rahima Nagar", "latitude": "23.3485", "longitude": "90.9085"}, {"country_code": "BD", "postal_code": "3633", "place_name": "Shachar", "latitude": "23.3485", "longitude": "90.9085"}, {"country_code": "BD", "postal_code": "3640", "place_name": "Matlobganj", "latitude": "23.4326", "longitude": "90.6163"}, {"country_code": "BD", "postal_code": "3641", "place_name": "Mohanpur", "latitude": "23.3986", "longitude": "90.5992"}, {"country_code": "BD", "postal_code": "3642", "place_name": "Kalipur", "latitude": "23.4667", "longitude": "90.6333"}, {"country_code": "BD", "postal_code": "3650", "place_name": "Faridganj", "latitude": "23.1356", "longitude": "90.7434"}, {"country_code": "BD", "postal_code": "3651", "place_name": "Chandra", "latitude": "23.1356", "longitude": "90.7434"}, {"country_code": "BD", "postal_code": "3652", "place_name": "Rupsha", "latitude": "23.1356", "longitude": "90.7434"}, {"country_code": "BD", "postal_code": "3653", "place_name": "Gridkaliandia", "latitude": "23.1356", "longitude": "90.7434"}, {"country_code": "BD", "postal_code": "3654", "place_name": "Rampurbazar", "latitude": "23.1356", "longitude": "90.7434"}, {"country_code": "BD", "postal_code": "3655", "place_name": "Islampur Shah Isain", "latitude": "23.1356", "longitude": "90.7434"}, {"country_code": "BD", "postal_code": "3660", "place_name": "Hayemchar", "latitude": "23.0768", "longitude": "90.681"}, {"country_code": "BD", "postal_code": "3661", "place_name": "Gandamara", "latitude": "23.0768", "longitude": "90.681"}, {"country_code": "BD", "postal_code": "4000", "place_name": "Chittagong GPO", "latitude": "22.3455", "longitude": "91.8342"}, {"country_code": "BD", "postal_code": "4100", "place_name": "Chittagong Bandar", "latitude": "22.2225", "longitude": "91.8412"}, {"country_code": "BD", "postal_code": "4202", "place_name": "Pahartoli", "latitude": "22.3948", "longitude": "91.8365"}, {"country_code": "BD", "postal_code": "4203", "place_name": "Chawkbazar", "latitude": "22.3948", "longitude": "91.8365"}, {"country_code": "BD", "postal_code": "4204", "place_name": "Patenga", "latitude": "22.3948", "longitude": "91.8365"}, {"country_code": "BD", "postal_code": "4205", "place_name": "Chittagong Airport", "latitude": "22.3948", "longitude": "91.8365"}, {"country_code": "BD", "postal_code": "4206", "place_name": "Jaldia Merine Accade", "latitude": "22.3948", "longitude": "91.8365"}, {"country_code": "BD", "postal_code": "4207", "place_name": "Firozshah", "latitude": "22.3948", "longitude": "91.8365"}, {"country_code": "BD", "postal_code": "4208", "place_name": "Mohard", "latitude": "22.3948", "longitude": "91.8365"}, {"country_code": "BD", "postal_code": "4209", "place_name": "Chitt. Politechnic In", "latitude": "22.3948", "longitude": "91.8365"}, {"country_code": "BD", "postal_code": "4210", "place_name": "Bayezid Bostami", "latitude": "22.3948", "longitude": "91.8365"}, {"country_code": "BD", "postal_code": "4211", "place_name": "Amin Jute Mills", "latitude": "22.3948", "longitude": "91.8365"}, {"country_code": "BD", "postal_code": "4212", "place_name": "Chandgaon", "latitude": "22.3991", "longitude": "91.8604"}, {"country_code": "BD", "postal_code": "4213", "place_name": "Wazedia", "latitude": "22.3948", "longitude": "91.8365"}, {"country_code": "BD", "postal_code": "4214", "place_name": "Jalalabad", "latitude": "22.3906", "longitude": "91.8126"}, {"country_code": "BD", "postal_code": "4215", "place_name": "Anandabazar", "latitude": "22.3948", "longitude": "91.8365"}, {"country_code": "BD", "postal_code": "4216", "place_name": "Halishahar", "latitude": "22.3948", "longitude": "91.8365"}, {"country_code": "BD", "postal_code": "4217", "place_name": "North Katuli", "latitude": "22.3948", "longitude": "91.8365"}, {"country_code": "BD", "postal_code": "4218", "place_name": "Chitt. Sailers Colon", "latitude": "22.3948", "longitude": "91.8365"}, {"country_code": "BD", "postal_code": "4219", "place_name": "Chitt. Customs Acca", "latitude": "22.3948", "longitude": "91.8365"}, {"country_code": "BD", "postal_code": "4220", "place_name": "Chitt. Cantonment", "latitude": "22.3948", "longitude": "91.8365"}, {"country_code": "BD", "postal_code": "4221", "place_name": "Al- Amin Baria Madra", "latitude": "22.3948", "longitude": "91.8365"}, {"country_code": "BD", "postal_code": "4222", "place_name": "Middle Patenga", "latitude": "22.3948", "longitude": "91.8365"}, {"country_code": "BD", "postal_code": "4223", "place_name": "Export Processing", "latitude": "22.3948", "longitude": "91.8365"}, {"country_code": "BD", "postal_code": "4224", "place_name": "Rampura TSO", "latitude": "22.3948", "longitude": "91.8365"}, {"country_code": "BD", "postal_code": "4225", "place_name": "Halishshar", "latitude": "22.3948", "longitude": "91.8365"}, {"country_code": "BD", "postal_code": "4226", "place_name": "North Halishahar", "latitude": "22.3948", "longitude": "91.8365"}, {"country_code": "BD", "postal_code": "4300", "place_name": "Sandwip", "latitude": "22.5141", "longitude": "91.4549"}, {"country_code": "BD", "postal_code": "4301", "place_name": "Shiberhat", "latitude": "22.5141", "longitude": "91.4549"}, {"country_code": "BD", "postal_code": "4302", "place_name": "Urirchar", "latitude": "22.5141", "longitude": "91.4549"}, {"country_code": "BD", "postal_code": "4310", "place_name": "Sitakunda", "latitude": "22.62", "longitude": "91.6578"}, {"country_code": "BD", "postal_code": "4311", "place_name": "Baroidhala", "latitude": "22.504", "longitude": "91.7121"}, {"country_code": "BD", "postal_code": "4312", "place_name": "Barabkunda", "latitude": "22.5808", "longitude": "91.6842"}, {"country_code": "BD", "postal_code": "4313", "place_name": "Bawashbaria", "latitude": "22.504", "longitude": "91.7121"}, {"country_code": "BD", "postal_code": "4314", "place_name": "Kumira", "latitude": "22.5038", "longitude": "91.7106"}, {"country_code": "BD", "postal_code": "4315", "place_name": "Bhatiari", "latitude": "22.4281", "longitude": "91.7504"}, {"country_code": "BD", "postal_code": "4316", "place_name": "Fouzdarhat", "latitude": "22.504", "longitude": "91.7121"}, {"country_code": "BD", "postal_code": "4317", "place_name": "Jafrabad", "latitude": "22.3873", "longitude": "91.7574"}, {"country_code": "BD", "postal_code": "4320", "place_name": "Mirsharai", "latitude": "22.8647", "longitude": "91.5664"}, {"country_code": "BD", "postal_code": "4321", "place_name": "Abutorab", "latitude": "22.8574", "longitude": "91.5332"}, {"country_code": "BD", "postal_code": "4322", "place_name": "Darrogahat", "latitude": "22.8574", "longitude": "91.5332"}, {"country_code": "BD", "postal_code": "4323", "place_name": "Bharawazhat", "latitude": "22.8574", "longitude": "91.5332"}, {"country_code": "BD", "postal_code": "4324", "place_name": "Joarganj", "latitude": "22.8574", "longitude": "91.5332"}, {"country_code": "BD", "postal_code": "4325", "place_name": "Azampur", "latitude": "22.85", "longitude": "91.5"}, {"country_code": "BD", "postal_code": "4327", "place_name": "Korerhat", "latitude": "22.8574", "longitude": "91.5332"}, {"country_code": "BD", "postal_code": "4328", "place_name": "Mohazanhat", "latitude": "22.8574", "longitude": "91.5332"}, {"country_code": "BD", "postal_code": "4330", "place_name": "Hathazari", "latitude": "22.5052", "longitude": "91.8134"}, {"country_code": "BD", "postal_code": "4331", "place_name": "Chitt.University", "latitude": "22.5264", "longitude": "91.8087"}, {"country_code": "BD", "postal_code": "4332", "place_name": "Gorduara", "latitude": "22.5264", "longitude": "91.8087"}, {"country_code": "BD", "postal_code": "4333", "place_name": "Katirhat", "latitude": "22.5264", "longitude": "91.8087"}, {"country_code": "BD", "postal_code": "4334", "place_name": "Mirzapur", "latitude": "22.5476", "longitude": "91.804"}, {"country_code": "BD", "postal_code": "4335", "place_name": "Fatahabad", "latitude": "22.5264", "longitude": "91.8087"}, {"country_code": "BD", "postal_code": "4337", "place_name": "Nuralibari", "latitude": "22.5264", "longitude": "91.8087"}, {"country_code": "BD", "postal_code": "4338", "place_name": "Yunus Nagar", "latitude": "22.5264", "longitude": "91.8087"}, {"country_code": "BD", "postal_code": "4339", "place_name": "Madrasa", "latitude": "22.5264", "longitude": "91.8087"}, {"country_code": "BD", "postal_code": "4340", "place_name": "Rouzan", "latitude": "22.5524", "longitude": "91.8716"}, {"country_code": "BD", "postal_code": "4341", "place_name": "Beenajuri", "latitude": "22.5524", "longitude": "91.8716"}, {"country_code": "BD", "postal_code": "4342", "place_name": "Kundeshwari", "latitude": "22.5524", "longitude": "91.8716"}, {"country_code": "BD", "postal_code": "4343", "place_name": "Gahira", "latitude": "22.5247", "longitude": "91.8858"}, {"country_code": "BD", "postal_code": "4344", "place_name": "jagannath Hat", "latitude": "22.5524", "longitude": "91.8716"}, {"country_code": "BD", "postal_code": "4345", "place_name": "Fatepur", "latitude": "22.5801", "longitude": "91.8574"}, {"country_code": "BD", "postal_code": "4346", "place_name": "Guzra Noapara", "latitude": "22.5524", "longitude": "91.8716"}, {"country_code": "BD", "postal_code": "4347", "place_name": "Dewanpur", "latitude": "22.5524", "longitude": "91.8716"}, {"country_code": "BD", "postal_code": "4348", "place_name": "Mohamuni", "latitude": "22.5524", "longitude": "91.8716"}, {"country_code": "BD", "postal_code": "4349", "place_name": "B.I.T Post Office", "latitude": "22.5524", "longitude": "91.8716"}, {"country_code": "BD", "postal_code": "4350", "place_name": "Fatikchhari", "latitude": "22.725", "longitude": "91.7675"}, {"country_code": "BD", "postal_code": "4351", "place_name": "Nanupur", "latitude": "22.6243", "longitude": "91.8416"}, {"country_code": "BD", "postal_code": "4352", "place_name": "Bhandar Sharif", "latitude": "22.6746", "longitude": "91.8046"}, {"country_code": "BD", "postal_code": "4353", "place_name": "Najirhat", "latitude": "22.6746", "longitude": "91.8046"}, {"country_code": "BD", "postal_code": "4354", "place_name": "Harualchhari", "latitude": "22.6746", "longitude": "91.8046"}, {"country_code": "BD", "postal_code": "4355", "place_name": "Narayanhat", "latitude": "22.6746", "longitude": "91.8046"}, {"country_code": "BD", "postal_code": "4360", "place_name": "Rangunia", "latitude": "22.4675", "longitude": "92.0636"}, {"country_code": "BD", "postal_code": "4361", "place_name": "Dhamair", "latitude": "22.4075", "longitude": "91.9783"}, {"country_code": "BD", "postal_code": "4363", "place_name": "Kanungopara", "latitude": "22.4075", "longitude": "91.9783"}, {"country_code": "BD", "postal_code": "4364", "place_name": "Saroatoli", "latitude": "22.4075", "longitude": "91.9783"}, {"country_code": "BD", "postal_code": "4365", "place_name": "Iqbal Park", "latitude": "22.4075", "longitude": "91.9783"}, {"country_code": "BD", "postal_code": "4366", "place_name": "Boalkhali", "latitude": "22.3357", "longitude": "91.9266"}, {"country_code": "BD", "postal_code": "4367", "place_name": "Sakpura", "latitude": "22.4075", "longitude": "91.9783"}, {"country_code": "BD", "postal_code": "4368", "place_name": "Kadurkhal", "latitude": "22.4075", "longitude": "91.9783"}, {"country_code": "BD", "postal_code": "4369", "place_name": "Charandwip", "latitude": "22.4192", "longitude": "91.9447"}, {"country_code": "BD", "postal_code": "4370", "place_name": "Patiya Head Office", "latitude": "22.2451", "longitude": "91.8821"}, {"country_code": "BD", "postal_code": "4371", "place_name": "Budhpara", "latitude": "22.2737", "longitude": "91.9145"}, {"country_code": "BD", "postal_code": "4376", "place_name": "Anowara", "latitude": "22.2433", "longitude": "91.88"}, {"country_code": "BD", "postal_code": "4377", "place_name": "Paroikora", "latitude": "22.2451", "longitude": "91.8821"}, {"country_code": "BD", "postal_code": "4378", "place_name": "Battali", "latitude": "22.2183", "longitude": "91.8517"}, {"country_code": "BD", "postal_code": "4380", "place_name": "East Joara", "latitude": "22.1201", "longitude": "92.0614"}, {"country_code": "BD", "postal_code": "4381", "place_name": "Gachbaria", "latitude": "22.1201", "longitude": "92.0614"}, {"country_code": "BD", "postal_code": "4382", "place_name": "Dohazari", "latitude": "22.1639", "longitude": "92.0733"}, {"country_code": "BD", "postal_code": "4383", "place_name": "Barma", "latitude": "22.1201", "longitude": "92.0614"}, {"country_code": "BD", "postal_code": "4386", "place_name": "Satkania", "latitude": "22.0764", "longitude": "92.0496"}, {"country_code": "BD", "postal_code": "4387", "place_name": "Baitul Ijjat", "latitude": "22.1201", "longitude": "92.0614"}, {"country_code": "BD", "postal_code": "4388", "place_name": "Bazalia", "latitude": "22.1201", "longitude": "92.0614"}, {"country_code": "BD", "postal_code": "4390", "place_name": "Jaldi", "latitude": "22.0086", "longitude": "91.9869"}, {"country_code": "BD", "postal_code": "4391", "place_name": "Khan Bahadur", "latitude": "22.058", "longitude": "92.0091"}, {"country_code": "BD", "postal_code": "4392", "place_name": "Gunagari", "latitude": "22.0915", "longitude": "91.9246"}, {"country_code": "BD", "postal_code": "4393", "place_name": "Banigram", "latitude": "22.1251", "longitude": "91.9179"}, {"country_code": "BD", "postal_code": "4396", "place_name": "Lohagara", "latitude": "22.0112", "longitude": "92.1009"}, {"country_code": "BD", "postal_code": "4397", "place_name": "Padua", "latitude": "22.0538", "longitude": "92.1151"}, {"country_code": "BD", "postal_code": "4398", "place_name": "Chunti", "latitude": "22.058", "longitude": "92.0091"}, {"country_code": "BD", "postal_code": "3500", "place_name": "Comilla Sadar", "latitude": "23.3484", "longitude": "91.0583"}, {"country_code": "BD", "postal_code": "3501", "place_name": "Comilla Contoment", "latitude": "23.3484", "longitude": "91.0583"}, {"country_code": "BD", "postal_code": "3502", "place_name": "Halimanagar", "latitude": "23.3484", "longitude": "91.0583"}, {"country_code": "BD", "postal_code": "3503", "place_name": "Courtbari", "latitude": "23.3484", "longitude": "91.0583"}, {"country_code": "BD", "postal_code": "3504", "place_name": "Suaganj", "latitude": "23.3484", "longitude": "91.0583"}, {"country_code": "BD", "postal_code": "3510", "place_name": "Chandia", "latitude": "23.539", "longitude": "90.7511"}, {"country_code": "BD", "postal_code": "3511", "place_name": "Madhaiabazar", "latitude": "23.539", "longitude": "90.7511"}, {"country_code": "BD", "postal_code": "3516", "place_name": "Daudkandi", "latitude": "23.5355", "longitude": "90.7126"}, {"country_code": "BD", "postal_code": "3517", "place_name": "Gouripur", "latitude": "23.5425", "longitude": "90.7897"}, {"country_code": "BD", "postal_code": "3518", "place_name": "Dashpara", "latitude": "23.539", "longitude": "90.7511"}, {"country_code": "BD", "postal_code": "3519", "place_name": "Eliotganj", "latitude": "23.539", "longitude": "90.7511"}, {"country_code": "BD", "postal_code": "3520", "place_name": "Burichang", "latitude": "23.5534", "longitude": "91.129"}, {"country_code": "BD", "postal_code": "3521", "place_name": "Maynamoti bazar", "latitude": "23.585", "longitude": "91.0985"}, {"country_code": "BD", "postal_code": "3526", "place_name": "Brahmanpara", "latitude": "23.6165", "longitude": "91.0679"}, {"country_code": "BD", "postal_code": "3530", "place_name": "Davidhar", "latitude": "23.3484", "longitude": "91.0583"}, {"country_code": "BD", "postal_code": "3531", "place_name": "Gangamandal", "latitude": "23.3484", "longitude": "91.0583"}, {"country_code": "BD", "postal_code": "3532", "place_name": "Barashalghar", "latitude": "23.3484", "longitude": "91.0583"}, {"country_code": "BD", "postal_code": "3533", "place_name": "Dhamtee", "latitude": "23.3484", "longitude": "91.0583"}, {"country_code": "BD", "postal_code": "3540", "place_name": "Muradnagar", "latitude": "23.486", "longitude": "90.8741"}, {"country_code": "BD", "postal_code": "3541", "place_name": "Ramchandarpur", "latitude": "23.4787", "longitude": "90.8045"}, {"country_code": "BD", "postal_code": "3542", "place_name": "Companyganj", "latitude": "23.4787", "longitude": "90.8045"}, {"country_code": "BD", "postal_code": "3543", "place_name": "Bangra", "latitude": "23.4787", "longitude": "90.8045"}, {"country_code": "BD", "postal_code": "3544", "place_name": "Sonakanda", "latitude": "23.4714", "longitude": "90.7349"}, {"country_code": "BD", "postal_code": "3545", "place_name": "Pantibazar", "latitude": "23.4787", "longitude": "90.8045"}, {"country_code": "BD", "postal_code": "3546", "place_name": "Homna", "latitude": "23.4787", "longitude": "90.8045"}, {"country_code": "BD", "postal_code": "3550", "place_name": "Chouddagram", "latitude": "23.2286", "longitude": "91.3298"}, {"country_code": "BD", "postal_code": "3551", "place_name": "Batisa", "latitude": "23.1957", "longitude": "91.3129"}, {"country_code": "BD", "postal_code": "3552", "place_name": "Chiora", "latitude": "23.2121", "longitude": "91.3214"}, {"country_code": "BD", "postal_code": "3560", "place_name": "Barura", "latitude": "23.3683", "longitude": "91.0484"}, {"country_code": "BD", "postal_code": "3561", "place_name": "Poyalgachha", "latitude": "23.3683", "longitude": "91.0484"}, {"country_code": "BD", "postal_code": "3562", "place_name": "Murdafarganj", "latitude": "23.3683", "longitude": "91.0484"}, {"country_code": "BD", "postal_code": "3570", "place_name": "Laksam", "latitude": "23.2402", "longitude": "91.1214"}, {"country_code": "BD", "postal_code": "3571", "place_name": "Lakshamanpur", "latitude": "23.1574", "longitude": "91.1112"}, {"country_code": "BD", "postal_code": "3572", "place_name": "Bipulasar", "latitude": "23.0746", "longitude": "91.1009"}, {"country_code": "BD", "postal_code": "3580", "place_name": "Langalkot", "latitude": "23.1084", "longitude": "91.2683"}, {"country_code": "BD", "postal_code": "3581", "place_name": "Dhalua", "latitude": "23.1254", "longitude": "91.2354"}, {"country_code": "BD", "postal_code": "3582", "place_name": "Chhariabazar", "latitude": "23.1084", "longitude": "91.2683"}, {"country_code": "BD", "postal_code": "3583", "place_name": "Gunabati", "latitude": "23.0913", "longitude": "91.3013"}, {"country_code": "BD", "postal_code": "4700", "place_name": "Coxs Bazar Sadar", "latitude": "21.4397", "longitude": "92.0096"}, {"country_code": "BD", "postal_code": "4701", "place_name": "Zhilanja", "latitude": "21.4397", "longitude": "92.0096"}, {"country_code": "BD", "postal_code": "4702", "place_name": "Eidga", "latitude": "21.4397", "longitude": "92.0096"}, {"country_code": "BD", "postal_code": "4710", "place_name": "Gorakghat", "latitude": "21.3576", "longitude": "92.0807"}, {"country_code": "BD", "postal_code": "4720", "place_name": "Kutubdia", "latitude": "21.816", "longitude": "91.8523"}, {"country_code": "BD", "postal_code": "4730", "place_name": "Ramu", "latitude": "21.429", "longitude": "92.1062"}, {"country_code": "BD", "postal_code": "4740", "place_name": "Chiringga", "latitude": "21.3576", "longitude": "92.0807"}, {"country_code": "BD", "postal_code": "4741", "place_name": "Chiringga S.O", "latitude": "21.3576", "longitude": "92.0807"}, {"country_code": "BD", "postal_code": "4742", "place_name": "Badarkali", "latitude": "21.3576", "longitude": "92.0807"}, {"country_code": "BD", "postal_code": "4743", "place_name": "Malumghat", "latitude": "21.3576", "longitude": "92.0807"}, {"country_code": "BD", "postal_code": "4750", "place_name": "Ukhia", "latitude": "21.245", "longitude": "92.1375"}, {"country_code": "BD", "postal_code": "4760", "place_name": "Teknaf", "latitude": "20.8583", "longitude": "92.2977"}, {"country_code": "BD", "postal_code": "4761", "place_name": "Hnila", "latitude": "20.8583", "longitude": "92.2977"}, {"country_code": "BD", "postal_code": "4762", "place_name": "St.Martin", "latitude": "20.8583", "longitude": "92.2977"}, {"country_code": "BD", "postal_code": "3900", "place_name": "Feni Sadar", "latitude": "22.9511", "longitude": "91.4669"}, {"country_code": "BD", "postal_code": "3901", "place_name": "Fazilpur", "latitude": "22.9511", "longitude": "91.4669"}, {"country_code": "BD", "postal_code": "3902", "place_name": "Sharshadie", "latitude": "22.9511", "longitude": "91.4669"}, {"country_code": "BD", "postal_code": "3903", "place_name": "Laskarhat", "latitude": "22.9511", "longitude": "91.4669"}, {"country_code": "BD", "postal_code": "3910", "place_name": "Chhagalnaia", "latitude": "23.0248", "longitude": "91.5109"}, {"country_code": "BD", "postal_code": "3911", "place_name": "Maharajganj", "latitude": "23.0248", "longitude": "91.5109"}, {"country_code": "BD", "postal_code": "3912", "place_name": "Daraga Hat", "latitude": "23.0248", "longitude": "91.5109"}, {"country_code": "BD", "postal_code": "3913", "place_name": "Puabashimulia", "latitude": "23.0248", "longitude": "91.5109"}, {"country_code": "BD", "postal_code": "3920", "place_name": "Dagondhuia", "latitude": "23.0119", "longitude": "91.2826"}, {"country_code": "BD", "postal_code": "3921", "place_name": "Dudmukha", "latitude": "23.0119", "longitude": "91.2826"}, {"country_code": "BD", "postal_code": "3922", "place_name": "Chhilonia", "latitude": "23.0119", "longitude": "91.2826"}, {"country_code": "BD", "postal_code": "3923", "place_name": "Rajapur", "latitude": "23.0119", "longitude": "91.2826"}, {"country_code": "BD", "postal_code": "3930", "place_name": "Sonagazi", "latitude": "22.8518", "longitude": "91.3916"}, {"country_code": "BD", "postal_code": "3931", "place_name": "Motiganj", "latitude": "22.8759", "longitude": "91.4125"},