[{"country_code": "MD", "postal_code": "MD-2000", "place_name": "Chisinau", "latitude": "47.0056", "longitude": "28.8575"}, {"country_code": "MD", "postal_code": "MD-2003", "place_name": "Durlesti", "latitude": "47.0178", "longitude": "28.7625"}, {"country_code": "MD", "postal_code": "MD-2011", "place_name": "Codru", "latitude": "46.9753", "longitude": "28.8194"}, {"country_code": "MD", "postal_code": "MD-2046", "place_name": "Vadul Lui Voda", "latitude": "47.0917", "longitude": "29.0756"}, {"country_code": "MD", "postal_code": "MD-2055", "place_name": "Vatra", "latitude": "47.0739", "longitude": "28.735"}, {"country_code": "MD", "postal_code": "MD-2071", "place_name": "Bumbrava", "latitude": "47.0443", "longitude": "28.7651"}, {"country_code": "MD", "postal_code": "MD-2081", "place_name": "Bic", "latitude": "46.9567", "longitude": "28.9422"}, {"country_code": "MD", "postal_code": "MD-2081", "place_name": "Bubuieci", "latitude": "46.985", "longitude": "28.9422"}, {"country_code": "MD", "postal_code": "MD-2081", "place_name": "Humulesti", "latitude": "46.9975", "longitude": "28.9764"}, {"country_code": "MD", "postal_code": "MD-2082", "place_name": "Colonita", "latitude": "47.0378", "longitude": "28.9583"}, {"country_code": "MD", "postal_code": "MD-2083", "place_name": "Condrita", "latitude": "47.0567", "longitude": "28.5686"}, {"country_code": "MD", "postal_code": "MD-2084", "place_name": "Cricova", "latitude": "47.1389", "longitude": "28.8619"}, {"country_code": "MD", "postal_code": "MD-2085", "place_name": "Cruzesti", "latitude": "47.0847", "longitude": "28.9736"}, {"country_code": "MD", "postal_code": "MD-2085", "place_name": "Ceroborta", "latitude": "47.0936", "longitude": "28.9517"}, {"country_code": "MD", "postal_code": "MD-2086", "place_name": "Dobrogea", "latitude": "46.8844", "longitude": "28.9892"}, {"country_code": "MD", "postal_code": "MD-2088", "place_name": "Ghidighici", "latitude": "47.0931", "longitude": "28.7686"}, {"country_code": "MD", "postal_code": "MD-2089", "place_name": "Goian", "latitude": "47.1336", "longitude": "28.9072"}, {"country_code": "MD", "postal_code": "MD-2089", "place_name": "Fauresti", "latitude": "47.145", "longitude": "28.8961"}, {"country_code": "MD", "postal_code": "MD-2089", "place_name": "Ciorescu", "latitude": "47.1294", "longitude": "28.8856"}, {"country_code": "MD", "postal_code": "MD-2091", "place_name": "Singera", "latitude": "46.9131", "longitude": "28.9775"}, {"country_code": "MD", "postal_code": "MD-2091", "place_name": "Revaca", "latitude": "46.9086", "longitude": "28.9447"}, {"country_code": "MD", "postal_code": "MD-2092", "place_name": "Tohatin", "latitude": "47.0625", "longitude": "28.9453"}, {"country_code": "MD", "postal_code": "MD-2092", "place_name": "Buneti", "latitude": "47.0806", "longitude": "28.91"}, {"country_code": "MD", "postal_code": "MD-2092", "place_name": "Cheltuitori", "latitude": "47.0661", "longitude": "28.9211"}, {"country_code": "MD", "postal_code": "MD-2093", "place_name": "Hulboaca", "latitude": "47.1161", "longitude": "28.7972"}, {"country_code": "MD", "postal_code": "MD-2093", "place_name": "Gratiesti", "latitude": "47.0992", "longitude": "28.8167"}, {"country_code": "MD", "postal_code": "MD-3004", "place_name": "Soroca 4", "latitude": "48.1558", "longitude": "28.2975"}, {"country_code": "MD", "postal_code": "MD-3005", "place_name": "Soroca 5", "latitude": "48.1558", "longitude": "28.2975"}, {"country_code": "MD", "postal_code": "MD-3006", "place_name": "Soroca 6", "latitude": "48.1558", "longitude": "28.2975"}, {"country_code": "MD", "postal_code": "MD-3011", "place_name": "Badiceni", "latitude": "48.2033", "longitude": "28.0544"}, {"country_code": "MD", "postal_code": "MD-3012", "place_name": "Baxani", "latitude": "48.1239", "longitude": "28.0947"}, {"country_code": "MD", "postal_code": "MD-3013", "place_name": "Balinti", "latitude": "48.3206", "longitude": "28.0236"}, {"country_code": "MD", "postal_code": "MD-3013", "place_name": "Balintii Noi", "latitude": "48.3206", "longitude": "28.0236"}, {"country_code": "MD", "postal_code": "MD-3014", "place_name": "Bulbocii Noi", "latitude": "48.0603", "longitude": "28.1186"}, {"country_code": "MD", "postal_code": "MD-3014", "place_name": "Bulboci", "latitude": "48.0397", "longitude": "28.0839"}, {"country_code": "MD", "postal_code": "MD-3015", "place_name": "Cainarii Vechi", "latitude": "48.0081", "longitude": "28.125"}, {"country_code": "MD", "postal_code": "MD-3015", "place_name": "Floriceni", "latitude": "48.0208", "longitude": "28.0164"}, {"country_code": "MD", "postal_code": "MD-3016", "place_name": "Cosauti", "latitude": "48.2289", "longitude": "28.2911"}, {"country_code": "MD", "postal_code": "MD-3017", "place_name": "Curesnita", "latitude": "48.2278", "longitude": "28.1764"}, {"country_code": "MD", "postal_code": "MD-3018", "place_name": "Malcauti", "latitude": "48.2139", "longitude": "27.9408"}, {"country_code": "MD", "postal_code": "MD-3018", "place_name": "Darcauti", "latitude": "48.2278", "longitude": "27.9808"}, {"country_code": "MD", "postal_code": "MD-3018", "place_name": "Darcautii Noi", "latitude": "48.2097", "longitude": "28.0019"}, {"country_code": "MD", "postal_code": "MD-3019", "place_name": "Dubna", "latitude": "48.015", "longitude": "28.3153"}, {"country_code": "MD", "postal_code": "MD-3020", "place_name": "Dumbraveni", "latitude": "48.0506", "longitude": "28.2281"}, {"country_code": "MD", "postal_code": "MD-3021", "place_name": "Egoreni", "latitude": "48.2016", "longitude": "28.3595"}, {"country_code": "MD", "postal_code": "MD-3022", "place_name": "Grigorauca", "latitude": "48.2078", "longitude": "28.0997"}, {"country_code": "MD", "postal_code": "MD-3023", "place_name": "Holosnita", "latitude": "48.2475", "longitude": "28.1769"}, {"country_code": "MD", "postal_code": "MD-3024", "place_name": "Hristici", "latitude": "48.1208", "longitude": "28.1839"}, {"country_code": "MD", "postal_code": "MD-3025", "place_name": "Iarova", "latitude": "48.3197", "longitude": "28.0494"}, {"country_code": "MD", "postal_code": "MD-3026", "place_name": "Iorjnita", "latitude": "48.1933", "longitude": "28.2178"}, {"country_code": "MD", "postal_code": "MD-3027", "place_name": "Oclanda", "latitude": "48.2892", "longitude": "28.0603"}, {"country_code": "MD", "postal_code": "MD-3028", "place_name": "Ocolina", "latitude": "48.1256", "longitude": "28.2631"}, {"country_code": "MD", "postal_code": "MD-3029", "place_name": "Parcani", "latitude": "48.0619", "longitude": "28.2903"}, {"country_code": "MD", "postal_code": "MD-3030", "place_name": "Pirlita", "latitude": "48.0758", "longitude": "28.21"}, {"country_code": "MD", "postal_code": "MD-3030", "place_name": "Vantina", "latitude": "48.0967", "longitude": "28.1914"}, {"country_code": "MD", "postal_code": "MD-3030", "place_name": "Vantina Mica", "latitude": "48.0862", "longitude": "28.2007"}, {"country_code": "MD", "postal_code": "MD-3031", "place_name": "Racovat", "latitude": "48.0825", "longitude": "28.4061"}, {"country_code": "MD", "postal_code": "MD-3032", "place_name": "Redi-Ceresnovat", "latitude": "48.0633", "longitude": "28.3175"}, {"country_code": "MD", "postal_code": "MD-3033", "place_name": "Lugovoe", "latitude": "48.0703", "longitude": "28.1783"}, {"country_code": "MD", "postal_code": "MD-3033", "place_name": "Regina Maria", "latitude": "48.0586", "longitude": "28.1408"}, {"country_code": "MD", "postal_code": "MD-3034", "place_name": "Rublenita Noua", "latitude": "48.1536", "longitude": "28.1347"}, {"country_code": "MD", "postal_code": "MD-3034", "place_name": "Rublenita", "latitude": "48.1683", "longitude": "28.2144"}, {"country_code": "MD", "postal_code": "MD-3035", "place_name": "Inundeni", "latitude": "48.1247", "longitude": "28.3583"}, {"country_code": "MD", "postal_code": "MD-3035", "place_name": "Ruslanovca", "latitude": "48.1172", "longitude": "28.3725"}, {"country_code": "MD", "postal_code": "MD-3036", "place_name": "Schineni", "latitude": "48.0944", "longitude": "28.0958"}, {"country_code": "MD", "postal_code": "MD-3036", "place_name": "Schinenii Noi", "latitude": "48.0717", "longitude": "28.105"}, {"country_code": "MD", "postal_code": "MD-3037", "place_name": "Slobozia-Cremene", "latitude": "48.0406", "longitude": "28.4231"}, {"country_code": "MD", "postal_code": "MD-3038", "place_name": "Slobozia-Varancau", "latitude": "48.0664", "longitude": "28.4658"}, {"country_code": "MD", "postal_code": "MD-3039", "place_name": "Livezi", "latitude": "48.2358", "longitude": "28.0494"}, {"country_code": "MD", "postal_code": "MD-3039", "place_name": "Sobari", "latitude": "48.2319", "longitude": "28.0669"}, {"country_code": "MD", "postal_code": "MD-3039", "place_name": "Valea", "latitude": "48.2433", "longitude": "28.0653"}, {"country_code": "MD", "postal_code": "MD-3040", "place_name": "Solonet", "latitude": "47.9958", "longitude": "28.4028"}, {"country_code": "MD", "postal_code": "MD-3041", "place_name": "Stoicani", "latitude": "48.0267", "longitude": "28.3639"}, {"country_code": "MD", "postal_code": "MD-3042", "place_name": "Septelici", "latitude": "48.1997", "longitude": "28.1581"}, {"country_code": "MD", "postal_code": "MD-3043", "place_name": "Solcani", "latitude": "48.1733", "longitude": "28.1106"}, {"country_code": "MD", "postal_code": "MD-3043", "place_name": "Curesnita Noua", "latitude": "48.1814", "longitude": "28.1225"}, {"country_code": "MD", "postal_code": "MD-3044", "place_name": "Trifauti", "latitude": "48.1617", "longitude": "28.3842"}, {"country_code": "MD", "postal_code": "MD-3045", "place_name": "Tepilova", "latitude": "48.1253", "longitude": "28.2328"}, {"country_code": "MD", "postal_code": "MD-3046", "place_name": "Vasilcau", "latitude": "48.1383", "longitude": "28.4214"}, {"country_code": "MD", "postal_code": "MD-3047", "place_name": "Vadeni", "latitude": "48.0108", "longitude": "28.2272"}, {"country_code": "MD", "postal_code": "MD-3048", "place_name": "Varancau", "latitude": "48.0653", "longitude": "28.515"}, {"country_code": "MD", "postal_code": "MD-3049", "place_name": "Voloave", "latitude": "48.0936", "longitude": "28.2925"}, {"country_code": "MD", "postal_code": "MD-3050", "place_name": "Alexandru Cel Bun", "latitude": "48.0969", "longitude": "28.3406"}, {"country_code": "MD", "postal_code": "MD-3050", "place_name": "Volovita", "latitude": "48.1031", "longitude": "28.3228"}, {"country_code": "MD", "postal_code": "MD-3051", "place_name": "Zastinca", "latitude": "48.1272", "longitude": "28.3061"}, {"country_code": "MD", "postal_code": "MD-3052", "place_name": "Cremenciug", "latitude": "48.2769", "longitude": "28.0853"}, {"country_code": "MD", "postal_code": "MD-3100", "place_name": "Balti", "latitude": "47.7617", "longitude": "27.9289"}, {"country_code": "MD", "postal_code": "MD-3151", "place_name": "Elizaveta", "latitude": "47.7842", "longitude": "28.0225"}, {"country_code": "MD", "postal_code": "MD-3200", "place_name": "Bender", "latitude": "46.8306", "longitude": "29.4711"}, {"country_code": "MD", "postal_code": "MD-3251", "place_name": "Varnita", "latitude": "46.8614", "longitude": "29.4692"}, {"country_code": "MD", "postal_code": "MD-3252", "place_name": "Proteagailovca", "latitude": "46.8231", "longitude": "29.4419"}, {"country_code": "MD", "postal_code": "MD-3300", "place_name": "Tiraspol", "latitude": "46.8403", "longitude": "29.6433"}, {"country_code": "MD", "postal_code": "MD-3311", "place_name": "Tiraspolul Nou", "latitude": "46.8319", "longitude": "29.5767"}, {"country_code": "MD", "postal_code": "MD-3351", "place_name": "Cremenciug", "latitude": "46.7086", "longitude": "29.6739"}, {"country_code": "MD", "postal_code": "MD-3352", "place_name": "Dnestrovsc", "latitude": "46.6222", "longitude": "29.9133"}, {"country_code": "MD", "postal_code": "MD-3401", "place_name": "Hincesti", "latitude": "46.8258", "longitude": "28.5936"}, {"country_code": "MD", "postal_code": "MD-3411", "place_name": "Rusca", "latitude": "46.8761", "longitude": "28.4764"}, {"country_code": "MD", "postal_code": "MD-3411", "place_name": "Anini", "latitude": "46.8892", "longitude": "28.4664"}, {"country_code": "MD", "postal_code": "MD-3412", "place_name": "Balceana", "latitude": "46.8444", "longitude": "28.4047"}, {"country_code": "MD", "postal_code": "MD-3413", "place_name": "Dahnovici", "latitude": "46.9764", "longitude": "28.4822"}, {"country_code": "MD", "postal_code": "MD-3413", "place_name": "Bobeica", "latitude": "46.985", "longitude": "28.4622"}, {"country_code": "MD", "postal_code": "MD-3414", "place_name": "Boghiceni", "latitude": "46.9489", "longitude": "28.3253"}, {"country_code": "MD", "postal_code": "MD-3415", "place_name": "Bozieni", "latitude": "46.7494", "longitude": "28.6472"}, {"country_code": "MD", "postal_code": "MD-3416", "place_name": "Bujor", "latitude": "46.9225", "longitude": "28.2683"}, {"country_code": "MD", "postal_code": "MD-3417", "place_name": "Buteni", "latitude": "46.8242", "longitude": "28.675"}, {"country_code": "MD", "postal_code": "MD-3418", "place_name": "Calmatui", "latitude": "46.7833", "longitude": "28.2153"}, {"country_code": "MD", "postal_code": "MD-3419", "place_name": "Caracui", "latitude": "46.6986", "longitude": "28.5419"}, {"country_code": "MD", "postal_code": "MD-3420", "place_name": "Carpineni", "latitude": "46.7597", "longitude": "28.3531"}, {"country_code": "MD", "postal_code": "MD-3420", "place_name": "Topor ", "latitude": "46.7597", "longitude": "28.3531"}, {"country_code": "MD", "postal_code": "MD-3421", "place_name": "Cioara", "latitude": "46.7325", "longitude": "28.2247"}, {"country_code": "MD", "postal_code": "MD-3422", "place_name": "Cotul Morii", "latitude": "46.8697", "longitude": "28.1189"}, {"country_code": "MD", "postal_code": "MD-3423", "place_name": "Talaiesti", "latitude": "46.8003", "longitude": "28.2664"}, {"country_code": "MD", "postal_code": "MD-3423", "place_name": "Crasnoarmeiscoe", "latitude": "46.8294", "longitude": "28.2822"}, {"country_code": "MD", "postal_code": "MD-3424", "place_name": "Dancu", "latitude": "46.7628", "longitude": "28.21"}, {"country_code": "MD", "postal_code": "MD-3425", "place_name": "Draguseni", "latitude": "46.9839", "longitude": "28.4503"}, {"country_code": "MD", "postal_code": "MD-3426", "place_name": "Dubovca", "latitude": "46.7486", "longitude": "28.6083"}, {"country_code": "MD", "postal_code": "MD-3427", "place_name": "Firladeni", "latitude": "46.7875", "longitude": "28.6875"}, {"country_code": "MD", "postal_code": "MD-3428", "place_name": "Fundul Galbenei", "latitude": "46.8825", "longitude": "28.6231"}, {"country_code": "MD", "postal_code": "MD-3429", "place_name": "Horjesti", "latitude": "46.7128", "longitude": "28.3494"}, {"country_code": "MD", "postal_code": "MD-3430", "place_name": "Costesti", "latitude": "46.8733", "longitude": "28.2067"}, {"country_code": "MD", "postal_code": "MD-3430", "place_name": "Ivanovca", "latitude": "46.8769", "longitude": "28.1964"}, {"country_code": "MD", "postal_code": "MD-3430", "place_name": "Frasin", "latitude": "46.89", "longitude": "28.195"}, {"country_code": "MD", "postal_code": "MD-3431", "place_name": "Lapusna", "latitude": "46.8842", "longitude": "28.4119"}, {"country_code": "MD", "postal_code": "MD-3432", "place_name": "Feteasca", "latitude": "46.7878", "longitude": "28.1922"}, {"country_code": "MD", "postal_code": "MD-3432", "place_name": "Leuseni", "latitude": "46.8092", "longitude": "28.1994"}, {"country_code": "MD", "postal_code": "MD-3434", "place_name": "Loganesti", "latitude": "46.9039", "longitude": "28.5453"}, {"country_code": "MD", "postal_code": "MD-3435", "place_name": "Mereseni", "latitude": "46.7967", "longitude": "28.5417"}, {"country_code": "MD", "postal_code": "MD-3436", "place_name": "Mingir", "latitude": "46.6667", "longitude": "28.3272"}, {"country_code": "MD", "postal_code": "MD-3437", "place_name": "Miresti", "latitude": "46.9697", "longitude": "28.255"}, {"country_code": "MD", "postal_code": "MD-3437", "place_name": "Chetroseni", "latitude": "46.9631", "longitude": "28.2728"}, {"country_code": "MD", "postal_code": "MD-3438", "place_name": "Negrea", "latitude": "46.8114", "longitude": "28.3981"}, {"country_code": "MD", "postal_code": "MD-3439", "place_name": "Nemteni", "latitude": "46.9086", "longitude": "28.1181"}, {"country_code": "MD", "postal_code": "MD-3440", "place_name": "Obileni", "latitude": "46.8786", "longitude": "28.1606"}, {"country_code": "MD", "postal_code": "MD-3440", "place_name": "Sarateni", "latitude": "46.8567", "longitude": "28.1686"}, {"country_code": "MD", "postal_code": "MD-3441", "place_name": "Strimbeni", "latitude": "46.8672", "longitude": "28.265"}, {"country_code": "MD", "postal_code": "MD-3441", "place_name": "Onesti", "latitude": "46.8603", "longitude": "28.2525"}, {"country_code": "MD", "postal_code": "MD-3442", "place_name": "Pascani", "latitude": "46.9769", "longitude": "28.3678"}, {"country_code": "MD", "postal_code": "MD-3443", "place_name": "Pereni", "latitude": "47.0028", "longitude": "28.3736"}, {"country_code": "MD", "postal_code": "MD-3444", "place_name": "Pervomaiscoe", "latitude": "46.8839", "longitude": "28.3231"}, {"country_code": "MD", "postal_code": "MD-3445", "place_name": "Poganesti", "latitude": "46.6928", "longitude": "28.2331"}, {"country_code": "MD", "postal_code": "MD-3445", "place_name": "Marchet", "latitude": "46.7081", "longitude": "28.2342"}, {"country_code": "MD", "postal_code": "MD-3446", "place_name": "Carpineanca", "latitude": "46.6961", "longitude": "28.4725"}, {"country_code": "MD", "postal_code": "MD-3446", "place_name": "Coroliovca", "latitude": "46.7108", "longitude": "28.4725"}, {"country_code": "MD", "postal_code": "MD-3446", "place_name": "Bratianovca", "latitude": "46.7406", "longitude": "28.4647"}, {"country_code": "MD", "postal_code": "MD-3446", "place_name": "Sarata Galbena", "latitude": "46.7275", "longitude": "28.515"}, {"country_code": "MD", "postal_code": "MD-3446", "place_name": "Valea Florii", "latitude": "46.7128", "longitude": "28.4386"}, {"country_code": "MD", "postal_code": "MD-3447", "place_name": "Sarata-Mereseni", "latitude": "46.8", "longitude": "28.5036"}, {"country_code": "MD", "postal_code": "MD-3448", "place_name": "Cornesti", "latitude": "46.9981", "longitude": "28.3294"}, {"country_code": "MD", "postal_code": "MD-3448", "place_name": "Secareni", "latitude": "47.0253", "longitude": "28.3325"}, {"country_code": "MD", "postal_code": "MD-3448", "place_name": "Secarenii Noi", "latitude": "47.0117", "longitude": "28.331"}, {"country_code": "MD", "postal_code": "MD-3449", "place_name": "Sofia", "latitude": "46.8411", "longitude": "28.3803"}, {"country_code": "MD", "postal_code": "MD-3450", "place_name": "Stolniceni", "latitude": "46.9603", "longitude": "28.5"}, {"country_code": "MD", "postal_code": "MD-3451", "place_name": "Sipoteni", "latitude": "46.9425", "longitude": "28.4564"}, {"country_code": "MD", "postal_code": "MD-3452", "place_name": "Semionovca", "latitude": "46.6975", "longitude": "28.3044"}, {"country_code": "MD", "postal_code": "MD-3452", "place_name": "Voinescu", "latitude": "46.6494", "longitude": "28.3017"}, {"country_code": "MD", "postal_code": "MD-3452", "place_name": "Cococeni", "latitude": "46.6735", "longitude": "28.3031"}, {"country_code": "MD", "postal_code": "MD-3502", "place_name": "Orhei 2", "latitude": "47.3831", "longitude": "28.8231"}, {"country_code": "MD", "postal_code": "MD-3503", "place_name": "Orhei 3", "latitude": "47.3867", "longitude": "28.785"}, {"country_code": "MD", "postal_code": "MD-3503", "place_name": "Mitoc", "latitude": "47.3867", "longitude": "28.785"}, {"country_code": "MD", "postal_code": "MD-3504", "place_name": "Orhei 4", "latitude": "47.3831", "longitude": "28.8231"}, {"country_code": "MD", "postal_code": "MD-3505", "place_name": "Orhei 5", "latitude": "47.3831", "longitude": "28.8231"}, {"country_code": "MD", "postal_code": "MD-3511", "place_name": "Berezlogi", "latitude": "47.4364", "longitude": "28.9339"}, {"country_code": "MD", "postal_code": "MD-3512", "place_name": "Cihoreni", "latitude": "47.5061", "longitude": "28.8622"}, {"country_code": "MD", "postal_code": "MD-3512", "place_name": "Biesti", "latitude": "47.5156", "longitude": "28.8614"}, {"country_code": "MD", "postal_code": "MD-3512", "place_name": "Slobozia-Hodorogea", "latitude": "47.5083", "longitude": "28.8886"}, {"country_code": "MD", "postal_code": "MD-3513", "place_name": "Bolohan", "latitude": "47.4319", "longitude": "28.8731"}, {"country_code": "MD", "postal_code": "MD-3514", "place_name": "Braviceni", "latitude": "47.4336", "longitude": "28.6578"}, {"country_code": "MD", "postal_code": "MD-3515", "place_name": "Branesti", "latitude": "47.3053", "longitude": "28.9267"}, {"country_code": "MD", "postal_code": "MD-3516", "place_name": "Breanova", "latitude": "47.4158", "longitude": "28.6497"}, {"country_code": "MD", "postal_code": "MD-3517", "place_name": "Bulaiesti", "latitude": "47.4769", "longitude": "28.9786"}, {"country_code": "MD", "postal_code": "MD-3518", "place_name": "Chiperceni", "latitude": "47.525", "longitude": "28.8386"}, {"country_code": "MD", "postal_code": "MD-3519", "place_name": "Fedoreuca", "latitude": "47.4881", "longitude": "28.6403"}, {"country_code": "MD", "postal_code": "MD-3519", "place_name": "Ciocilteni", "latitude": "47.4939", "longitude": "28.6089"}, {"country_code": "MD", "postal_code": "MD-3519", "place_name": "Clisova Noua", "latitude": "47.491", "longitude": "28.6246"}, {"country_code": "MD", "postal_code": "MD-3520", "place_name": "Cismea", "latitude": "47.4164", "longitude": "28.7533"}, {"country_code": "MD", "postal_code": "MD-3521", "place_name": "Clisova", "latitude": "47.4731", "longitude": "28.5736"}, {"country_code": "MD", "postal_code": "MD-3522", "place_name": "Ocnita-Razesi", "latitude": "47.4694", "longitude": "28.7203"}, {"country_code": "MD", "postal_code": "MD-3522", "place_name": "Cucuruzeni", "latitude": "47.4883", "longitude": "28.7258"}, {"country_code": "MD", "postal_code": "MD-3523", "place_name": "Cucuruzenii De Sus", "latitude": "47.5456", "longitude": "28.6989"}, {"country_code": "MD", "postal_code": "MD-3523", "place_name": "Crihana", "latitude": "47.5228", "longitude": "28.7211"}, {"country_code": "MD", "postal_code": "MD-3524", "place_name": "Curchi", "latitude": "47.3358", "longitude": "28.6539"}, {"country_code": "MD", "postal_code": "MD-3524", "place_name": "Mana", "latitude": "47.3389", "longitude": "28.6844"}, {"country_code": "MD", "postal_code": "MD-3525", "place_name": "Discova", "latitude": "47.3756", "longitude": "28.5975"}, {"country_code": "MD", "postal_code": "MD-3526", "place_name": "Donici", "latitude": "47.2844", "longitude": "28.67"}, {"country_code": "MD", "postal_code": "MD-3526", "place_name": "Camencea", "latitude": "47.2808", "longitude": "28.6875"}, {"country_code": "MD", "postal_code": "MD-3527", "place_name": "Furceni", "latitude": "47.3364", "longitude": "28.9256"}, {"country_code": "MD", "postal_code": "MD-3528", "place_name": "Ghetlova", "latitude": "47.3719", "longitude": "28.5322"}, {"country_code": "MD", "postal_code": "MD-3528", "place_name": "Noroceni", "latitude": "47.3769", "longitude": "28.5181"}, {"country_code": "MD", "postal_code": "MD-3529", "place_name": "Hijdieni", "latitude": "47.4594", "longitude": "28.9147"}, {"country_code": "MD", "postal_code": "MD-3530", "place_name": "Hulboaca", "latitude": "47.3786", "longitude": "28.555"}, {"country_code": "MD", "postal_code": "MD-3531", "place_name": "Isacova", "latitude": "47.3703", "longitude": "28.7181"}, {"country_code": "MD", "postal_code": "MD-3532", "place_name": "Ivancea", "latitude": "47.2847", "longitude": "28.8569"}, {"country_code": "MD", "postal_code": "MD-3533", "place_name": "Izvoare", "latitude": "47.5517", "longitude": "28.9572"}, {"country_code": "MD", "postal_code": "MD-3534", "place_name": "Jora De Mijloc", "latitude": "47.4756", "longitude": "29.0961"}, {"country_code": "MD", "postal_code": "MD-3534", "place_name": "Jora De Jos", "latitude": "47.465", "longitude": "29.1083"}, {"country_code": "MD", "postal_code": "MD-3535", "place_name": "Lopatna", "latitude": "47.495", "longitude": "29.0522"}, {"country_code": "MD", "postal_code": "MD-3535", "place_name": "Jora De Sus", "latitude": "47.4867", "longitude": "29.0761"}, {"country_code": "MD", "postal_code": "MD-3536", "place_name": "Tirzieni", "latitude": "47.445", "longitude": "28.6236"}, {"country_code": "MD", "postal_code": "MD-3536", "place_name": "Malaiesti", "latitude": "47.4631", "longitude": "28.6636"}, {"country_code": "MD", "postal_code": "MD-3537", "place_name": "Mirzaci", "latitude": "47.4894", "longitude": "28.9947"}, {"country_code": "MD", "postal_code": "MD-3537", "place_name": "Mirzesti", "latitude": "47.4986", "longitude": "28.995"}, {"country_code": "MD", "postal_code": "MD-3538", "place_name": "Morozeni", "latitude": "47.3781", "longitude": "28.6342"}, {"country_code": "MD", "postal_code": "MD-3539", "place_name": "Neculaieuca", "latitude": "47.3603", "longitude": "28.6922"}, {"country_code": "MD", "postal_code": "MD-3540", "place_name": "Pelivan", "latitude": "47.4033", "longitude": "28.7742"}, {"country_code": "MD", "postal_code": "MD-3541", "place_name": "Peresecina", "latitude": "47.2522", "longitude": "28.7689"}, {"country_code": "MD", "postal_code": "MD-3542", "place_name": "Pohorniceni", "latitude": "47.3736", "longitude": "28.8844"}, {"country_code": "MD", "postal_code": "MD-3542", "place_name": "Piatra", "latitude": "47.3667", "longitude": "28.8942"}, {"country_code": "MD", "postal_code": "MD-3542", "place_name": "Jeloboc", "latitude": "47.3569", "longitude": "28.9047"}, {"country_code": "MD", "postal_code": "MD-3543", "place_name": "Podgoreni", "latitude": "47.5594", "longitude": "28.7825"}, {"country_code": "MD", "postal_code": "MD-3544", "place_name": "Pohrebeni", "latitude": "47.5564", "longitude": "28.9092"}, {"country_code": "MD", "postal_code": "MD-3544", "place_name": "Sercani", "latitude": "47.5119", "longitude": "28.9322"}, {"country_code": "MD", "postal_code": "MD-3545", "place_name": "Lucaseuca", "latitude": "47.335", "longitude": "28.7558"}, {"country_code": "MD", "postal_code": "MD-3545", "place_name": "Seliste", "latitude": "47.3333", "longitude": "28.7844"}, {"country_code": "MD", "postal_code": "MD-3546", "place_name": "Sirota", "latitude": "47.5278", "longitude": "28.7769"}, {"country_code": "MD", "postal_code": "MD-3547", "place_name": "Budai", "latitude": "47.4344", "longitude": "28.8211"}, {"country_code": "MD", "postal_code": "MD-3547", "place_name": "Step-Soci", "latitude": "47.4553", "longitude": "28.7897"}, {"country_code": "MD", "postal_code": "MD-3548", "place_name": "Susleni", "latitude": "47.4111", "longitude": "28.9864"}, {"country_code": "MD", "postal_code": "MD-3549", "place_name": "Tabara", "latitude": "47.33", "longitude": "28.5647"}, {"country_code": "MD", "postal_code": "MD-3550", "place_name": "Samananca", "latitude": "47.265", "longitude": "28.7308"}, {"country_code": "MD", "postal_code": "MD-3550", "place_name": "Teleseu", "latitude": "47.2661", "longitude": "28.7081"}, {"country_code": "MD", "postal_code": "MD-3550", "place_name": "Pocsesti", "latitude": "47.2492", "longitude": "28.6833"}, {"country_code": "MD", "postal_code": "MD-3552", "place_name": "Butuceni", "latitude": "47.3014", "longitude": "28.9725"}, {"country_code": "MD", "postal_code": "MD-3552", "place_name": "Trebujeni", "latitude": "47.3139", "longitude": "28.9736"}, {"country_code": "MD", "postal_code": "MD-3552", "place_name": "Morovaia", "latitude": "47.2992", "longitude": "28.9953"}, {"country_code": "MD", "postal_code": "MD-3553", "place_name": "Vatici", "latitude": "47.3408", "longitude": "28.6219"}, {"country_code": "MD", "postal_code": "MD-3554", "place_name": "Viprova", "latitude": "47.3833", "longitude": "28.5706"}, {"country_code": "MD", "postal_code": "MD-3554", "place_name": "Putintei", "latitude": "47.3739", "longitude": "28.5761"}, {"country_code": "MD", "postal_code": "MD-3555", "place_name": "Viscauti", "latitude": "47.4325", "longitude": "29.0756"}, {"country_code": "MD", "postal_code": "MD-3556", "place_name": "Vorotet", "latitude": "47.5592", "longitude": "28.8547"}, {"country_code": "MD", "postal_code": "MD-3556", "place_name": "Andreevca", "latitude": "47.5389", "longitude": "28.8775"}, {"country_code": "MD", "postal_code": "MD-3557", "place_name": "Ocnita-Tarani", "latitude": "47.4572", "longitude": "28.7228"}, {"country_code": "MD", "postal_code": "MD-3557", "place_name": "Inculet", "latitude": "47.4489", "longitude": "28.7219"}, {"country_code": "MD", "postal_code": "MD-3557", "place_name": "Zorile", "latitude": "47.4567", "longitude": "28.7381"}, {"country_code": "MD", "postal_code": "MD-3601", "place_name": "Ungheni-Gara", "latitude": "47.2042", "longitude": "27.7958"}, {"country_code": "MD", "postal_code": "MD-3602", "place_name": "Ungheni 2", "latitude": "47.2042", "longitude": "27.7958"}, {"country_code": "MD", "postal_code": "MD-3603", "place_name": "Ungheni 3", "latitude": "47.2042", "longitude": "27.7958"}, {"country_code": "MD", "postal_code": "MD-3604", "place_name": "Ungheni 4", "latitude": "47.2042", "longitude": "27.7958"}, {"country_code": "MD", "postal_code": "MD-3606", "place_name": "Ungheni 6", "latitude": "47.2563", "longitude": "27.8343"}, {"country_code": "MD", "postal_code": "MD-3606", "place_name": "Novaia Nicolaevca", "latitude": "47.2689", "longitude": "27.8458"}, {"country_code": "MD", "postal_code": "MD-3606", "place_name": "Elizavetovca", "latitude": "47.2436", "longitude": "27.8228"}, {"country_code": "MD", "postal_code": "MD-3608", "place_name": "Poiana", "latitude": "47.3917", "longitude": "28"}, {"country_code": "MD", "postal_code": "MD-3608", "place_name": "Romanovca", "latitude": "47.3753", "longitude": "27.9739"}, {"country_code": "MD", "postal_code": "MD-3608", "place_name": "Cornesti Oras", "latitude": "47.3835", "longitude": "27.9869"}, {"country_code": "MD", "postal_code": "MD-3611", "place_name": "Agronomova", "latitude": "47.3486", "longitude": "27.8964"}, {"country_code": "MD", "postal_code": "MD-3612", "place_name": "Alexeevca", "latitude": "47.2636", "longitude": "27.9297"}, {"country_code": "MD", "postal_code": "MD-3612", "place_name": "Lidovca", "latitude": "47.2786", "longitude": "27.8944"}, {"country_code": "MD", "postal_code": "MD-3612", "place_name": "Saghieni", "latitude": "47.2461", "longitude": "27.9719"}, {"country_code": "MD", "postal_code": "MD-3613", "place_name": "Mircesti", "latitude": "47.4031", "longitude": "27.9956"}, {"country_code": "MD", "postal_code": "MD-3613", "place_name": "Boghenii Noi", "latitude": "47.4253", "longitude": "28.0144"}, {"country_code": "MD", "postal_code": "MD-3613", "place_name": "Izvoreni", "latitude": "47.4308", "longitude": "27.9761"}, {"country_code": "MD", "postal_code": "MD-3614", "place_name": "Boghenii Vechi", "latitude": "47.3972", "longitude": "28.0261"}, {"country_code": "MD", "postal_code": "MD-3615", "place_name": "Bumbata", "latitude": "47.3408", "longitude": "27.9744"}, {"country_code": "MD", "postal_code": "MD-3616", "place_name": "Busila", "latitude": "47.3875", "longitude": "27.8117"}, {"country_code": "MD", "postal_code": "MD-3617", "place_name": "Cetireni", "latitude": "47.2242", "longitude": "27.9033"}, {"country_code": "MD", "postal_code": "MD-3618", "place_name": "Chirileni", "latitude": "47.3808", "longitude": "27.7761"}, {"country_code": "MD", "postal_code": "MD-3619", "place_name": "Cioropcani", "latitude": "47.3978", "longitude": "27.6997"}, {"country_code": "MD", "postal_code": "MD-3620", "place_name": "Curtoaia", "latitude": "47.3928", "longitude": "28.1047"}, {"country_code": "MD", "postal_code": "MD-3620", "place_name": "Condratesti", "latitude": "47.4122", "longitude": "28.1122"}, {"country_code": "MD", "postal_code": "MD-3621", "place_name": "Cornesti Sat", "latitude": "47.2042", "longitude": "27.7958"}, {"country_code": "MD", "postal_code": "MD-3622", "place_name": "Cornova", "latitude": "47.3947", "longitude": "28.1717"}, {"country_code": "MD", "postal_code": "MD-3623", "place_name": "Costuleni", "latitude": "47.0781", "longitude": "27.9119"}, {"country_code": "MD", "postal_code": "MD-3624", "place_name": "Tighira", "latitude": "47.4447", "longitude": "27.9019"}, {"country_code": "MD", "postal_code": "MD-3624", "place_name": "Coseni", "latitude": "47.4406", "longitude": "27.9261"}, {"country_code": "MD", "postal_code": "MD-3625", "place_name": "Drujba", "latitude": "47.4328", "longitude": "28.0761"}, {"country_code": "MD", "postal_code": "MD-3626", "place_name": "Floritoaia Noua", "latitude": "47.1672", "longitude": "27.9253"}, {"country_code": "MD", "postal_code": "MD-3626", "place_name": "Grozasca", "latitude": "47.1811", "longitude": "27.8944"}, {"country_code": "MD", "postal_code": "MD-3626", "place_name": "Floritoaia Veche", "latitude": "47.2064", "longitude": "27.9078"}, {"country_code": "MD", "postal_code": "MD-3627", "place_name": "Buciumeni", "latitude": "47.3706", "longitude": "27.7136"}, {"country_code": "MD", "postal_code": "MD-3627", "place_name": "Floresti", "latitude": "47.3706", "longitude": "27.7136"}, {"country_code": "MD", "postal_code": "MD-3627", "place_name": "Buciumeni Loc.C.F.", "latitude": "47.3706", "longitude": "27.7136"}, {"country_code": "MD", "postal_code": "MD-3628", "place_name": "Frasinesti", "latitude": "47.0344", "longitude": "28.0128"}, {"country_code": "MD", "postal_code": "MD-3629", "place_name": "Gherman", "latitude": "47.3594", "longitude": "27.6025"}, {"country_code": "MD", "postal_code": "MD-3630", "place_name": "Graseni", "latitude": "47.3503", "longitude": "27.8353"}, {"country_code": "MD", "postal_code": "MD-3631", "place_name": "Veverita", "latitude": "47.3442", "longitude": "28.1056"}, {"country_code": "MD", "postal_code": "MD-3631", "place_name": "Hircesti", "latitude": "47.3953", "longitude": "28.0864"}, {"country_code": "MD", "postal_code": "MD-3631", "place_name": "Leordoaia", "latitude": "47.3367", "longitude": "28.1406"}, {"country_code": "MD", "postal_code": "MD-3632", "place_name": "Macaresti", "latitude": "47.05", "longitude": "27.9747"}, {"country_code": "MD", "postal_code": "MD-3633", "place_name": "Magurele", "latitude": "47.4608", "longitude": "27.9711"}, {"country_code": "MD", "postal_code": "MD-3634", "place_name": "Manoilesti", "latitude": "47.2367", "longitude": "27.8831"}, {"country_code": "MD", "postal_code": "MD-3634", "place_name": "Vulpesti", "latitude": "47.2358", "longitude": "27.9081"}, {"country_code": "MD", "postal_code": "MD-3635", "place_name": "Medeleni", "latitude": "47.2956", "longitude": "27.6908"}, {"country_code": "MD", "postal_code": "MD-3636", "place_name": "Minzatesti", "latitude": "47.3942", "longitude": "28.065"}, {"country_code": "MD", "postal_code": "MD-3637", "place_name": "Morenii Vechi", "latitude": "47.125", "longitude": "27.8847"}, {"country_code": "MD", "postal_code": "MD-3637", "place_name": "Sicovat", "latitude": "47.1061", "longitude": "27.9086"}, {"country_code": "MD", "postal_code": "MD-3637", "place_name": "Morenii Noi", "latitude": "47.1219", "longitude": "27.9197"}, {"country_code": "MD", "postal_code": "MD-3638", "place_name": "Napadeni", "latitude": "47.4025", "longitude": "28.1506"}, {"country_code": "MD", "postal_code": "MD-3639", "place_name": "Zazulenii Noi", "latitude": "47.3819", "longitude": "27.8706"}, {"country_code": "MD", "postal_code": "MD-3639", "place_name": "Zazulenii Vechi", "latitude": "47.4114", "longitude": "27.8561"}, {"country_code": "MD", "postal_code": "MD-3639", "place_name": "Negurenii Noi", "latitude": "47.4003", "longitude": "27.8886"}, {"country_code": "MD", "postal_code": "MD-3639", "place_name": "Negurenii Vechi", "latitude": "47.4161", "longitude": "27.8797"}, {"country_code": "MD", "postal_code": "MD-3640", "place_name": "Petresti", "latitude": "47.3067", "longitude": "27.7453"}, {"country_code": "MD", "postal_code": "MD-3640", "place_name": "Petresti Loc.C.F.", "latitude": "47.3067", "longitude": "27.7453"}, {"country_code": "MD", "postal_code": "MD-3641", "place_name": "Pirlita", "latitude": "47.3194", "longitude": "27.8733"}, {"country_code": "MD", "postal_code": "MD-3641", "place_name": "Hristoforovca", "latitude": "47.3547", "longitude": "27.9183"}, {"country_code": "MD", "postal_code": "MD-3642", "place_name": "Radenii Vechi", "latitude": "47.2969", "longitude": "28"}, {"country_code": "MD", "postal_code": "MD-3643", "place_name": "Rezina", "latitude": "47.2144", "longitude": "27.8756"}, {"country_code": "MD", "postal_code": "MD-3644", "place_name": "Floreni", "latitude": "47.3464", "longitude": "27.6639"}, {"country_code": "MD", "postal_code": "MD-3644", "place_name": "Blindesti", "latitude": "47.3131", "longitude": "27.6692"}, {"country_code": "MD", "postal_code": "MD-3644", "place_name": "Sculeni", "latitude": "47.3228", "longitude": "27.6314"}, {"country_code": "MD", "postal_code": "MD-3645", "place_name": "Semeni", "latitude": "47.2686", "longitude": "27.7519"}, {"country_code": "MD", "postal_code": "MD-3646", "place_name": "Pojarna", "latitude": "47.335", "longitude": "28.0856"}, {"country_code": "MD", "postal_code": "MD-3646", "place_name": "Sinesti", "latitude": "47.3908", "longitude": "28.0489"}, {"country_code": "MD", "postal_code": "MD-3647", "place_name": "Bulhac", "latitude": "47.4281", "longitude": "27.7425"}, {"country_code": "MD", "postal_code": "MD-3647", "place_name": "Stolniceni", "latitude": "47.4111", "longitude": "27.7139"}, {"country_code": "MD", "postal_code": "MD-3648", "place_name": "Tescureni", "latitude": "47.4117", "longitude": "27.9531"}, {"country_code": "MD", "postal_code": "MD-3649", "place_name": "Todiresti", "latitude": "47.3186", "longitude": "27.82"}, {"country_code": "MD", "postal_code": "MD-3650", "place_name": "Untesti", "latitude": "47.2436", "longitude": "27.8228"}, {"country_code": "MD", "postal_code": "MD-3651", "place_name": "Valea Mare", "latitude": "47.1353", "longitude": "27.8608"}, {"country_code": "MD", "postal_code": "MD-3651", "place_name": "Buzduganii De Sus", "latitude": "47.1608", "longitude": "27.8625"}, {"country_code": "MD", "postal_code": "MD-3651", "place_name": "Buzduganii De Jos", "latitude": "47.1436", "longitude": "27.8194"}, {"country_code": "MD", "postal_code": "MD-3652", "place_name": "Zagarancea", "latitude": "47.2425", "longitude": "27.7611"}, {"country_code": "MD", "postal_code": "MD-3701", "place_name": "Straseni 1", "latitude": "47.1414", "longitude": "28.6103"}, {"country_code": "MD", "postal_code": "MD-3702", "place_name": "Straseni 2", "latitude": "47.1414", "longitude": "28.6103"}, {"country_code": "MD", "postal_code": "MD-3703", "place_name": "Fagureni", "latitude": "47.1453", "longitude": "28.5628"}, {"country_code": "MD", "postal_code": "MD-3711", "place_name": "Bucovat", "latitude": "47.1886", "longitude": "28.4569"}, {"country_code": "MD", "postal_code": "MD-3712", "place_name": "Capriana", "latitude": "47.1175", "longitude": "28.5044"}, {"country_code": "MD", "postal_code": "MD-3713", "place_name": "Chirianca", "latitude": "47.2558", "longitude": "28.5328"}, {"country_code": "MD", "postal_code": "MD-3714", "place_name": "Codreanca", "latitude": "47.2867", "longitude": "28.5897"}, {"country_code": "MD", "postal_code": "MD-3714", "place_name": "Lupa-Recea", "latitude": "47.3128", "longitude": "28.5925"}, {"country_code": "MD", "postal_code": "MD-3715", "place_name": "Cojusna", "latitude": "47.0928", "longitude": "28.6581"}, {"country_code": "MD", "postal_code": "MD-3716", "place_name": "Draguseni", "latitude": "47.2142", "longitude": "28.6642"}, {"country_code": "MD", "postal_code": "MD-3717", "place_name": "Galesti", "latitude": "47.2281", "longitude": "28.4981"}, {"country_code": "MD", "postal_code": "MD-3717", "place_name": "Galestii Noi", "latitude": "47.2075", "longitude": "28.4956"}, {"country_code": "MD", "postal_code": "MD-3718", "place_name": "Saca", "latitude": "47.1942", "longitude": "28.6108"}, {"country_code": "MD", "postal_code": "MD-3718", "place_name": "Ghelauza", "latitude": "47.1936", "longitude": "28.5967"}, {"country_code": "MD", "postal_code": "MD-3719", "place_name": "Gornoe", "latitude": "47.1907", "longitude": "28.7798"}, {"country_code": "MD", "postal_code": "MD-3720", "place_name": "Greblesi", "latitude": "47.2353", "longitude": "28.6069"}, {"country_code": "MD", "postal_code": "MD-3720", "place_name": "Martinesti", "latitude": "47.2353", "longitude": "28.6069"}, {"country_code": "MD", "postal_code": "MD-3721", "place_name": "Lozova", "latitude": "47.1328", "longitude": "28.3858"}, {"country_code": "MD", "postal_code": "MD-3721", "place_name": "Stejareni", "latitude": "47.1061", "longitude": "28.4164"}, {"country_code": "MD", "postal_code": "MD-3722", "place_name": "Micauti", "latitude": "47.1722", "longitude": "28.7489"}, {"country_code": "MD", "postal_code": "MD-3723", "place_name": "Negresti", "latitude": "47.1778", "longitude": "28.6247"}, {"country_code": "MD", "postal_code": "MD-3724", "place_name": "Onesti", "latitude": "47.2786", "longitude": "28.5511"}, {"country_code": "MD", "postal_code": "MD-3725", "place_name": "Panasesti", "latitude": "47.1531", "longitude": "28.5186"}, {"country_code": "MD", "postal_code": "MD-3725", "place_name": "Ciobanca", "latitude": "47.145", "longitude": "28.5022"}, {"country_code": "MD", "postal_code": "MD-3726", "place_name": "Radeni", "latitude": "47.2067", "longitude": "28.6992"}, {"country_code": "MD", "postal_code": "MD-3727", "place_name": "Recea", "latitude": "47.2217", "longitude": "28.5806"}, {"country_code": "MD", "postal_code": "MD-3728", "place_name": "Romanesti", "latitude": "47.2258", "longitude": "28.7111"}, {"country_code": "MD", "postal_code": "MD-3729", "place_name": "Roscani", "latitude": "47.1475", "longitude": "28.6778"}, {"country_code": "MD", "postal_code": "MD-3730", "place_name": "Scoreni", "latitude": "47.0647", "longitude": "28.6086"}, {"country_code": "MD", "postal_code": "MD-3731", "place_name": "Sireti", "latitude": "47.1339", "longitude": "28.7142"}, {"country_code": "MD", "postal_code": "MD-3732", "place_name": "Tataresti", "latitude": "47.2044", "longitude": "28.5386"}, {"country_code": "MD", "postal_code": "MD-3733", "place_name": "Truseni", "latitude": "47.0689", "longitude": "28.6797"}, {"country_code": "MD", "postal_code": "MD-3734", "place_name": "Tiganesti", "latitude": "47.2989", "longitude": "28.5522"}, {"country_code": "MD", "postal_code": "MD-3735", "place_name": "Voinova", "latitude": "47.2706", "longitude": "28.4872"}, {"country_code": "MD", "postal_code": "MD-3736", "place_name": "Vorniceni", "latitude": "47.1497", "longitude": "28.4294"}, {"country_code": "MD", "postal_code": "MD-3737", "place_name": "Vorniceni-1", "latitude": "47.1497", "longitude": "28.4294"}, {"country_code": "MD", "postal_code": "MD-3738", "place_name": "Zamciogi", "latitude": "47.2044", "longitude": "28.7233"}, {"country_code": "MD", "postal_code": "MD-3739", "place_name": "Zubresti", "latitude": "47.2386", "longitude": "28.5258"}, {"country_code": "MD", "postal_code": "MD-3801", "place_name": "Comrat 1", "latitude": "46.3003", "longitude": "28.6572"}, {"country_code": "MD", "postal_code": "MD-3802", "place_name": "Comrat 2", "latitude": "46.3003", "longitude": "28.6572"}, {"country_code": "MD", "postal_code": "MD-3805", "place_name": "Comrat 5", "latitude": "46.3003", "longitude": "28.6572"}, {"country_code": "MD", "postal_code": "MD-3811", "place_name": "Besalma", "latitude": "46.1728", "longitude": "28.6483"}, {"country_code": "MD", "postal_code": "MD-3812", "place_name": "Bugeac", "latitude": "46.3658", "longitude": "28.6633"}, {"country_code": "MD", "postal_code": "MD-3813", "place_name": "Chirsova", "latitude": "46.2339", "longitude": "28.6481"}, {"country_code": "MD", "postal_code": "MD-3814", "place_name": "Chioselia Rusa", "latitude": "46.0833", "longitude": "28.5164"}, {"country_code": "MD", "postal_code": "MD-3815", "place_name": "Congaz 1", "latitude": "46.1606", "longitude": "28.5136"}, {"country_code": "MD", "postal_code": "MD-3815", "place_name": "Cirlaneni", "latitude": "46.1606", "longitude": "28.5136"}, {"country_code": "MD", "postal_code": "MD-3815", "place_name": "Cotovscoe-Cirlaneni", "latitude": "46.1606", "longitude": "28.5136"}, {"country_code": "MD", "postal_code": "MD-3816", "place_name": "Congazcicul De Sus", "latitude": "46.3333", "longitude": "28.5664"}, {"country_code": "MD", "postal_code": "MD-3816", "place_name": "Congazcic", "latitude": "46.3241", "longitude": "28.5506"}, {"country_code": "MD", "postal_code": "MD-3816", "place_name": "Dudulesti", "latitude": "46.3275", "longitude": "28.5139"}, {"country_code": "MD", "postal_code": "MD-3816", "place_name": "Congazcicul De Jos", "latitude": "46.3114", "longitude": "28.5714"}, {"country_code": "MD", "postal_code": "MD-3817", "place_name": "Avdarma", "latitude": "46.2542", "longitude": "28.8394"}, {"country_code": "MD", "postal_code": "MD-3818", "place_name": "Cioc-Maidan", "latitude": "46.3581", "longitude": "28.8219"}, {"country_code": "MD", "postal_code": "MD-3819", "place_name": "Congaz", "latitude": "46.1092", "longitude": "28.6044"}, {"country_code": "MD", "postal_code": "MD-3820", "place_name": "Dezghingea", "latitude": "46.4244", "longitude": "28.6167"}, {"country_code": "MD", "postal_code": "MD-3821", "place_name": "Ferapontievca", "latitude": "46.24", "longitude": "28.7744"}, {"country_code": "MD", "postal_code": "MD-3822", "place_name": "Svetlii", "latitude": "46.0164", "longitude": "28.5661"}, {"country_code": "MD", "postal_code": "MD-3822", "place_name": "Alexeevca", "latitude": "46.0264", "longitude": "28.5675"}, {"country_code": "MD", "postal_code": "MD-3901", "place_name": "Cahul 1", "latitude": "45.8881", "longitude": "28.1881"}, {"country_code": "MD", "postal_code": "MD-3905", "place_name": "Cahul 5", "latitude": "45.9221", "longitude": "28.2216"}, {"country_code": "MD", "postal_code": "MD-3907", "place_name": "Cahul 7", "latitude": "45.9198", "longitude": "28.1933"}, {"country_code": "MD", "postal_code": "MD-3909", "place_name": "Cahul 9", "latitude": "45.9066", "longitude": "28.1931"}, {"country_code": "MD", "postal_code": "MD-3911", "place_name": "Andrusul De Jos", "latitude": "45.9858", "longitude": "28.2211"}, {"country_code": "MD", "postal_code": "MD-3912", "place_name": "Andrusul De Sus", "latitude": "46.0075", "longitude": "28.2461"}, {"country_code": "MD", "postal_code": "MD-3913", "place_name": "Badicul Moldovenesc", "latitude": "46.0944", "longitude": "28.2706"}, {"country_code": "MD", "postal_code": "MD-3914", "place_name": "Baurci-Moldoveni", "latitude": "46.0331", "longitude": "28.2328"}, {"country_code": "MD", "postal_code": "MD-3914", "place_name": "Gibani", "latitude": "46.0331", "longitude": "28.2328"}, {"country_code": "MD", "postal_code": "MD-3915", "place_name": "Bucuria", "latitude": "45.9656", "longitude": "28.3489"}, {"country_code": "MD", "postal_code": "MD-3916", "place_name": "Burlacu", "latitude": "46.0447", "longitude": "28.4128"}, {"country_code": "MD", "postal_code": "MD-3916", "place_name": "Spicoasa", "latitude": "46.0344", "longitude": "28.3769"}, {"country_code": "MD", "postal_code": "MD-3916", "place_name": "Alexandresti", "latitude": "46.0503", "longitude": "28.4125"}, {"country_code": "MD", "postal_code": "MD-3917", "place_name": "Cotihana", "latitude": "45.9381", "longitude": "28.2436"}, {"country_code": "MD", "postal_code": "MD-3918", "place_name": "Crihana Veche", "latitude": "45.8458", "longitude": "28.1947"}, {"country_code": "MD", "postal_code": "MD-3919", "place_name": "Chircani", "latitude": "46.0872", "longitude": "28.1722"}, {"country_code": "MD", "postal_code": "MD-3919", "place_name": "Cucoara", "latitude": "46.0569", "longitude": "28.1708"}, {"country_code": "MD", "postal_code": "MD-3920", "place_name": "Huluboaia", "latitude": "46.0658", "longitude": "28.3333"}, {"country_code": "MD", "postal_code": "MD-3921", "place_name": "Larga Noua", "latitude": "46.0725", "longitude": "28.2242"}, {"country_code": "MD", "postal_code": "MD-3921", "place_name": "Larga Veche", "latitude": "46.0708", "longitude": "28.2453"}, {"country_code": "MD", "postal_code": "MD-3922", "place_name": "Lebedenco", "latitude": "45.8561", "longitude": "28.2917"}, {"country_code": "MD", "postal_code": "MD-3922", "place_name": "Hutulu", "latitude": "45.8631", "longitude": "28.3006"}, {"country_code": "MD", "postal_code": "MD-3923", "place_name": "Lopatica", "latitude": "45.9294", "longitude": "28.4122"}, {"country_code": "MD", "postal_code": "MD-3924", "place_name": "Lucesti", "latitude": "45.9889", "longitude": "28.3364"}, {"country_code": "MD", "postal_code": "MD-3925", "place_name": "Manta", "latitude": "45.8061", "longitude": "28.1833"}, {"country_code": "MD", "postal_code": "MD-3926", "place_name": "Moscovei", "latitude": "45.9342", "longitude": "28.3556"}, {"country_code": "MD", "postal_code": "MD-3926", "place_name": "Trifestii Noi", "latitude": "45.9481", "longitude": "28.355"}, {"country_code": "MD", "postal_code": "MD-3927", "place_name": "Pelinei", "latitude": "45.8269", "longitude": "28.3219"}, {"country_code": "MD", "postal_code": "MD-3927", "place_name": "Satuc", "latitude": "45.8031", "longitude": "28.3528"}, {"country_code": "MD", "postal_code": "MD-3928", "place_name": "Rosu", "latitude": "45.9547", "longitude": "28.1942"}, {"country_code": "MD", "postal_code": "MD-3929", "place_name": "Taraclia De Salcie", "latitude": "46.0075", "longitude": "28.4153"}, {"country_code": "MD", "postal_code": "MD-3930", "place_name": "Tartaul De Salcie", "latitude": "45.9719", "longitude": "28.4119"}, {"country_code": "MD", "postal_code": "MD-3930", "place_name": "Tudoresti", "latitude": "45.9642", "longitude": "28.4028"}, {"country_code": "MD", "postal_code": "MD-3931", "place_name": "Tataresti", "latitude": "46.025", "longitude": "28.3453"}, {"country_code": "MD", "postal_code": "MD-3932", "place_name": "Ursoaia", "latitude": "45.8531", "longitude": "28.3156"}, {"country_code": "MD", "postal_code": "MD-3933", "place_name": "Paicu", "latitude": "46.0378", "longitude": "28.1553"}, {"country_code": "MD", "postal_code": "MD-3933", "place_name": "Tretesti", "latitude": "46", "longitude": "28.1667"}, {"country_code": "MD", "postal_code": "MD-3933", "place_name": "Zirnesti", "latitude": "46.0111", "longitude": "28.1631"}, {"country_code": "MD", "postal_code": "MD-3934", "place_name": "Frumusica", "latitude": "46.0814", "longitude": "28.4831"}, {"country_code": "MD", "postal_code": "MD-3934", "place_name": "Pascani", "latitude": "45.825", "longitude": "28.1878"}, {"country_code": "MD", "postal_code": "MD-3934", "place_name": "Chioselia Mare", "latitude": "46.1", "longitude": "28.4903"}, {"country_code": "MD", "postal_code": "MD-4001", "place_name": "Crasnoe", "latitude": "47.1808", "longitude": "29.3583"}, {"country_code": "MD", "postal_code": "MD-4001", "place_name": "Grigoriopol", "latitude": "47.1536", "longitude": "29.2964"}, {"country_code": "MD", "postal_code": "MD-4006", "place_name": "Maiac", "latitude": "47.2375", "longitude": "29.3858"}, {"country_code": "MD", "postal_code": "MD-4011", "place_name": "Bicioc", "latitude": "46.925", "longitude": "29.4803"}, {"country_code": "MD", "postal_code": "MD-4012", "place_name": "Butor", "latitude": "47.0414", "longitude": "29.4044"}, {"country_code": "MD", "postal_code": "MD-4012", "place_name": "India", "latitude": "47.0461", "longitude": "29.3872"}, {"country_code": "MD", "postal_code": "MD-4013", "place_name": "Carmanova", "latitude": "47.2589", "longitude": "29.5036"}, {"country_code": "MD", "postal_code": "MD-4013", "place_name": "Cotovca", "latitude": "47.2853", "longitude": "29.4783"}, {"country_code": "MD", "postal_code": "MD-4014", "place_name": "Cernita", "latitude": "47.0306", "longitude": "29.5178"}, {"country_code": "MD", "postal_code": "MD-4015", "place_name": "Pobeda", "latitude": "47.35", "longitude": "29.5"}, {"country_code": "MD", "postal_code": "MD-4015", "place_name": "Crasnaia Bessarabia", "latitude": "47.285", "longitude": "29.5869"}, {"country_code": "MD", "postal_code": "MD-4015", "place_name": "Colosova", "latitude": "47.3258", "longitude": "29.5664"}, {"country_code": "MD", "postal_code": "MD-4016", "place_name": "Crasnaia Gorca", "latitude": "47.1322", "longitude": "29.315"}, {"country_code": "MD", "postal_code": "MD-4017", "place_name": "Crasnogorca", "latitude": "46.9614", "longitude": "29.4653"}, {"country_code": "MD", "postal_code": "MD-4018", "place_name": "Delacau", "latitude": "47.1289", "longitude": "29.2989"}, {"country_code": "MD", "postal_code": "MD-4019", "place_name": "Hirtop", "latitude": "47.2397", "longitude": "29.3614"}, {"country_code": "MD", "postal_code": "MD-4019", "place_name": "Mocreachi", "latitude": "47.2756", "longitude": "29.3836"}, {"country_code": "MD", "postal_code": "MD-4019", "place_name": "Marian", "latitude": "47.2342", "longitude": "29.3319"}, {"country_code": "MD", "postal_code": "MD-4019", "place_name": "Bruslachi", "latitude": "47.2811", "longitude": "29.38"}, {"country_code": "MD", "postal_code": "MD-4020", "place_name": "Hlinaia", "latitude": "47.2281", "longitude": "29.415"}, {"country_code": "MD", "postal_code": "MD-4021", "place_name": "Malaiesti", "latitude": "46.9825", "longitude": "29.5522"}, {"country_code": "MD", "postal_code": "MD-4022", "place_name": "Mocearovca", "latitude": "47.2403", "longitude": "29.5497"}, {"country_code": "MD", "postal_code": "MD-4022", "place_name": "Fedoseevca", "latitude": "47.2333", "longitude": "29.5378"}, {"country_code": "MD", "postal_code": "MD-4023", "place_name": "Novovladimirovca", "latitude": "46.9392", "longitude": "29.52"}, {"country_code": "MD", "postal_code": "MD-4024", "place_name": "Speia", "latitude": "47.0067", "longitude": "29.2972"}, {"country_code": "MD", "postal_code": "MD-4025", "place_name": "Sipca", "latitude": "47.1689", "longitude": "29.5075"}, {"country_code": "MD", "postal_code": "MD-4026", "place_name": "Taslic", "latitude": "47.0722", "longitude": "29.3953"}, {"country_code": "MD", "postal_code": "MD-4027", "place_name": "Teiu", "latitude": "46.9581", "longitude": "29.3956"}, {"country_code": "MD", "postal_code": "MD-4027", "place_name": "Tocmagiu", "latitude": "46.9447", "longitude": "29.375"}, {"country_code": "MD", "postal_code": "MD-4028", "place_name": "Vesioloe", "latitude": "47.2019", "longitude": "29.5536"}, {"country_code": "MD", "postal_code": "MD-4029", "place_name": "Vinogradnoe", "latitude": "47.0833", "longitude": "29.4919"}, {"country_code": "MD", "postal_code": "MD-4101", "place_name": "Cimislia", "latitude": "46.52", "longitude": "28.7842"}, {"country_code": "MD", "postal_code": "MD-4111", "place_name": "Fetita", "latitude": "46.6933", "longitude": "28.6731"}, {"country_code": "MD", "postal_code": "MD-4111", "place_name": "Mereni", "latitude": "46.6747", "longitude": "28.6492"}, {"country_code": "MD", "postal_code": "MD-4111", "place_name": "Albina", "latitude": "46.7044", "longitude": "28.6419"}, {"country_code": "MD", "postal_code": "MD-4112", "place_name": "Bogdanovca Veche", "latitude": "46.4756", "longitude": "28.8256"}, {"country_code": "MD", "postal_code": "MD-4112", "place_name": "Bogdanovca Noua", "latitude": "46.4933", "longitude": "28.8444"}, {"country_code": "MD", "postal_code": "MD-4113", "place_name": "Cenac", "latitude": "46.4753", "longitude": "28.6419"}, {"country_code": "MD", "postal_code": "MD-4114", "place_name": "Ciucur-Mingir", "latitude": "46.4408", "longitude": "28.7558"}, {"country_code": "MD", "postal_code": "MD-4115", "place_name": "Costangalia", "latitude": "46.6167", "longitude": "28.8031"}, {"country_code": "MD", "postal_code": "MD-4116", "place_name": "Ecaterinovca", "latitude": "46.5839", "longitude": "28.7494"}, {"country_code": "MD", "postal_code": "MD-4117", "place_name": "Gradiste", "latitude": "46.6078", "longitude": "28.7589"}, {"country_code": "MD", "postal_code": "MD-4118", "place_name": "Gura Galbenei", "latitude": "46.6981", "longitude": "28.7058"}, {"country_code": "MD", "postal_code": "MD-4119", "place_name": "Ialpug", "latitude": "46.6517", "longitude": "28.5897"}, {"country_code": "MD", "postal_code": "MD-4119", "place_name": "Hirtop", "latitude": "46.6522", "longitude": "28.685"}, {"country_code": "MD", "postal_code": "MD-4119", "place_name": "Prisaca", "latitude": "46.6561", "longitude": "28.6025"}, {"country_code": "MD", "postal_code": "MD-4120", "place_name": "Marienfeld", "latitude": "46.5981", "longitude": "28.6186"}, {"country_code": "MD", "postal_code": "MD-4120", "place_name": "Ialpujeni", "latitude": "46.5981", "longitude": "28.6186"}, {"country_code": "MD", "postal_code": "MD-4121", "place_name": "Iurievca", "latitude": "46.6681", "longitude": "28.7642"}, {"country_code": "MD", "postal_code": "MD-4122", "place_name": "Ivanovca Noua", "latitude": "46.7456", "longitude": "28.6953"}, {"country_code": "MD", "postal_code": "MD-4123", "place_name": "Artimonovca", "latitude": "46.5964", "longitude": "28.5908"}, {"country_code": "MD", "postal_code": "MD-4123", "place_name": "Maximeni", "latitude": "46.5717", "longitude": "28.5969"}, {"country_code": "MD", "postal_code": "MD-4123", "place_name": "Javgur", "latitude": "46.5392", "longitude": "28.6161"}, {"country_code": "MD", "postal_code": "MD-4124", "place_name": "Lipoveni", "latitude": "46.7342", "longitude": "28.7619"}, {"country_code": "MD", "postal_code": "MD-4124", "place_name": "Schinosica", "latitude": "46.7278", "longitude": "28.7875"}, {"country_code": "MD", "postal_code": "MD-4124", "place_name": "Munteni", "latitude": "46.7092", "longitude": "28.7747"}, {"country_code": "MD", "postal_code": "MD-4125", "place_name": "Mihailovca", "latitude": "46.5511", "longitude": "28.9319"}, {"country_code": "MD", "postal_code": "MD-4126", "place_name": "Porumbrei", "latitude": "46.6917", "longitude": "28.8161"}, {"country_code": "MD", "postal_code": "MD-4127", "place_name": "Sagaidac", "latitude": "46.6617", "longitude": "28.8458"}, {"country_code": "MD", "postal_code": "MD-4128", "place_name": "Satul Nou", "latitude": "46.6178", "longitude": "28.9078"}, {"country_code": "MD", "postal_code": "MD-4129", "place_name": "Selemet", "latitude": "46.5778", "longitude": "28.9264"}, {"country_code": "MD", "postal_code": "MD-4130", "place_name": "Suric", "latitude": "46.6303", "longitude": "28.8747"}, {"country_code": "MD", "postal_code": "MD-4131", "place_name": "Dimitrovca", "latitude": "46.4853", "longitude": "28.7181"}, {"country_code": "MD", "postal_code": "MD-4131", "place_name": "Topala", "latitude": "46.4619", "longitude": "28.6744"}, {"country_code": "MD", "postal_code": "MD-4132", "place_name": "Valea Perjei", "latitude": "46.6231", "longitude": "28.7264"}, {"country_code": "MD", "postal_code": "MD-4201", "place_name": "Stefan-Voda", "latitude": "46.5153", "longitude": "29.6631"}, {"country_code": "MD", "postal_code": "MD-4211", "place_name": "Alava", "latitude": "46.5092", "longitude": "29.5678"}, {"country_code": "MD", "postal_code": "MD-4212", "place_name": "Antonesti", "latitude": "46.4961", "longitude": "29.8486"}, {"country_code": "MD", "postal_code": "MD-4213", "place_name": "Brezoaia", "latitude": "46.5208", "longitude": "29.4539"}, {"country_code": "MD", "postal_code": "MD-4214", "place_name": "Carahasani", "latitude": "46.4675", "longitude": "29.8122"}, {"country_code": "MD", "postal_code": "MD-4215", "place_name": "Caplani", "latitude": "46.3872", "longitude": "29.8714"}, {"country_code": "MD", "postal_code": "MD-4216", "place_name": "Cioburciu", "latitude": "46.6003", "longitude": "29.7083"}, {"country_code": "MD", "postal_code": "MD-4217", "place_name": "Copciac", "latitude": "46.5134", "longitude": "29.6677"}, {"country_code": "MD", "postal_code": "MD-4218", "place_name": "Crocmaz", "latitude": "46.4519", "longitude": "29.9825"}, {"country_code": "MD", "postal_code": "MD-4219", "place_name": "Ermoclia", "latitude": "46.5808", "longitude": "29.5097"}, {"country_code": "MD", "postal_code": "MD-4220", "place_name": "Festelita", "latitude": "46.5444", "longitude": "29.5656"}, {"country_code": "MD", "postal_code": "MD-4221", "place_name": "Gradinita", "latitude": "46.6531", "longitude": "29.5842"}, {"country_code": "MD", "postal_code": "MD-4222", "place_name": "Lazo", "latitude": "46.4878", "longitude": "29.5764"}, {"country_code": "MD", "postal_code": "MD-4223", "place_name": "Valea Verde", "latitude": "46.6933", "longitude": "29.5883"}, {"country_code": "MD", "postal_code": "MD-4223", "place_name": "Leuntea", "latitude": "46.6628", "longitude": "29.5878"}, {"country_code": "MD", "postal_code": "MD-4224", "place_name": "Hadjilari ", "latitude": "46.5206", "longitude": "29.6014"}, {"country_code": "MD", "postal_code": "MD-4224", "place_name": "Marianca De Jos", "latitude": "46.5206", "longitude": "29.6014"}, {"country_code": "MD", "postal_code": "MD-4225", "place_name": "Olanesti 1", "latitude": "46.4956", "longitude": "29.9181"}, {"country_code": "MD", "postal_code": "MD-4226", "place_name": "Olanesti 2", "latitude": "46.4956", "longitude": "29.9181"}, {"country_code": "MD", "postal_code": "MD-4227", "place_name": "Palanca", "latitude": "46.4086", "longitude": "30.0961"}, {"country_code": "MD", "postal_code": "MD-4228", "place_name": "Popeasca", "latitude": "46.6025", "longitude": "29.5369"}, {"country_code": "MD", "postal_code": "MD-4229", "place_name": "Purcari", "latitude": "46.5369", "longitude": "29.8603"}, {"country_code": "MD", "postal_code": "MD-4230", "place_name": "Rascaieti", "latitude": "46.5744", "longitude": "29.7761"}, {"country_code": "MD", "postal_code": "MD-4231", "place_name": "Rascaietii Noi", "latitude": "46.5325", "longitude": "29.7733"}, {"country_code": "MD", "postal_code": "MD-4232", "place_name": "Semionovca", "latitude": "46.5167", "longitude": "29.5122"}, {"country_code": "MD", "postal_code": "MD-4233", "place_name": "Slobozia", "latitude": "46.5081", "longitude": "29.7403"}, {"country_code": "MD", "postal_code": "MD-4236", "place_name": "Stefanesti", "latitude": "46.4458", "longitude": "29.6878"}, {"country_code": "MD", "postal_code": "MD-4237", "place_name": "Talmaza 1", "latitude": "46.6358", "longitude": "29.6647"}, {"country_code": "MD", "postal_code": "MD-4238", "place_name": "Talmaza 2", "latitude": "46.6358", "longitude": "29.6647"}, {"country_code": "MD", "postal_code": "MD-4239", "place_name": "Tudora", "latitude": "46.435", "longitude": "30.0425"}, {"country_code": "MD", "postal_code": "MD-4240", "place_name": "Viisoara", "latitude": "46.5469", "longitude": "29.8256"}, {"country_code": "MD", "postal_code": "MD-4241", "place_name": "Volintiri", "latitude": "46.4267", "longitude": "29.6058"}, {"country_code": "MD", "postal_code": "MD-4301", "place_name": "Causeni 1", "latitude": "46.6442", "longitude": "29.4139"}, {"country_code": "MD", "postal_code": "MD-4302", "place_name": "Causeni 2", "latitude": "46.6442", "longitude": "29.4139"}, {"country_code": "MD", "postal_code": "MD-4303", "place_name": "Causeni 3", "latitude": "46.6442", "longitude": "29.4139"}, {"country_code": "MD", "postal_code": "MD-4304", "place_name": "Causeni 4", "latitude": "46.6442", "longitude": "29.4139"}, {"country_code": "MD", "postal_code": "MD-4311", "place_name": "Baccealia", "latitude": "46.6911", "longitude": "29.2806"}, {"country_code": "MD", "postal_code": "MD-4311", "place_name": "Tricolici", "latitude": "46.7372", "longitude": "29.2397"}, {"country_code": "MD", "postal_code": "MD-4312", "place_name": "Chircaesti", "latitude": "46.7181", "longitude": "29.5217"}, {"country_code": "MD", "postal_code": "MD-4313", "place_name": "Cirnateni", "latitude": "46.6544", "longitude": "29.4919"}, {"country_code": "MD", "postal_code": "MD-4314", "place_name": "Firladeni", "latitude": "46.7883", "longitude": "29.3669"}, {"country_code": "MD", "postal_code": "MD-4315", "place_name": "Firladenii Noi", "latitude": "46.7525", "longitude": "29.3011"}, {"country_code": "MD", "postal_code": "MD-4316", "place_name": "Gisca 1", "latitude": "46.9982", "longitude": "28.8095"}, {"country_code": "MD", "postal_code": "MD-4317", "place_name": "Gisca 2", "latitude": "46.9982", "longitude": "28.8095"}, {"country_code": "MD", "postal_code": "MD-4318", "place_name": "Grigorievca", "latitude": "46.6897", "longitude": "29.3294"}, {"country_code": "MD", "postal_code": "MD-4319", "place_name": "Hagimus", "latitude": "46.7564", "longitude": "29.4797"}, {"country_code": "MD", "postal_code": "MD-4320", "place_name": "Opaci", "latitude": "46.5797", "longitude": "29.35"}, {"country_code": "MD", "postal_code": "MD-4321", "place_name": "Plop-Stiubei", "latitude": "46.675", "longitude": "29.5144"}, {"country_code": "MD", "postal_code": "MD-4322", "place_name": "Saiti", "latitude": "46.4967", "longitude": "29.4075"}, {"country_code": "MD", "postal_code": "MD-4323", "place_name": "Salcuta", "latitude": "46.595", "longitude": "29.2444"}, {"country_code": "MD", "postal_code": "MD-4324", "place_name": "Tanatari", "latitude": "46.7222", "longitude": "29.4156"}, {"country_code": "MD", "postal_code": "MD-4325", "place_name": "Ursoaia Noua", "latitude": "46.7269", "longitude": "29.3389"}, {"country_code": "MD", "postal_code": "MD-4325", "place_name": "Tanatarii Noi", "latitude": "46.7367", "longitude": "29.3208"}, {"country_code": "MD", "postal_code": "MD-4325", "place_name": "Stefanesti", "latitude": "46.7067", "longitude": "29.3708"}, {"country_code": "MD", "postal_code": "MD-4326", "place_name": "Tocuz", "latitude": "46.5239", "longitude": "29.2961"}, {"country_code": "MD", "postal_code": "MD-4327", "place_name": "Zviozdocica", "latitude": "46.4797", "longitude": "29.3242"}, {"country_code": "MD", "postal_code": "MD-4327", "place_name": "Ucrainca", "latitude": "46.4311", "longitude": "29.2728"}, {"country_code": "MD", "postal_code": "MD-4328", "place_name": "Ursoaia", "latitude": "46.7058", "longitude": "29.4456"}, {"country_code": "MD", "postal_code": "MD-4329", "place_name": "Zaim", "latitude": "46.6194", "longitude": "29.3464"}, {"country_code": "MD", "postal_code": "MD-4329", "place_name": "Marianca De Sus", "latitude": "46.6483", "longitude": "29.3119"}, {"country_code": "MD", "postal_code": "MD-4329", "place_name": "Zaim Loc.C.F.", "latitude": "46.6339", "longitude": "29.3292"}, {"country_code": "MD", "postal_code": "MD-4401", "place_name": "Selistea Noua", "latitude": "47.2319", "longitude": "28.3128"}, {"country_code": "MD", "postal_code": "MD-4401", "place_name": "Calarasi 1", "latitude": "47.2368", "longitude": "28.3079"}, {"country_code": "MD", "postal_code": "MD-4401", "place_name": "Tuzara", "latitude": "47.2417", "longitude": "28.3031"}, {"country_code": "MD", "postal_code": "MD-4402", "place_name": "Calarasi 2", "latitude": "47.2544", "longitude": "28.3081"}, {"country_code": "MD", "postal_code": "MD-4403", "place_name": "Calarasi 4", "latitude": "47.2994", "longitude": "28.2361"}, {"country_code": "MD", "postal_code": "MD-4403", "place_name": "Vatamaneasca ", "latitude": "47.2994", "longitude": "28.2361"}, {"country_code": "MD", "postal_code": "MD-4403", "place_name": "Oricova", "latitude": "47.2994", "longitude": "28.2361"}, {"country_code": "MD", "postal_code": "MD-4411", "place_name": "Bahmut", "latitude": "47.3225", "longitude": "28.1158"}, {"country_code": "MD", "postal_code": "MD-4412", "place_name": "Bahmut St.", "latitude": "47.3326", "longitude": "28.0879"}, {"country_code": "MD", "postal_code": "MD-4413", "place_name": "Bahu", "latitude": "47.4225", "longitude": "28.4667"}, {"country_code": "MD", "postal_code": "MD-4414", "place_name": "Bravicea", "latitude": "47.3611", "longitude": "28.4361"}, {"country_code": "MD", "postal_code": "MD-4415", "place_name": "Buda", "latitude": "47.2089", "longitude": "28.2189"}, {"country_code": "MD", "postal_code": "MD-4415", "place_name": "Ursari", "latitude": "47.2214", "longitude": "28.1894"}, {"country_code": "MD", "postal_code": "MD-4416", "place_name": "Cabaiesti", "latitude": "47.2164", "longitude": "28.1467"}, {"country_code": "MD", "postal_code": "MD-4417", "place_name": "Codru (Sanat.)", "latitude": "46.9753", "longitude": "28.8194"}, {"country_code": "MD", "postal_code": "MD-4418", "place_name": "Bularda", "latitude": "47.3561", "longitude": "28.2222"}, {"country_code": "MD", "postal_code": "MD-4418", "place_name": "Duma", "latitude": "47.3689", "longitude": "28.2324"}, {"country_code": "MD", "postal_code": "MD-4418", "place_name": "Dereneu", "latitude": "47.3817", "longitude": "28.2425"}, {"country_code": "MD", "postal_code": "MD-4419", "place_name": "Frumoasa", "latitude": "47.3289", "longitude": "28.4028"}, {"country_code": "MD", "postal_code": "MD-4420", "place_name": "Hirova", "latitude": "47.4131", "longitude": "28.2817"}, {"country_code": "MD", "postal_code": "MD-4421", "place_name": "Leordoaia", "latitude": "47.3456", "longitude": "28.1533"}, {"country_code": "MD", "postal_code": "MD-4421", "place_name": "Hirjauca", "latitude": "47.3242", "longitude": "28.2225"}, {"country_code": "MD", "postal_code": "MD-4421", "place_name": "Palanca", "latitude": "47.3333", "longitude": "28.2014"}, {"country_code": "MD", "postal_code": "MD-4422", "place_name": "Hirbovat", "latitude": "47.3533", "longitude": "28.2928"}, {"country_code": "MD", "postal_code": "MD-4422", "place_name": "Sverida", "latitude": "47.3533", "longitude": "28.2928"}, {"country_code": "MD", "postal_code": "MD-4423", "place_name": "Hoginesti", "latitude": "47.3733", "longitude": "28.3208"}, {"country_code": "MD", "postal_code": "MD-4424", "place_name": "Horodiste", "latitude": "47.2086", "longitude": "28.2519"}, {"country_code": "MD", "postal_code": "MD-4425", "place_name": "Meleseni", "latitude": "47.3756", "longitude": "28.3889"}, {"country_code": "MD", "postal_code": "MD-4426", "place_name": "Mindra", "latitude": "47.3194", "longitude": "28.2672"}, {"country_code": "MD", "postal_code": "MD-4427", "place_name": "Niscani", "latitude": "47.2672", "longitude": "28.3444"}, {"country_code": "MD", "postal_code": "MD-4428", "place_name": "Novaci", "latitude": "47.2361", "longitude": "28.2667"}, {"country_code": "MD", "postal_code": "MD-4429", "place_name": "Oniscani", "latitude": "47.3653", "longitude": "28.2881"}, {"country_code": "MD", "postal_code": "MD-4430", "place_name": "Paulesti", "latitude": "47.2681", "longitude": "28.3708"}, {"country_code": "MD", "postal_code": "MD-4431", "place_name": "Peticeni", "latitude": "47.2372", "longitude": "28.2072"}, {"country_code": "MD", "postal_code": "MD-4432", "place_name": "Pitusca", "latitude": "47.2375", "longitude": "28.4197"}, {"country_code": "MD", "postal_code": "MD-4433", "place_name": "Pirjolteni", "latitude": "47.1969", "longitude": "28.2417"}, {"country_code": "MD", "postal_code": "MD-4434", "place_name": "Parcani", "latitude": "47.2944", "longitude": "28.3736"}, {"country_code": "MD", "postal_code": "MD-4435", "place_name": "Radeni", "latitude": "47.3978", "longitude": "28.2167"}, {"country_code": "MD", "postal_code": "MD-4435", "place_name": "Raciula", "latitude": "47.3025", "longitude": "28.3436"}, {"country_code": "MD", "postal_code": "MD-4435", "place_name": "Rassvet", "latitude": "47.2031", "longitude": "28.4283"}, {"country_code": "MD", "postal_code": "MD-4436", "place_name": "Sadova", "latitude": "47.1911", "longitude": "28.3447"}, {"country_code": "MD", "postal_code": "MD-4437", "place_name": "Saseni", "latitude": "47.3678", "longitude": "28.5014"}, {"country_code": "MD", "postal_code": "MD-4438", "place_name": "Podul Lung", "latitude": "47.2619", "longitude": "28.2503"}, {"country_code": "MD", "postal_code": "MD-4438", "place_name": "Sipoteni", "latitude": "47.2772", "longitude": "28.1981"}, {"country_code": "MD", "postal_code": "MD-4439", "place_name": "Temeleuti", "latitude": "47.2539", "longitude": "28.0719"}, {"country_code": "MD", "postal_code": "MD-4440", "place_name": "Tibirica", "latitude": "47.3714", "longitude": "28.3689"}, {"country_code": "MD", "postal_code": "MD-4441", "place_name": "Valcinet", "latitude": "47.2672", "longitude": "28.1289"}, {"country_code": "MD", "postal_code": "MD-4441", "place_name": "Schinoasa ", "latitude": "47.2672", "longitude": "28.1289"}, {"country_code": "MD", "postal_code": "MD-4442", "place_name": "Varzarestii Noi", "latitude": "47.2322", "longitude": "28.445"}, {"country_code": "MD", "postal_code": "MD-4501", "place_name": "Mahala", "latitude": "47.2667", "longitude": "29.1497"}, {"country_code": "MD", "postal_code": "MD-4501", "place_name": "Dubasari 1", "latitude": "47.2772", "longitude": "29.1397"}, {"country_code": "MD", "postal_code": "MD-4501", "place_name": "Corjova", "latitude": "47.2878", "longitude": "29.1297"}, {"country_code": "MD", "postal_code": "MD-4502", "place_name": "Dubasari 2", "latitude": "47.7591", "longitude": "27.932"}, {"country_code": "MD", "postal_code": "MD-4511", "place_name": "Coicova", "latitude": "47.4117", "longitude": "29.2425"}, {"country_code": "MD", "postal_code": "MD-4512", "place_name": "Cosnita Noua", "latitude": "47.3133", "longitude": "29.3308"}, {"country_code": "MD", "postal_code": "MD-4512", "place_name": "Comisarovca Noua", "latitude": "47.3306", "longitude": "29.3472"}, {"country_code": "MD", "postal_code": "MD-4512", "place_name": "Vasilievca", "latitude": "47.3689", "longitude": "29.305"}, {"country_code": "MD", "postal_code": "MD-4513", "place_name": "Crasnii Vinogradari", "latitude": "47.2983", "longitude": "29.2781"}, {"country_code": "MD", "postal_code": "MD-4513", "place_name": "Alexandrovca Noua", "latitude": "47.3", "longitude": "29.3025"}, {"country_code": "MD", "postal_code": "MD-4513", "place_name": "Afanasievca", "latitude": "47.3231", "longitude": "29.2536"}, {"country_code": "MD", "postal_code": "MD-4513", "place_name": "Lunga Noua", "latitude": "47.2858", "longitude": "29.2747"}, {"country_code": "MD", "postal_code": "MD-4513", "place_name": "Calinovca", "latitude": "47.3117", "longitude": "29.25"}, {"country_code": "MD", "postal_code": "MD-4514", "place_name": "Doibani 1", "latitude": "47.39", "longitude": "29.2064"}, {"country_code": "MD", "postal_code": "MD-4515", "place_name": "Doibani 2", "latitude": "47.4036", "longitude": "29.2136"}, {"country_code": "MD", "postal_code": "MD-4516", "place_name": "Dubau", "latitude": "47.4303", "longitude": "29.2792"}, {"country_code": "MD", "postal_code": "MD-4516", "place_name": "Goianul Nou", "latitude": "47.3853", "longitude": "29.3203"}, {"country_code": "MD", "postal_code": "MD-4517", "place_name": "Dzerjinscoe", "latitude": "47.2217", "longitude": "29.1811"}, {"country_code": "MD", "postal_code": "MD-4518", "place_name": "Goian", "latitude": "47.3772", "longitude": "29.16"}, {"country_code": "MD", "postal_code": "MD-4518", "place_name": "Iagorlic", "latitude": "47.3922", "longitude": "29.1608"}, {"country_code": "MD", "postal_code": "MD-4519", "place_name": "Harmatca", "latitude": "47.4233", "longitude": "29.0928"}, {"country_code": "MD", "postal_code": "MD-4520", "place_name": "Lunga", "latitude": "47.2461", "longitude": "29.1667"}, {"country_code": "MD", "postal_code": "MD-4522", "place_name": "Bosca", "latitude": "47.3061", "longitude": "29.3644"}, {"country_code": "MD", "postal_code": "MD-4522", "place_name": "Pohrebea Noua", "latitude": "47.3103", "longitude": "29.3783"}, {"country_code": "MD", "postal_code": "MD-4523", "place_name": "Roghi", "latitude": "47.3203", "longitude": "29.1356"}, {"country_code": "MD", "postal_code": "MD-4524", "place_name": "Tibuleuca", "latitude": "47.4056", "longitude": "29.1044"}, {"country_code": "MD", "postal_code": "MD-4571", "place_name": "Cocieri", "latitude": "47.3075", "longitude": "29.1103"}, {"country_code": "MD", "postal_code": "MD-4572", "place_name": "Pohrebea", "latitude": "47.1819", "longitude": "29.1661"}, {"country_code": "MD", "postal_code": "MD-4572", "place_name": "Cosnita", "latitude": "47.1475", "longitude": "29.1333"}, {"country_code": "MD", "postal_code": "MD-4573", "place_name": "Dorotcaia", "latitude": "47.1722", "longitude": "29.2028"}, {"country_code": "MD", "postal_code": "MD-4574", "place_name": "Holercani", "latitude": "47.3119", "longitude": "29.0689"}, {"country_code": "MD", "postal_code": "MD-4575", "place_name": "Marcauti", "latitude": "47.3553", "longitude": "29.0583"}, {"country_code": "MD", "postal_code": "MD-4576", "place_name": "Molovata Noua", "latitude": "47.3469", "longitude": "29.0911"}, {"country_code": "MD", "postal_code": "MD-4577", "place_name": "Molovata", "latitude": "47.3489", "longitude": "29.1144"}, {"country_code": "MD", "postal_code": "MD-4578", "place_name": "Oxentea", "latitude": "47.3833", "longitude": "29.1186"}, {"country_code": "MD", "postal_code": "MD-4579", "place_name": "Pirita", "latitude": "47.1008", "longitude": "29.1192"}, {"country_code": "MD", "postal_code": "MD-4580", "place_name": "Ustia", "latitude": "47.2567", "longitude": "29.125"}, {"country_code": "MD", "postal_code": "MD-4601", "place_name": "Edinet", "latitude": "48.1681", "longitude": "27.305"}, {"country_code": "MD", "postal_code": "MD-4611", "place_name": "Alexeevca", "latitude": "48.0936", "longitude": "27.2608"}, {"country_code": "MD", "postal_code": "MD-4612", "place_name": "Alexandreni", "latitude": "48.1472", "longitude": "27.2583"}, {"country_code": "MD", "postal_code": "MD-4613", "place_name": "Badragii Vechi", "latitude": "48.0378", "longitude": "27.1064"}, {"country_code": "MD", "postal_code": "MD-4614", "place_name": "Badragii Noi", "latitude": "48.0642", "longitude": "27.0747"}, {"country_code": "MD", "postal_code": "MD-4615", "place_name": "Blesteni", "latitude": "48.1225", "longitude": "27.2194"}, {"country_code": "MD", "postal_code": "MD-4615", "place_name": "Volodeni", "latitude": "48.1142", "longitude": "27.2014"}, {"country_code": "MD", "postal_code": "MD-4617", "place_name": "Bratuseni", "latitude": "48.0772", "longitude": "27.3958"}, {"country_code": "MD", "postal_code": "MD-4618", "place_name": "Bratusenii Noi", "latitude": "48.0611", "longitude": "27.4839"}, {"country_code": "MD", "postal_code": "MD-4619", "place_name": "Brinzeni", "latitude": "48.0842", "longitude": "27.1756"}, {"country_code": "MD", "postal_code": "MD-4620", "place_name": "Burlanesti", "latitude": "48.1261", "longitude": "27.1303"}, {"country_code": "MD", "postal_code": "MD-4620", "place_name": "Buzdugeni", "latitude": "48.1078", "longitude": "27.1558"}, {"country_code": "MD", "postal_code": "MD-4620", "place_name": "Heredeuca ", "latitude": "48.1169", "longitude": "27.1431"}, {"country_code": "MD", "postal_code": "MD-4621", "place_name": "Chetrosica Noua", "latitude": "48.1192", "longitude": "27.4717"}, {"country_code": "MD", "postal_code": "MD-4622", "place_name": "Chiurt", "latitude": "48.0594", "longitude": "27.3411"}, {"country_code": "MD", "postal_code": "MD-4623", "place_name": "Constantinovca", "latitude": "48.2492", "longitude": "27.11"}, {"country_code": "MD", "postal_code": "MD-4623", "place_name": "Iachimeni", "latitude": "48.2492", "longitude": "27.11"}, {"country_code": "MD", "postal_code": "MD-4624", "place_name": "Corpaci", "latitude": "48.0069", "longitude": "27.1383"}, {"country_code": "MD", "postal_code": "MD-4625", "place_name": "Cuconestii Vechi", "latitude": "47.9656", "longitude": "27.1567"}, {"country_code": "MD", "postal_code": "MD-4625", "place_name": "Cuconestii Noi", "latitude": "47.9889", "longitude": "27.2075"}, {"country_code": "MD", "postal_code": "MD-4626", "place_name": "Cupcini", "latitude": "48.1108", "longitude": "27.3853"}, {"country_code": "MD", "postal_code": "MD-4626", "place_name": "Chetrosica Veche", "latitude": "48.1108", "longitude": "27.3853"}, {"country_code": "MD", "postal_code": "MD-4627", "place_name": "Fetesti", "latitude": "48.1667", "longitude": "27.0967"}, {"country_code": "MD", "postal_code": "MD-4628", "place_name": "Fintina Alba", "latitude": "48.1631", "longitude": "27.4283"}, {"country_code": "MD", "postal_code": "MD-4629", "place_name": "Gaspar", "latitude": "48.1569", "longitude": "27.4975"}, {"country_code": "MD", "postal_code": "MD-4630", "place_name": "Goleni", "latitude": "48.2106", "longitude": "27.4328"}, {"country_code": "MD", "postal_code": "MD-4631", "place_name": "Gordinestii Noi", "latitude": "48.1706", "longitude": "27.2286"}, {"country_code": "MD", "postal_code": "MD-4631", "place_name": "Gordinesti", "latitude": "48.1644", "longitude": "27.165"}, {"country_code": "MD", "postal_code": "MD-4632", "place_name": "Hancauti", "latitude": "48.0486", "longitude": "27.1889"}, {"country_code": "MD", "postal_code": "MD-4633", "place_name": "Cliscauti", "latitude": "48.2844", "longitude": "27.3286"}, {"country_code": "MD", "postal_code": "MD-4633", "place_name": "Hincauti", "latitude": "48.2739", "longitude": "27.3106"}, {"country_code": "MD", "postal_code": "MD-4634", "place_name": "Hlinaia", "latitude": "48.2233", "longitude": "27.2533"}, {"country_code": "MD", "postal_code": "MD-4635", "place_name": "Lopatnic", "latitude": "48.1364", "longitude": "27.0522"}, {"country_code": "MD", "postal_code": "MD-4636", "place_name": "Parcova", "latitude": "48.1531", "longitude": "27.4039"}, {"country_code": "MD", "postal_code": "MD-4637", "place_name": "Poiana", "latitude": "48.2522", "longitude": "27.3519"}, {"country_code": "MD", "postal_code": "MD-4638", "place_name": "Hlinaia Mica", "latitude": "48.2536", "longitude": "27.2694"}, {"country_code": "MD", "postal_code": "MD-4638", "place_name": "Rotunda", "latitude": "48.2442", "longitude": "27.3064"}, {"country_code": "MD", "postal_code": "MD-4639", "place_name": "Slobodca", "latitude": "48.2075", "longitude": "27.3686"}, {"country_code": "MD", "postal_code": "MD-4639", "place_name": "Ruseni", "latitude": "48.2017", "longitude": "27.4158"}, {"country_code": "MD", "postal_code": "MD-4640", "place_name": "Stolniceni", "latitude": "48.0381", "longitude": "27.3481"}, {"country_code": "MD", "postal_code": "MD-4641", "place_name": "Sofrincani", "latitude": "48.0489", "longitude": "27.4139"}, {"country_code": "MD", "postal_code": "MD-4642", "place_name": "Terebna", "latitude": "48.05", "longitude": "27.2514"}, {"country_code": "MD", "postal_code": "MD-4643", "place_name": "Tirnova", "latitude": "48.2067", "longitude": "27.1797"}, {"country_code": "MD", "postal_code": "MD-4644", "place_name": "Trinca", "latitude": "48.2083", "longitude": "27.1122"}, {"country_code": "MD", "postal_code": "MD-4645", "place_name": "Viisoara", "latitude": "48.0947", "longitude": "27.0447"}, {"country_code": "MD", "postal_code": "MD-4646", "place_name": "Zabriceni", "latitude": "48.0728", "longitude": "27.2533"}, {"country_code": "MD", "postal_code": "MD-4646", "place_name": "Onesti", "latitude": "48.0642", "longitude": "27.2722"}, {"country_code": "MD", "postal_code": "MD-4701", "place_name": "Briceni 1", "latitude": "48.3628", "longitude": "27.085"}, {"country_code": "MD", "postal_code": "MD-4706", "place_name": "Lipcani 1", "latitude": "48.2653", "longitude": "26.8039"}, {"country_code": "MD", "postal_code": "MD-4707", "place_name": "Lipcani 2", "latitude": "48.2653", "longitude": "26.8039"}, {"country_code": "MD", "postal_code": "MD-4708", "place_name": "Lipcani 3", "latitude": "48.2653", "longitude": "26.8039"}, {"country_code": "MD", "postal_code": "MD-4711", "place_name": "Balasinesti", "latitude": "48.2439", "longitude": "26.9606"}, {"country_code": "MD", "postal_code": "MD-4712", "place_name": "Bocicauti", "latitude": "48.2922", "longitude": "27.1747"}, {"country_code": "MD", "postal_code": "MD-4712", "place_name": "Balcauti", "latitude": "48.2833", "longitude": "27.2022"}, {"country_code": "MD", "postal_code": "MD-4713", "place_name": "Berlinti", "latitude": "48.3119", "longitude": "26.9358"}, {"country_code": "MD", "postal_code": "MD-4714", "place_name": "Bezeda", "latitude": "48.1608", "longitude": "27.0011"}, {"country_code": "MD", "postal_code": "MD-4715", "place_name": "Bogdanesti", "latitude": "48.1403", "longitude": "27.0019"}, {"country_code": "MD", "postal_code": "MD-4715", "place_name": "Grimesti", "latitude": "48.1331", "longitude": "26.9744"}, {"country_code": "MD", "postal_code": "MD-4716", "place_name": "Bulboaca", "latitude": "48.3717", "longitude": "27.1983"}, {"country_code": "MD", "postal_code": "MD-4717", "place_name": "Caracusenii Noi", "latitude": "48.3253", "longitude": "27.0242"}, {"country_code": "MD", "postal_code": "MD-4718", "place_name": "Caracusenii Vechi", "latitude": "48.27", "longitude": "27.0758"}, {"country_code": "MD", "postal_code": "MD-4719", "place_name": "Colicauti", "latitude": "48.3089", "longitude": "27.1539"}, {"country_code": "MD", "postal_code": "MD-4720", "place_name": "Corjeuti", "latitude": "48.2228", "longitude": "27.0422"}, {"country_code": "MD", "postal_code": "MD-4721", "place_name": "Coteala", "latitude": "48.3308", "longitude": "26.8619"}, {"country_code": "MD", "postal_code": "MD-4722", "place_name": "Cotiujeni", "latitude": "48.3444", "longitude": "26.9381"}, {"country_code": "MD", "postal_code": "MD-4723", "place_name": "Criva", "latitude": "48.2711", "longitude": "26.6722"}, {"country_code": "MD", "postal_code": "MD-4724", "place_name": "Drepcauti", "latitude": "48.2717", "longitude": "26.7242"}, {"country_code": "MD", "postal_code": "MD-4725", "place_name": "Beleavinti", "latitude": "48.2886", "longitude": "26.9461"}, {"country_code": "MD", "postal_code": "MD-4725", "place_name": "Ghilavat", "latitude": "48.2886", "longitude": "26.9461"}, {"country_code": "MD", "postal_code": "MD-4726", "place_name": "Grimancauti", "latitude": "48.3894", "longitude": "27.0897"}, {"country_code": "MD", "postal_code": "MD-4727", "place_name": "Groznita", "latitude": "48.26", "longitude": "27.2372"}, {"country_code": "MD", "postal_code": "MD-4728", "place_name": "Halahora De Jos", "latitude": "48.2314", "longitude": "27.1697"}, {"country_code": "MD", "postal_code": "MD-4729", "place_name": "Chirilovca", "latitude": "48.2586", "longitude": "27.1783"}, {"country_code": "MD", "postal_code": "MD-4729", "place_name": "Halahora De Sus", "latitude": "48.2586", "longitude": "27.1783"}, {"country_code": "MD", "postal_code": "MD-4730", "place_name": "Hlina", "latitude": "48.2911", "longitude": "26.8781"}, {"country_code": "MD", "postal_code": "MD-4731", "place_name": "Larga", "latitude": "48.3722", "longitude": "26.8433"}, {"country_code": "MD", "postal_code": "MD-4731", "place_name": "Pavlovca", "latitude": "48.3808", "longitude": "26.8747"}, {"country_code": "MD", "postal_code": "MD-4732", "place_name": "Marcautii Noi", "latitude": "48.2975", "longitude": "27.2281"}, {"country_code": "MD", "postal_code": "MD-4732", "place_name": "Marcauti", "latitude": "48.3139", "longitude": "27.2261"}, {"country_code": "MD", "postal_code": "MD-4733", "place_name": "Slobozia-Medveja", "latitude": "48.3806", "longitude": "26.7525"}, {"country_code": "MD", "postal_code": "MD-4733", "place_name": "Medveja", "latitude": "48.3619", "longitude": "26.7864"}, {"country_code": "MD", "postal_code": "MD-4734", "place_name": "Mihaileni", "latitude": "48.2472", "longitude": "27.2508"}, {"country_code": "MD", "postal_code": "MD-4735", "place_name": "Pererita", "latitude": "48.2072", "longitude": "26.9158"}, {"country_code": "MD", "postal_code": "MD-4736", "place_name": "Sirauti", "latitude": "48.2372", "longitude": "26.8425"}, {"country_code": "MD", "postal_code": "MD-4737", "place_name": "Slobozia-Sirauti", "latitude": "48.2425", "longitude": "26.8725"}, {"country_code": "MD", "postal_code": "MD-4738", "place_name": "Tabani", "latitude": "48.3122", "longitude": "27.0975"}, {"country_code": "MD", "postal_code": "MD-4739", "place_name": "Tetcani", "latitude": "48.1817", "longitude": "26.9756"}, {"country_code": "MD", "postal_code": "MD-4740", "place_name": "Trebisauti", "latitude": "48.3558", "longitude": "27.1908"}, {"country_code": "MD", "postal_code": "MD-4741", "place_name": "Trestieni", "latitude": "48.2697", "longitude": "27.1322"}, {"country_code": "MD", "postal_code": "MD-4801", "place_name": "Zolonceni", "latitude": "47.2461", "longitude": "29.1383"}, {"country_code": "MD", "postal_code": "MD-4801", "place_name": "Criuleni", "latitude": "47.2144", "longitude": "29.1614"}, {"country_code": "MD", "postal_code": "MD-4811", "place_name": "Malaiesti", "latitude": "47.0853", "longitude": "29.1333"}, {"country_code": "MD", "postal_code": "MD-4811", "place_name": "Balabanesti", "latitude": "47.0683", "longitude": "29.1319"}, {"country_code": "MD", "postal_code": "MD-4811", "place_name": "Malaiestii Noi", "latitude": "47.0768", "longitude": "29.1326"}, {"country_code": "MD", "postal_code": "MD-4812", "place_name": "Baltata De Sus", "latitude": "47.0664", "longitude": "29.0356"}, {"country_code": "MD", "postal_code": "MD-4812", "place_name": "Sagaidac", "latitude": "47.0272", "longitude": "29.0239"}, {"country_code": "MD", "postal_code": "MD-4812", "place_name": "Sagaidacul De Sus", "latitude": "47.0497", "longitude": "29.0253"}, {"country_code": "MD", "postal_code": "MD-4812", "place_name": "Baltata", "latitude": "47.0514", "longitude": "29.0478"}, {"country_code": "MD", "postal_code": "MD-4813", "place_name": "Boscana", "latitude": "47.1244", "longitude": "29.0072"}, {"country_code": "MD", "postal_code": "MD-4813", "place_name": "Mardareuca", "latitude": "47.1175", "longitude": "29.0022"}, {"country_code": "MD", "postal_code": "MD-4814", "place_name": "Budesti", "latitude": "47.0653", "longitude": "29.0067"}, {"country_code": "MD", "postal_code": "MD-4814", "place_name": "Vaduleni", "latitude": "47.0703", "longitude": "29.0836"}, {"country_code": "MD", "postal_code": "MD-4815", "place_name": "Cimiseni", "latitude": "47.0119", "longitude": "29.1294"}, {"country_code": "MD", "postal_code": "MD-4816", "place_name": "Hrusova", "latitude": "47.1367", "longitude": "28.9519"}, {"country_code": "MD", "postal_code": "MD-4816", "place_name": "Ciopleni", "latitude": "47.1303", "longitude": "28.9497"}, {"country_code": "MD", "postal_code": "MD-4816", "place_name": "Chetroasa", "latitude": "47.1222", "longitude": "28.9786"}, {"country_code": "MD", "postal_code": "MD-4817", "place_name": "Corjova", "latitude": "47.0964", "longitude": "29.1717"}, {"country_code": "MD", "postal_code": "MD-4818", "place_name": "Cosernita", "latitude": "47.1192", "longitude": "29.0472"}, {"country_code": "MD", "postal_code": "MD-4819", "place_name": "Cruglic", "latitude": "47.2197", "longitude": "29.0267"}, {"country_code": "MD", "postal_code": "MD-4820", "place_name": "Valea Colonitei", "latitude": "47.01", "longitude": "28.9867"}, {"country_code": "MD", "postal_code": "MD-4820", "place_name": "Valea Satului", "latitude": "47.0353", "longitude": "29.0058"}, {"country_code": "MD", "postal_code": "MD-4820", "place_name": "Dolinnoe", "latitude": "47.0222", "longitude": "28.995"}, {"country_code": "MD", "postal_code": "MD-4821", "place_name": "Drasliceni", "latitude": "47.1556", "longitude": "28.78"}, {"country_code": "MD", "postal_code": "MD-4822", "place_name": "Dubasarii Vechi", "latitude": "47.1339", "longitude": "29.1978"}, {"country_code": "MD", "postal_code": "MD-4823", "place_name": "Goianul Nou", "latitude": "47.1175", "longitude": "28.9008"}, {"country_code": "MD", "postal_code": "MD-4824", "place_name": "Hirtopul Mare", "latitude": "47.2264", "longitude": "28.9428"}, {"country_code": "MD", "postal_code": "MD-4825", "place_name": "Hirtopul Mic", "latitude": "47.2469", "longitude": "28.9283"}, {"country_code": "MD", "postal_code": "MD-4826", "place_name": "Isnovat", "latitude": "47.2314", "longitude": "28.8636"}, {"country_code": "MD", "postal_code": "MD-4827", "place_name": "Izbiste", "latitude": "47.2206", "longitude": "28.9964"}, {"country_code": "MD", "postal_code": "MD-4828", "place_name": "Jevreni", "latitude": "47.2583", "longitude": "29.0639"}, {"country_code": "MD", "postal_code": "MD-4829", "place_name": "Magdacesti", "latitude": "47.1339", "longitude": "28.8256"}, {"country_code": "MD", "postal_code": "MD-4829", "place_name": "Porumbeni", "latitude": "47.1339", "longitude": "28.8256"}, {"country_code": "MD", "postal_code": "MD-4830", "place_name": "Mascauti", "latitude": "47.2906", "longitude": "29.0039"}, {"country_code": "MD", "postal_code": "MD-4831", "place_name": "Miclesti", "latitude": "47.2386", "longitude": "28.8067"}, {"country_code": "MD", "postal_code": "MD-4832", "place_name": "Ohrincea", "latitude": "47.2208", "longitude": "29.0611"}, {"country_code": "MD", "postal_code": "MD-4833", "place_name": "Onitcani", "latitude": "47.1458", "longitude": "29.0686"}, {"country_code": "MD", "postal_code": "MD-4834", "place_name": "Pascani", "latitude": "47.1672", "longitude": "28.8325"}, {"country_code": "MD", "postal_code": "MD-4835", "place_name": "Ratus", "latitude": "47.165", "longitude": "28.8067"}, {"country_code": "MD", "postal_code": "MD-4835", "place_name": "Loganesti", "latitude": "47.1725", "longitude": "28.7842"}, {"country_code": "MD", "postal_code": "MD-4836", "place_name": "Raculesti", "latitude": "47.2706", "longitude": "29.0675"}, {"country_code": "MD", "postal_code": "MD-4836", "place_name": "Balasesti", "latitude": "47.2656", "longitude": "29.0425"}, {"country_code": "MD", "postal_code": "MD-4837", "place_name": "Riscova", "latitude": "47.2525", "longitude": "28.8461"}, {"country_code": "MD", "postal_code": "MD-4838", "place_name": "Slobozia-Dusca", "latitude": "47.1644", "longitude": "29.12"}, {"country_code": "MD", "postal_code": "MD-4839", "place_name": "Stauceni", "latitude": "47.0875", "longitude": "28.8703"}, {"country_code": "MD", "postal_code": "MD-4840", "place_name": "Stetcani", "latitude": "47.2364", "longitude": "28.825"}, {"country_code": "MD", "postal_code": "MD-4841", "place_name": "Zaicana", "latitude": "47.1686", "longitude": "28.9522"}, {"country_code": "MD", "postal_code": "MD-4901", "place_name": "Soroca", "latitude": "47.805", "longitude": "27.5625"}, {"country_code": "MD", "postal_code": "MD-4901", "place_name": "Glodeni", "latitude": "47.7708", "longitude": "27.5144"}, {"country_code": "MD", "postal_code": "MD-4901", "place_name": "Stircea", "latitude": "47.7922", "longitude": "27.5275"}, {"country_code": "MD", "postal_code": "MD-4911", "place_name": "Balatina", "latitude": "47.6933", "longitude": "27.3472"}, {"country_code": "MD", "postal_code": "MD-4911", "place_name": "Clococenii Vechi", "latitude": "47.7164", "longitude": "27.4158"}, {"country_code": "MD", "postal_code": "MD-4911", "place_name": "Lipovat", "latitude": "47.7275", "longitude": "27.3719"}, {"country_code": "MD", "postal_code": "MD-4912", "place_name": "Tomestii Vechi", "latitude": "47.6567", "longitude": "27.3422"}, {"country_code": "MD", "postal_code": "MD-4912", "place_name": "Cot", "latitude": "47.6536", "longitude": "27.34"}, {"country_code": "MD", "postal_code": "MD-4912", "place_name": "Serghieni", "latitude": "47.6467", "longitude": "27.3522"}, {"country_code": "MD", "postal_code": "MD-4912", "place_name": "Bisericani", "latitude": "47.6414", "longitude": "27.3289"}, {"country_code": "MD", "postal_code": "MD-4913", "place_name": "Butesti", "latitude": "47.7953", "longitude": "27.3333"}, {"country_code": "MD", "postal_code": "MD-4913", "place_name": "Molesti", "latitude": "47.8008", "longitude": "27.3486"}, {"country_code": "MD", "postal_code": "MD-4914", "place_name": "Cajba", "latitude": "47.7281", "longitude": "27.4397"}, {"country_code": "MD", "postal_code": "MD-4915", "place_name": "Camenca", "latitude": "47.8278", "longitude": "27.3642"}, {"country_code": "MD", "postal_code": "MD-4915", "place_name": "Brinzeni", "latitude": "47.8142", "longitude": "27.3639"}, {"country_code": "MD", "postal_code": "MD-4916", "place_name": "Ciuciulea", "latitude": "47.6578", "longitude": "27.4839"}, {"country_code": "MD", "postal_code": "MD-4918", "place_name": "Cobani", "latitude": "47.7661", "longitude": "27.3208"}, {"country_code": "MD", "postal_code": "MD-4919", "place_name": "Cuhnesti", "latitude": "47.6558", "longitude": "27.3744"}, {"country_code": "MD", "postal_code": "MD-4920", "place_name": "Danu", "latitude": "47.8306", "longitude": "27.4961"}, {"country_code": "MD", "postal_code": "MD-4920", "place_name": "Camencuta", "latitude": "47.8386", "longitude": "27.4458"}, {"country_code": "MD", "postal_code": "MD-4921", "place_name": "Dusmani", "latitude": "47.7169", "longitude": "27.4814"}, {"country_code": "MD", "postal_code": "MD-4922", "place_name": "Fundurii Noi", "latitude": "47.7536", "longitude": "27.6569"}, {"country_code": "MD", "postal_code": "MD-4923", "place_name": "Fundurii Vechi", "latitude": "47.7411", "longitude": "27.7144"}, {"country_code": "MD", "postal_code": "MD-4924", "place_name": "Hijdieni", "latitude": "47.7697", "longitude": "27.4603"}, {"country_code": "MD", "postal_code": "MD-4925", "place_name": "Iabloana", "latitude": "47.8061", "longitude": "27.6239"}, {"country_code": "MD", "postal_code": "MD-4926", "place_name": "Limbenii Noi", "latitude": "47.7239", "longitude": "27.6289"}, {"country_code": "MD", "postal_code": "MD-4927", "place_name": "Limbenii Vechi", "latitude": "47.6892", "longitude": "27.6103"}, {"country_code": "MD", "postal_code": "MD-4928", "place_name": "Nicolaevca", "latitude": "47.8231", "longitude": "27.5536"}, {"country_code": "MD", "postal_code": "MD-4929", "place_name": "Petrunea", "latitude": "47.7475", "longitude": "27.5797"}, {"country_code": "MD", "postal_code": "MD-4930", "place_name": "Sadovoe", "latitude": "47.7764", "longitude": "27.7961"}, {"country_code": "MD", "postal_code": "MD-4931", "place_name": "Sturzovca", "latitude": "47.8017", "longitude": "27.7189"}, {"country_code": "MD", "postal_code": "MD-4932", "place_name": "Ustia", "latitude": "47.6619", "longitude": "27.595"}, {"country_code": "MD", "postal_code": "MD-4933", "place_name": "Viisoara", "latitude": "47.6158", "longitude": "27.4478"}, {"country_code": "MD", "postal_code": "MD-4933", "place_name": "Moara Domneasca", "latitude": "47.6228", "longitude": "27.4167"}, {"country_code": "MD", "postal_code": "MD-4934", "place_name": "Tomestii Noi", "latitude": "47.6667", "longitude": "27.35"}, {"country_code": "MD", "postal_code": "MD-5001", "place_name": "Floresti 1", "latitude": "47.8933", "longitude": "28.3014"}, {"country_code": "MD", "postal_code": "MD-5002", "place_name": "Floresti 2", "latitude": "47.8933", "longitude": "28.3014"}, {"country_code": "MD", "postal_code": "MD-5007", "place_name": "Lunga", "latitude": "47.8583", "longitude": "28.2197"}, {"country_code": "MD", "postal_code": "MD-5008", "place_name": "Marculesti(Oras)", "latitude": "47.8686", "longitude": "28.2475"}, {"country_code": "MD", "postal_code": "MD-5011", "place_name": "Radulenii Noi", "latitude": "47.9567", "longitude": "28.2464"}, {"country_code": "MD", "postal_code": "MD-5011", "place_name": "Alexeevca", "latitude": "47.9439", "longitude": "28.2858"}, {"country_code": "MD", "postal_code": "MD-5012", "place_name": "Bahrinesti", "latitude": "47.8564", "longitude": "28.2422"}, {"country_code": "MD", "postal_code": "MD-5013", "place_name": "Casunca", "latitude": "47.785", "longitude": "28.3942"}, {"country_code": "MD", "postal_code": "MD-5014", "place_name": "Cernita", "latitude": "47.9658", "longitude": "28.4669"}, {"country_code": "MD", "postal_code": "MD-5015", "place_name": "Ciripcau", "latitude": "47.9839", "longitude": "28.3822"}, {"country_code": "MD", "postal_code": "MD-5016", "place_name": "Ciutulesti", "latitude": "47.7614", "longitude": "28.3956"}, {"country_code": "MD", "postal_code": "MD-5016", "place_name": "Marinesti", "latitude": "47.7314", "longitude": "28.3839"}, {"country_code": "MD", "postal_code": "MD-5017", "place_name": "Cosernita", "latitude": "47.9381", "longitude": "28.4644"}, {"country_code": "MD", "postal_code": "MD-5018", "place_name": "Domulgeni", "latitude": "47.7936", "longitude": "28.4339"},