[{"country_code": "CL", "postal_code": "2340000", "place_name": "Valpara\u00edso", "latitude": "-33.1298", "longitude": "-71.5735"}, {"country_code": "CL", "postal_code": "2480000", "place_name": "Casablanca", "latitude": "-33.3158", "longitude": "-71.4353"}, {"country_code": "CL", "postal_code": "2490000", "place_name": "Quintero", "latitude": "-32.843", "longitude": "-71.4738"}, {"country_code": "CL", "postal_code": "2500000", "place_name": "Puchuncav\u00ed", "latitude": "-32.7176", "longitude": "-71.4111"}, {"country_code": "CL", "postal_code": "2510000", "place_name": "Conc\u00f3n", "latitude": "-32.9534", "longitude": "-71.4678"}, {"country_code": "CL", "postal_code": "2520000", "place_name": "Vi\u00f1a Del Mar", "latitude": "-33.0288", "longitude": "-71.5159"}, {"country_code": "CL", "postal_code": "2600000", "place_name": "Juan Fern\u00e1ndez", "latitude": "-33.6387", "longitude": "-78.8583"}, {"country_code": "CL", "postal_code": "2770000", "place_name": "Isla De Pascua", "latitude": "-27.1288", "longitude": "-109.36"}, {"country_code": "CL", "postal_code": "2100000", "place_name": "Los Andes", "latitude": "-32.9503", "longitude": "-70.2398"}, {"country_code": "CL", "postal_code": "2120000", "place_name": "San Esteban", "latitude": "-32.6859", "longitude": "-70.3484"}, {"country_code": "CL", "postal_code": "2130000", "place_name": "Calle Larga", "latitude": "-32.9504", "longitude": "-70.545"}, {"country_code": "CL", "postal_code": "2140000", "place_name": "Rinconada", "latitude": "-32.876", "longitude": "-70.7068"}, {"country_code": "CL", "postal_code": "2030000", "place_name": "La Ligua", "latitude": "-32.3537", "longitude": "-71.2721"}, {"country_code": "CL", "postal_code": "2040000", "place_name": "Petorca", "latitude": "-32.1903", "longitude": "-70.8704"}, {"country_code": "CL", "postal_code": "2050000", "place_name": "Cabildo", "latitude": "-32.4174", "longitude": "-70.8243"}, {"country_code": "CL", "postal_code": "2060000", "place_name": "Zapallar", "latitude": "-32.5549", "longitude": "-71.4547"}, {"country_code": "CL", "postal_code": "2070000", "place_name": "Papudo", "latitude": "-32.5075", "longitude": "-71.4431"}, {"country_code": "CL", "postal_code": "2260000", "place_name": "Quillota", "latitude": "-32.9046", "longitude": "-71.273"}, {"country_code": "CL", "postal_code": "2280000", "place_name": "La Cruz", "latitude": "-32.8251", "longitude": "-71.2413"}, {"country_code": "CL", "postal_code": "2290000", "place_name": "Calera", "latitude": "-32.8077", "longitude": "-71.1881"}, {"country_code": "CL", "postal_code": "2300000", "place_name": "Nogales", "latitude": "-32.6915", "longitude": "-71.1768"}, {"country_code": "CL", "postal_code": "2310000", "place_name": "Hijuelas", "latitude": "-32.8693", "longitude": "-71.0816"}, {"country_code": "CL", "postal_code": "2660000", "place_name": "San Antonio", "latitude": "-33.571", "longitude": "-71.6096"}, {"country_code": "CL", "postal_code": "2680000", "place_name": "Cartagena", "latitude": "-33.5338", "longitude": "-71.4424"}, {"country_code": "CL", "postal_code": "2690000", "place_name": "El Tabo", "latitude": "-33.4586", "longitude": "-71.6619"}, {"country_code": "CL", "postal_code": "2700000", "place_name": "El Quisco", "latitude": "-33.4161", "longitude": "-71.6512"}, {"country_code": "CL", "postal_code": "2710000", "place_name": "Algarrobo", "latitude": "-33.33", "longitude": "-71.6005"}, {"country_code": "CL", "postal_code": "2720000", "place_name": "Santo Domingo", "latitude": "-33.8093", "longitude": "-71.6766"}, {"country_code": "CL", "postal_code": "2170000", "place_name": "San Felipe", "latitude": "-32.7364", "longitude": "-70.7537"}, {"country_code": "CL", "postal_code": "2190000", "place_name": "Putaendo", "latitude": "-32.4808", "longitude": "-70.5214"}, {"country_code": "CL", "postal_code": "2200000", "place_name": "Santa Mar\u00eda", "latitude": "-32.6855", "longitude": "-70.6103"}, {"country_code": "CL", "postal_code": "2210000", "place_name": "Panquehue", "latitude": "-32.7938", "longitude": "-70.829"}, {"country_code": "CL", "postal_code": "2220000", "place_name": "Llaillay", "latitude": "-32.8879", "longitude": "-70.9024"}, {"country_code": "CL", "postal_code": "2230000", "place_name": "Catemu", "latitude": "-32.7073", "longitude": "-70.9452"}, {"country_code": "CL", "postal_code": "2240000", "place_name": "Limache", "latitude": "-33.0309", "longitude": "-71.2793"}, {"country_code": "CL", "postal_code": "2330000", "place_name": "Olmu\u00e9", "latitude": "-33.0358", "longitude": "-71.1107"}, {"country_code": "CL", "postal_code": "2430000", "place_name": "Quilpue", "latitude": "-33.1473", "longitude": "-71.2543"}, {"country_code": "CL", "postal_code": "6500000", "place_name": "Villa Alemana", "latitude": "-33.0679", "longitude": "-71.3305"}, {"country_code": "CL", "postal_code": "5950000", "place_name": "Coyhaique", "latitude": "-45.5539", "longitude": "-71.9913"}, {"country_code": "CL", "postal_code": "5960000", "place_name": "Lago Verde", "latitude": "-44.4923", "longitude": "-71.8323"}, {"country_code": "CL", "postal_code": "6000000", "place_name": "Ays\u00e9n", "latitude": "-45.9887", "longitude": "-73.7735"}, {"country_code": "CL", "postal_code": "6010000", "place_name": "Cisnes", "latitude": "-44.4577", "longitude": "-73.1374"}, {"country_code": "CL", "postal_code": "6020000", "place_name": "Guaitecas", "latitude": "-43.8665", "longitude": "-74.0516"}, {"country_code": "CL", "postal_code": "6100000", "place_name": "Cochrane", "latitude": "-47.3601", "longitude": "-72.7418"}, {"country_code": "CL", "postal_code": "6110000", "place_name": "O\u2019Higgins", "latitude": "-48.4862", "longitude": "-72.9106"}, {"country_code": "CL", "postal_code": "6120000", "place_name": "Tortel", "latitude": "-48.0271", "longitude": "-74.1592"}, {"country_code": "CL", "postal_code": "6050000", "place_name": "Chile Chico", "latitude": "-46.7668", "longitude": "-72.5847"}, {"country_code": "CL", "postal_code": "6060000", "place_name": "R\u00edo Ibanez", "latitude": "-46.2993", "longitude": "-72.4866"}, {"country_code": "CL", "postal_code": "1240000", "place_name": "Antofagasta", "latitude": "-24.2739", "longitude": "-69.4097"}, {"country_code": "CL", "postal_code": "1300000", "place_name": "Taltal", "latitude": "-25.3136", "longitude": "-69.8657"}, {"country_code": "CL", "postal_code": "1310000", "place_name": "Mejillones", "latitude": "-22.936", "longitude": "-70.1986"}, {"country_code": "CL", "postal_code": "1320000", "place_name": "Sierra Gorda", "latitude": "-23.2542", "longitude": "-69.3072"}, {"country_code": "CL", "postal_code": "1390000", "place_name": "Calama", "latitude": "-22.1639", "longitude": "-68.6295"}, {"country_code": "CL", "postal_code": "1410000", "place_name": "San Pedro De Atacama", "latitude": "-23.4011", "longitude": "-67.9111"}, {"country_code": "CL", "postal_code": "1420000", "place_name": "Ollague", "latitude": "-21.4566", "longitude": "-68.3134"}, {"country_code": "CL", "postal_code": "1340000", "place_name": "Tocopilla", "latitude": "-22.002", "longitude": "-70.0146"}, {"country_code": "CL", "postal_code": "1360000", "place_name": "Mar\u00eda Elena", "latitude": "-22.0904", "longitude": "-69.4613"}, {"country_code": "CL", "postal_code": "4780000", "place_name": "Temuco", "latitude": "-38.6731", "longitude": "-72.6633"}, {"country_code": "CL", "postal_code": "4850000", "place_name": "Padre Las Casas", "latitude": "-38.792", "longitude": "-72.5792"}, {"country_code": "CL", "postal_code": "4860000", "place_name": "Lautaro", "latitude": "-38.5432", "longitude": "-72.2894"}, {"country_code": "CL", "postal_code": "4870000", "place_name": "Perquenco", "latitude": "-38.4283", "longitude": "-72.4365"}, {"country_code": "CL", "postal_code": "4880000", "place_name": "Vilc\u00fan", "latitude": "-38.7047", "longitude": "-72.1136"}, {"country_code": "CL", "postal_code": "4890000", "place_name": "Cunco", "latitude": "-38.977", "longitude": "-71.9917"}, {"country_code": "CL", "postal_code": "4900000", "place_name": "Melipeuco", "latitude": "-38.8248", "longitude": "-71.611"}, {"country_code": "CL", "postal_code": "4910000", "place_name": "Curarrehue", "latitude": "-39.3358", "longitude": "-71.5393"}, {"country_code": "CL", "postal_code": "4920000", "place_name": "Puc\u00f3n", "latitude": "-39.2702", "longitude": "-71.7905"}, {"country_code": "CL", "postal_code": "4930000", "place_name": "Villarrica", "latitude": "-39.3009", "longitude": "-72.1822"}, {"country_code": "CL", "postal_code": "4940000", "place_name": "Freire", "latitude": "-38.9496", "longitude": "-72.5758"}, {"country_code": "CL", "postal_code": "4950000", "place_name": "Pitrufqu\u00e9n", "latitude": "-39.105", "longitude": "-72.9019"}, {"country_code": "CL", "postal_code": "4960000", "place_name": "Gorbea", "latitude": "-39.1717", "longitude": "-72.6692"}, {"country_code": "CL", "postal_code": "4970000", "place_name": "Loncoche", "latitude": "-39.3561", "longitude": "-72.5825"}, {"country_code": "CL", "postal_code": "4980000", "place_name": "Tolt\u00e9n", "latitude": "-39.2121", "longitude": "-73.0784"}, {"country_code": "CL", "postal_code": "4990000", "place_name": "Teodoro Schmidt", "latitude": "-38.9848", "longitude": "-73.1147"}, {"country_code": "CL", "postal_code": "5000000", "place_name": "Saavedra", "latitude": "-38.8325", "longitude": "-73.2955"}, {"country_code": "CL", "postal_code": "5010000", "place_name": "Carahue", "latitude": "-38.6109", "longitude": "-73.2698"}, {"country_code": "CL", "postal_code": "5020000", "place_name": "Nueva Imperial", "latitude": "-38.7509", "longitude": "-72.9725"}, {"country_code": "CL", "postal_code": "5030000", "place_name": "Galvarino", "latitude": "-38.4479", "longitude": "-72.7912"}, {"country_code": "CL", "postal_code": "5040000", "place_name": "Chol Chol", "latitude": "-38.5832", "longitude": "-72.9019"}, {"country_code": "CL", "postal_code": "4650000", "place_name": "Angol", "latitude": "-37.769", "longitude": "-72.7954"}, {"country_code": "CL", "postal_code": "4670000", "place_name": "Renaico", "latitude": "-37.7178", "longitude": "-72.5757"}, {"country_code": "CL", "postal_code": "4680000", "place_name": "Collipulli", "latitude": "-38.0318", "longitude": "-72.1152"}, {"country_code": "CL", "postal_code": "4690000", "place_name": "Lonquimay", "latitude": "-38.4747", "longitude": "-71.2392"}, {"country_code": "CL", "postal_code": "4700000", "place_name": "Curacaut\u00edn", "latitude": "-38.4326", "longitude": "-71.7711"}, {"country_code": "CL", "postal_code": "4710000", "place_name": "Ercilla", "latitude": "-38.0828", "longitude": "-72.3535"}, {"country_code": "CL", "postal_code": "4720000", "place_name": "Victoria", "latitude": "-38.2805", "longitude": "-72.234"}, {"country_code": "CL", "postal_code": "4730000", "place_name": "Traigu\u00e9n", "latitude": "-38.2471", "longitude": "-72.6551"}, {"country_code": "CL", "postal_code": "4740000", "place_name": "Lumaco", "latitude": "-38.2871", "longitude": "-73.0459"}, {"country_code": "CL", "postal_code": "4750000", "place_name": "Pur\u00e9n", "latitude": "-38.0121", "longitude": "-73.0504"}, {"country_code": "CL", "postal_code": "4760000", "place_name": "Los Sauces", "latitude": "-37.9831", "longitude": "-72.7968"}, {"country_code": "CL", "postal_code": "1530000", "place_name": "Copiap\u00f3", "latitude": "-27.3202", "longitude": "-69.8277"}, {"country_code": "CL", "postal_code": "1570000", "place_name": "Caldera", "latitude": "-27.1423", "longitude": "-70.6837"}, {"country_code": "CL", "postal_code": "1580000", "place_name": "Tierra Amarilla", "latitude": "-27.8657", "longitude": "-69.672"}, {"country_code": "CL", "postal_code": "1490000", "place_name": "Cha\u00f1aral", "latitude": "-26.3737", "longitude": "-70.3383"}, {"country_code": "CL", "postal_code": "1500000", "place_name": "Diego De Almagro", "latitude": "-26.2373", "longitude": "-69.1873"}, {"country_code": "CL", "postal_code": "1610000", "place_name": "Vallenar", "latitude": "-28.5948", "longitude": "-70.6025"}, {"country_code": "CL", "postal_code": "1630000", "place_name": "Freirina", "latitude": "-28.8442", "longitude": "-71.1954"}, {"country_code": "CL", "postal_code": "1640000", "place_name": "Huasco", "latitude": "-28.2584", "longitude": "-71.0178"}, {"country_code": "CL", "postal_code": "1650000", "place_name": "Alto Del Carmen", "latitude": "-28.9936", "longitude": "-70.153"}, {"country_code": "CL", "postal_code": "4030000", "place_name": "Concepci\u00f3n", "latitude": "-36.82", "longitude": "-73.0445"}, {"country_code": "CL", "postal_code": "4100000", "place_name": "Chiguayante", "latitude": "-36.9008", "longitude": "-73.005"}, {"country_code": "CL", "postal_code": "4130000", "place_name": "San Pedro De La Paz", "latitude": "-36.8408", "longitude": "-73.1031"}, {"country_code": "CL", "postal_code": "4150000", "place_name": "Penco", "latitude": "-36.7484", "longitude": "-72.9437"}, {"country_code": "CL", "postal_code": "4160000", "place_name": "Tom\u00e9", "latitude": "-36.6171", "longitude": "-72.858"}, {"country_code": "CL", "postal_code": "4170000", "place_name": "Florida", "latitude": "-36.8224", "longitude": "-72.7177"}, {"country_code": "CL", "postal_code": "4180000", "place_name": "Hualqui", "latitude": "-37.0447", "longitude": "-72.8704"}, {"country_code": "CL", "postal_code": "4190000", "place_name": "Coronel", "latitude": "-37.007", "longitude": "-73.1252"}, {"country_code": "CL", "postal_code": "4210000", "place_name": "Lota", "latitude": "-37.1195", "longitude": "-73.1049"}, {"country_code": "CL", "postal_code": "4230000", "place_name": "Santa Juana", "latitude": "-37.2764", "longitude": "-72.9598"}, {"country_code": "CL", "postal_code": "4260000", "place_name": "Talcahuano", "latitude": "-36.7434", "longitude": "-73.0982"}, {"country_code": "CL", "postal_code": "4600000", "place_name": "Hualp\u00e9n", "latitude": "-36.7869", "longitude": "-73.1052"}, {"country_code": "CL", "postal_code": "4350000", "place_name": "Lebu", "latitude": "-37.6778", "longitude": "-73.5906"}, {"country_code": "CL", "postal_code": "4360000", "place_name": "Arauco", "latitude": "-37.2886", "longitude": "-73.3994"}, {"country_code": "CL", "postal_code": "4370000", "place_name": "Curanilahue", "latitude": "-37.483", "longitude": "-73.2351"}, {"country_code": "CL", "postal_code": "4380000", "place_name": "Los Alamos", "latitude": "-37.6736", "longitude": "-73.3569"}, {"country_code": "CL", "postal_code": "4390000", "place_name": "Canete", "latitude": "-37.8741", "longitude": "-73.3177"}, {"country_code": "CL", "postal_code": "4400000", "place_name": "Contulmo", "latitude": "-38.0527", "longitude": "-73.2124"}, {"country_code": "CL", "postal_code": "4410000", "place_name": "Tirua", "latitude": "-38.2975", "longitude": "-73.3957"}, {"country_code": "CL", "postal_code": "4440000", "place_name": "Los Angeles", "latitude": "-37.4079", "longitude": "-72.3277"}, {"country_code": "CL", "postal_code": "4470000", "place_name": "Cabrero", "latitude": "-37.0621", "longitude": "-72.3814"}, {"country_code": "CL", "postal_code": "4480000", "place_name": "Tucapel", "latitude": "-37.2253", "longitude": "-71.7455"}, {"country_code": "CL", "postal_code": "4490000", "place_name": "Antuco", "latitude": "-37.3277", "longitude": "-71.3666"}, {"country_code": "CL", "postal_code": "4500000", "place_name": "Quilleco", "latitude": "-37.4368", "longitude": "-71.8614"}, {"country_code": "CL", "postal_code": "4510000", "place_name": "Santa B\u00e1rbara", "latitude": "-37.623", "longitude": "-71.7492"}, {"country_code": "CL", "postal_code": "4520000", "place_name": "Quilaco", "latitude": "-37.982", "longitude": "-71.5973"}, {"country_code": "CL", "postal_code": "4530000", "place_name": "Mulch\u00e9n", "latitude": "-37.8384", "longitude": "-72.0972"}, {"country_code": "CL", "postal_code": "4540000", "place_name": "Negrete", "latitude": "-37.6083", "longitude": "-72.5766"}, {"country_code": "CL", "postal_code": "4550000", "place_name": "Nacimiento", "latitude": "-37.4856", "longitude": "-72.8236"}, {"country_code": "CL", "postal_code": "4560000", "place_name": "Laja", "latitude": "-37.3125", "longitude": "-72.5825"}, {"country_code": "CL", "postal_code": "4570000", "place_name": "San Rosendo", "latitude": "-37.213", "longitude": "-72.7211"}, {"country_code": "CL", "postal_code": "4580000", "place_name": "Yumbel", "latitude": "-37.0884", "longitude": "-72.616"}, {"country_code": "CL", "postal_code": "4590000", "place_name": "Alto Biob\u00edo", "latitude": "-37.8654", "longitude": "-71.3474"}, {"country_code": "CL", "postal_code": "3780000", "place_name": "Chill\u00e1n", "latitude": "-36.6288", "longitude": "-72.0496"}, {"country_code": "CL", "postal_code": "3820000", "place_name": "Chill\u00e1n Viejo", "latitude": "-36.6803", "longitude": "-72.199"}, {"country_code": "CL", "postal_code": "3840000", "place_name": "San Carlos", "latitude": "-36.3856", "longitude": "-72.0186"}, {"country_code": "CL", "postal_code": "3850000", "place_name": "Niqu\u00e9n", "latitude": "-36.3024", "longitude": "-71.8974"}, {"country_code": "CL", "postal_code": "3860000", "place_name": "San Fabi\u00e1n", "latitude": "-36.5799", "longitude": "-71.2874"}, {"country_code": "CL", "postal_code": "3870000", "place_name": "Coihueco", "latitude": "-36.7021", "longitude": "-71.5811"}, {"country_code": "CL", "postal_code": "3880000", "place_name": "Pinto", "latitude": "-36.9214", "longitude": "-71.4994"}, {"country_code": "CL", "postal_code": "3890000", "place_name": "San Ignacio", "latitude": "-36.8225", "longitude": "-72.0298"}, {"country_code": "CL", "postal_code": "3900000", "place_name": "El Carmen", "latitude": "-36.9251", "longitude": "-71.8469"}, {"country_code": "CL", "postal_code": "3910000", "place_name": "Pemuco", "latitude": "-36.9829", "longitude": "-72.0675"}, {"country_code": "CL", "postal_code": "3920000", "place_name": "Yungay", "latitude": "-37.1044", "longitude": "-71.9308"}, {"country_code": "CL", "postal_code": "3930000", "place_name": "Bulnes", "latitude": "-36.7905", "longitude": "-72.2901"}, {"country_code": "CL", "postal_code": "3940000", "place_name": "Quill\u00f3n", "latitude": "-36.8186", "longitude": "-72.5017"}, {"country_code": "CL", "postal_code": "3950000", "place_name": "Ranquil", "latitude": "-36.6406", "longitude": "-72.5878"}, {"country_code": "CL", "postal_code": "3960000", "place_name": "Portezuelo", "latitude": "-36.5464", "longitude": "-72.4665"}, {"country_code": "CL", "postal_code": "3970000", "place_name": "Coelemu", "latitude": "-36.5051", "longitude": "-72.7503"}, {"country_code": "CL", "postal_code": "3980000", "place_name": "Treguaco", "latitude": "-36.4281", "longitude": "-72.6595"}, {"country_code": "CL", "postal_code": "3990000", "place_name": "Cobquecura", "latitude": "-36.1811", "longitude": "-72.721"}, {"country_code": "CL", "postal_code": "4000000", "place_name": "Quirihue", "latitude": "-36.2819", "longitude": "-72.5441"}, {"country_code": "CL", "postal_code": "4010000", "place_name": "Ninhue", "latitude": "-36.3568", "longitude": "-72.4097"}, {"country_code": "CL", "postal_code": "4020000", "place_name": "San Nicol\u00e1s", "latitude": "-36.4798", "longitude": "-72.2282"}, {"country_code": "CL", "postal_code": "1700000", "place_name": "La Serena", "latitude": "-29.7892", "longitude": "-71.0612"}, {"country_code": "CL", "postal_code": "1740000", "place_name": "La Higuera", "latitude": "-29.3749", "longitude": "-70.9014"}, {"country_code": "CL", "postal_code": "1750000", "place_name": "Andacollo", "latitude": "-30.2606", "longitude": "-71.1005"}, {"country_code": "CL", "postal_code": "1760000", "place_name": "Vicu\u00f1a", "latitude": "-29.892", "longitude": "-70.3827"}, {"country_code": "CL", "postal_code": "1770000", "place_name": "Paiguano", "latitude": "-30.2384", "longitude": "-70.3707"}, {"country_code": "CL", "postal_code": "1780000", "place_name": "Coquimbo", "latitude": "-30.2288", "longitude": "-71.3598"}, {"country_code": "CL", "postal_code": "1930000", "place_name": "Illapel", "latitude": "-31.5493", "longitude": "-70.9706"}, {"country_code": "CL", "postal_code": "1940000", "place_name": "Los Vilos", "latitude": "-31.9778", "longitude": "-71.3041"}, {"country_code": "CL", "postal_code": "1950000", "place_name": "Salamanca", "latitude": "-31.8931", "longitude": "-70.6608"}, {"country_code": "CL", "postal_code": "1960000", "place_name": "Canela", "latitude": "-31.4019", "longitude": "-71.3944"}, {"country_code": "CL", "postal_code": "1840000", "place_name": "Ovalle", "latitude": "-30.674", "longitude": "-71.4062"}, {"country_code": "CL", "postal_code": "1870000", "place_name": "R\u00edo Hurtado", "latitude": "-30.2667", "longitude": "-70.6667"}, {"country_code": "CL", "postal_code": "1880000", "place_name": "Monte Patria", "latitude": "-30.8352", "longitude": "-70.6509"}, {"country_code": "CL", "postal_code": "1890000", "place_name": "Combarbal\u00e1", "latitude": "-31.1469", "longitude": "-70.9657"}, {"country_code": "CL", "postal_code": "1900000", "place_name": "Punitaqui", "latitude": "-30.9464", "longitude": "-71.3331"}, {"country_code": "CL", "postal_code": "2820000", "place_name": "Rancagua", "latitude": "-34.1261", "longitude": "-70.8166"}, {"country_code": "CL", "postal_code": "2880000", "place_name": "Graneros", "latitude": "-34.0657", "longitude": "-70.747"}, {"country_code": "CL", "postal_code": "2890000", "place_name": "Mostazal", "latitude": "-33.956", "longitude": "-70.5694"}, {"country_code": "CL", "postal_code": "2900000", "place_name": "Codegua", "latitude": "-34.0574", "longitude": "-70.5471"}, {"country_code": "CL", "postal_code": "2910000", "place_name": "Machal\u00ed", "latitude": "-34.3207", "longitude": "-70.3196"}, {"country_code": "CL", "postal_code": "2920000", "place_name": "Olivar", "latitude": "-34.2116", "longitude": "-70.8201"}, {"country_code": "CL", "postal_code": "2930000", "place_name": "Requinoa", "latitude": "-34.335", "longitude": "-70.6591"}, {"country_code": "CL", "postal_code": "2940000", "place_name": "Rengo", "latitude": "-34.4547", "longitude": "-70.7185"}, {"country_code": "CL", "postal_code": "2950000", "place_name": "Malloa", "latitude": "-34.4762", "longitude": "-70.8734"}, {"country_code": "CL", "postal_code": "2960000", "place_name": "Quinta De Tilcoco", "latitude": "-34.3592", "longitude": "-70.9982"}, {"country_code": "CL", "postal_code": "2970000", "place_name": "San Vicente", "latitude": "-34.4778", "longitude": "-71.1233"}, {"country_code": "CL", "postal_code": "2980000", "place_name": "Pichidegua", "latitude": "-34.3712", "longitude": "-71.3394"}, {"country_code": "CL", "postal_code": "2990000", "place_name": "Peumo", "latitude": "-34.3294", "longitude": "-71.2219"}, {"country_code": "CL", "postal_code": "3000000", "place_name": "Coltauco", "latitude": "-34.26", "longitude": "-71.0779"}, {"country_code": "CL", "postal_code": "3010000", "place_name": "Coinco", "latitude": "-34.2822", "longitude": "-70.9711"}, {"country_code": "CL", "postal_code": "3020000", "place_name": "Do\u00f1ihue", "latitude": "-34.197", "longitude": "-70.9236"}, {"country_code": "CL", "postal_code": "3030000", "place_name": "Las Cabras", "latitude": "-34.165", "longitude": "-71.3327"}, {"country_code": "CL", "postal_code": "3220000", "place_name": "Pichilemu", "latitude": "-34.3841", "longitude": "-71.9106"}, {"country_code": "CL", "postal_code": "3230000", "place_name": "Navidad", "latitude": "-34.0123", "longitude": "-71.8203"}, {"country_code": "CL", "postal_code": "3240000", "place_name": "Litueche", "latitude": "-34.1074", "longitude": "-71.7336"}, {"country_code": "CL", "postal_code": "3250000", "place_name": "La Estrella", "latitude": "-34.2233", "longitude": "-71.6026"}, {"country_code": "CL", "postal_code": "3260000", "place_name": "Marchihue", "latitude": "-34.3727", "longitude": "-71.6716"}, {"country_code": "CL", "postal_code": "3270000", "place_name": "Paredones", "latitude": "-34.6733", "longitude": "-71.9112"}, {"country_code": "CL", "postal_code": "3070000", "place_name": "San Fernando", "latitude": "-34.7433", "longitude": "-70.6033"}, {"country_code": "CL", "postal_code": "3090000", "place_name": "Chimbarongo", "latitude": "-34.7517", "longitude": "-70.9811"}, {"country_code": "CL", "postal_code": "3100000", "place_name": "Placilla", "latitude": "-34.6192", "longitude": "-71.0862"}, {"country_code": "CL", "postal_code": "3110000", "place_name": "Nancagua", "latitude": "-34.6678", "longitude": "-71.1919"}, {"country_code": "CL", "postal_code": "3120000", "place_name": "Ch\u00e9pica", "latitude": "-34.7913", "longitude": "-71.3593"}, {"country_code": "CL", "postal_code": "3130000", "place_name": "Santa Cruz", "latitude": "-34.6432", "longitude": "-71.4025"}, {"country_code": "CL", "postal_code": "3140000", "place_name": "Lolol", "latitude": "-34.7684", "longitude": "-71.6484"}, {"country_code": "CL", "postal_code": "3150000", "place_name": "Pumanque", "latitude": "-34.5962", "longitude": "-71.6915"}, {"country_code": "CL", "postal_code": "3160000", "place_name": "Palmilla", "latitude": "-34.5282", "longitude": "-71.3529"}, {"country_code": "CL", "postal_code": "3170000", "place_name": "Peralillo", "latitude": "-34.4662", "longitude": "-71.4967"}, {"country_code": "CL", "postal_code": "6200000", "place_name": "Punta Arenas", "latitude": "-53.6415", "longitude": "-72.0385"}, {"country_code": "CL", "postal_code": "6240000", "place_name": "R\u00edo Verde", "latitude": "-52.8467", "longitude": "-72.4633"}, {"country_code": "CL", "postal_code": "6250000", "place_name": "Laguna Blanca", "latitude": "-52.3294", "longitude": "-71.2398"}, {"country_code": "CL", "postal_code": "6260000", "place_name": "San Gregorio", "latitude": "-52.3223", "longitude": "-70.2272"}, {"country_code": "CL", "postal_code": "6350000", "place_name": "Cabo De Hornos", "latitude": "-55.0225", "longitude": "-69.2283"}, {"country_code": "CL", "postal_code": "6360000", "place_name": "Ant\u00e1rtica", "latitude": "-75.0009", "longitude": "-71.5931"}, {"country_code": "CL", "postal_code": "6300000", "place_name": "Porvenir", "latitude": "-53.304", "longitude": "-69.3928"}, {"country_code": "CL", "postal_code": "6310000", "place_name": "Primavera", "latitude": "-52.8202", "longitude": "-69.3335"}, {"country_code": "CL", "postal_code": "6320000", "place_name": "Timaukel", "latitude": "-54.195", "longitude": "-69.5323"}, {"country_code": "CL", "postal_code": "6160000", "place_name": "Natales", "latitude": "-50.6742", "longitude": "-73.9259"}, {"country_code": "CL", "postal_code": "6170000", "place_name": "Torres Del Paine", "latitude": "-51.0503", "longitude": "-72.8295"}, {"country_code": "CL", "postal_code": "3460000", "place_name": "Talca", "latitude": "-35.428", "longitude": "-71.6028"}, {"country_code": "CL", "postal_code": "3490000", "place_name": "San Rafael", "latitude": "-35.3019", "longitude": "-71.5011"}, {"country_code": "CL", "postal_code": "3500000", "place_name": "Pelarco", "latitude": "-35.3832", "longitude": "-71.3506"}, {"country_code": "CL", "postal_code": "3510000", "place_name": "R\u00edo Claro", "latitude": "-35.2609", "longitude": "-71.2695"}, {"country_code": "CL", "postal_code": "3520000", "place_name": "San Clemente", "latitude": "-35.7121", "longitude": "-70.8485"}, {"country_code": "CL", "postal_code": "3530000", "place_name": "Maule", "latitude": "-35.5085", "longitude": "-71.7126"}, {"country_code": "CL", "postal_code": "3540000", "place_name": "Empedrado", "latitude": "-35.6135", "longitude": "-72.2843"}, {"country_code": "CL", "postal_code": "3550000", "place_name": "Pencahue", "latitude": "-35.3277", "longitude": "-71.8171"}, {"country_code": "CL", "postal_code": "3560000", "place_name": "Constituci\u00f3n", "latitude": "-35.3631", "longitude": "-72.2762"}, {"country_code": "CL", "postal_code": "3570000", "place_name": "Curepto", "latitude": "-35.1297", "longitude": "-71.9533"}, {"country_code": "CL", "postal_code": "3690000", "place_name": "Cauquenes", "latitude": "-35.9713", "longitude": "-72.28"}, {"country_code": "CL", "postal_code": "3710000", "place_name": "Pelluhue", "latitude": "-35.9115", "longitude": "-72.6076"}, {"country_code": "CL", "postal_code": "3720000", "place_name": "Chanco", "latitude": "-35.6988", "longitude": "-72.4849"}, {"country_code": "CL", "postal_code": "3340000", "place_name": "Curic\u00f3", "latitude": "-35.1991", "longitude": "-70.8957"}, {"country_code": "CL", "postal_code": "3360000", "place_name": "Teno", "latitude": "-34.8879", "longitude": "-71.0224"}, {"country_code": "CL", "postal_code": "3370000", "place_name": "Romeral", "latitude": "-35.0683", "longitude": "-70.7112"}, {"country_code": "CL", "postal_code": "3380000", "place_name": "Molina", "latitude": "-35.3534", "longitude": "-70.9095"}, {"country_code": "CL", "postal_code": "3390000", "place_name": "Sagrada Familia", "latitude": "-35.1043", "longitude": "-71.4959"}, {"country_code": "CL", "postal_code": "3400000", "place_name": "Huala\u00f1\u00e9", "latitude": "-34.9525", "longitude": "-71.709"}, {"country_code": "CL", "postal_code": "3410000", "place_name": "Licant\u00e9n", "latitude": "-34.9743", "longitude": "-72.0604"}, {"country_code": "CL", "postal_code": "3420000", "place_name": "Vichuqu\u00e9n", "latitude": "-34.841", "longitude": "-72.0228"}, {"country_code": "CL", "postal_code": "3430000", "place_name": "Rauco", "latitude": "-34.9382", "longitude": "-71.4264"}, {"country_code": "CL", "postal_code": "3580000", "place_name": "Linares", "latitude": "-35.9581", "longitude": "-71.3321"}, {"country_code": "CL", "postal_code": "3600000", "place_name": "Yerbas Buenas", "latitude": "-35.6892", "longitude": "-71.5444"}, {"country_code": "CL", "postal_code": "3610000", "place_name": "Colb\u00fan", "latitude": "-36.0777", "longitude": "-70.9783"}, {"country_code": "CL", "postal_code": "3620000", "place_name": "Longav\u00ed", "latitude": "-36.1107", "longitude": "-71.4412"}, {"country_code": "CL", "postal_code": "3630000", "place_name": "Parral", "latitude": "-36.2623", "longitude": "-71.645"}, {"country_code": "CL", "postal_code": "3640000", "place_name": "Retiro", "latitude": "-36.0023", "longitude": "-71.8293"}, {"country_code": "CL", "postal_code": "3650000", "place_name": "Villa Alegre", "latitude": "-35.6853", "longitude": "-71.6829"}, {"country_code": "CL", "postal_code": "3660000", "place_name": "San Javier", "latitude": "-35.629", "longitude": "-71.9271"}, {"country_code": "CL", "postal_code": "7500000", "place_name": "Providencia", "latitude": "-33.4362", "longitude": "-70.609"}, {"country_code": "CL", "postal_code": "7550000", "place_name": "Las Condes", "latitude": "-33.4207", "longitude": "-70.5019"}, {"country_code": "CL", "postal_code": "7630000", "place_name": "Vitacura", "latitude": "-33.3799", "longitude": "-70.5724"}, {"country_code": "CL", "postal_code": "7690000", "place_name": "Lo Barnechea", "latitude": "-33.2991", "longitude": "-70.3687"}, {"country_code": "CL", "postal_code": "7750000", "place_name": "\u00d1u\u00f1oa", "latitude": "-33.4593", "longitude": "-70.6003"}, {"country_code": "CL", "postal_code": "7810000", "place_name": "Macul", "latitude": "-33.4902", "longitude": "-70.6011"}, {"country_code": "CL", "postal_code": "7850000", "place_name": "La Reina", "latitude": "-33.4486", "longitude": "-70.5358"}, {"country_code": "CL", "postal_code": "7910000", "place_name": "Penalol\u00e9n", "latitude": "-33.4862", "longitude": "-70.5249"}, {"country_code": "CL", "postal_code": "7970000", "place_name": "La Cisterna", "latitude": "-33.5302", "longitude": "-70.6641"}, {"country_code": "CL", "postal_code": "8010000", "place_name": "El Bosque", "latitude": "-33.5629", "longitude": "-70.6764"}, {"country_code": "CL", "postal_code": "8240000", "place_name": "La Florida", "latitude": "-33.5286", "longitude": "-70.5396"}, {"country_code": "CL", "postal_code": "8320000", "place_name": "Santiago", "latitude": "-33.4541", "longitude": "-70.656"}, {"country_code": "CL", "postal_code": "8380000", "place_name": "Independencia", "latitude": "-33.4151", "longitude": "-70.6657"}, {"country_code": "CL", "postal_code": "8420000", "place_name": "Recoleta", "latitude": "-33.4088", "longitude": "-70.6364"}, {"country_code": "CL", "postal_code": "8460000", "place_name": "Pedro Aguirre Cerda", "latitude": "-33.4919", "longitude": "-70.6762"}, {"country_code": "CL", "postal_code": "8500000", "place_name": "Quinta Normal", "latitude": "-33.4284", "longitude": "-70.7008"}, {"country_code": "CL", "postal_code": "8540000", "place_name": "Conchal\u00ed", "latitude": "-33.3837", "longitude": "-70.6774"}, {"country_code": "CL", "postal_code": "8580000", "place_name": "Huechuraba", "latitude": "-33.3603", "longitude": "-70.6375"}, {"country_code": "CL", "postal_code": "8640000", "place_name": "Renca", "latitude": "-33.4021", "longitude": "-70.7279"}, {"country_code": "CL", "postal_code": "8700000", "place_name": "Quilicura", "latitude": "-33.3554", "longitude": "-70.7361"}, {"country_code": "CL", "postal_code": "8780000", "place_name": "La Granja", "latitude": "-33.5354", "longitude": "-70.6223"}, {"country_code": "CL", "postal_code": "8820000", "place_name": "La Pintana", "latitude": "-33.5843", "longitude": "-70.6376"}, {"country_code": "CL", "postal_code": "8860000", "place_name": "San Ram\u00f3n", "latitude": "-33.5314", "longitude": "-70.6422"}, {"country_code": "CL", "postal_code": "8900000", "place_name": "San Miguel", "latitude": "-33.4991", "longitude": "-70.6517"}, {"country_code": "CL", "postal_code": "8940000", "place_name": "San Joaqu\u00edn", "latitude": "-33.4963", "longitude": "-70.6288"}, {"country_code": "CL", "postal_code": "8980000", "place_name": "Lo Prado", "latitude": "-33.4473", "longitude": "-70.7235"}, {"country_code": "CL", "postal_code": "9020000", "place_name": "Pudahuel", "latitude": "-33.424", "longitude": "-70.8549"}, {"country_code": "CL", "postal_code": "9080000", "place_name": "Cerro Navia", "latitude": "-33.4228", "longitude": "-70.745"}, {"country_code": "CL", "postal_code": "9120000", "place_name": "Lo Espejo", "latitude": "-33.5209", "longitude": "-70.6901"}, {"country_code": "CL", "postal_code": "9160000", "place_name": "Estaci\u00f3n Central", "latitude": "-33.4645", "longitude": "-70.6986"}, {"country_code": "CL", "postal_code": "9200000", "place_name": "Cerrillos", "latitude": "-33.5003", "longitude": "-70.7174"}, {"country_code": "CL", "postal_code": "9250000", "place_name": "Maipu", "latitude": "-33.5066", "longitude": "-70.8123"}, {"country_code": "CL", "postal_code": "8150000", "place_name": "Puente Alto", "latitude": "-33.591", "longitude": "-70.5575"}, {"country_code": "CL", "postal_code": "9460000", "place_name": "San Jose De Maipo", "latitude": "-33.7048", "longitude": "-70.0969"}, {"country_code": "CL", "postal_code": "9480000", "place_name": "Pirque", "latitude": "-33.7187", "longitude": "-70.5066"}, {"country_code": "CL", "postal_code": "9340000", "place_name": "Colina", "latitude": "-33.1342", "longitude": "-70.6157"}, {"country_code": "CL", "postal_code": "9380000", "place_name": "Lampa", "latitude": "-33.2778", "longitude": "-70.8748"}, {"country_code": "CL", "postal_code": "9420000", "place_name": "Tiltil", "latitude": "-33.0624", "longitude": "-70.876"}, {"country_code": "CL", "postal_code": "8050000", "place_name": "San Bernardo", "latitude": "-33.6289", "longitude": "-70.7243"}, {"country_code": "CL", "postal_code": "9500000", "place_name": "Buin", "latitude": "-33.7481", "longitude": "-70.7393"}, {"country_code": "CL", "postal_code": "9540000", "place_name": "Paine", "latitude": "-33.8637", "longitude": "-70.7581"}, {"country_code": "CL", "postal_code": "9560000", "place_name": "Calera De Tango", "latitude": "-33.6234", "longitude": "-70.7904"}, {"country_code": "CL", "postal_code": "9580000", "place_name": "Melipilla", "latitude": "-33.7439", "longitude": "-71.194"}, {"country_code": "CL", "postal_code": "9620000", "place_name": "Mar\u00eda Pinto", "latitude": "-33.4981", "longitude": "-71.2108"}, {"country_code": "CL", "postal_code": "9630000", "place_name": "Curacav\u00ed", "latitude": "-33.3664", "longitude": "-71.0802"}, {"country_code": "CL", "postal_code": "9650000", "place_name": "Alhue", "latitude": "-34.043", "longitude": "-71.0566"}, {"country_code": "CL", "postal_code": "9660000", "place_name": "San Pedro", "latitude": "-33.9318", "longitude": "-71.4529"}, {"country_code": "CL", "postal_code": "9670000", "place_name": "Talagante", "latitude": "-33.6823", "longitude": "-70.8951"}, {"country_code": "CL", "postal_code": "9710000", "place_name": "Padre Hurtado", "latitude": "-33.5572", "longitude": "-70.8708"}, {"country_code": "CL", "postal_code": "9750000", "place_name": "Pe\u00f1aflor", "latitude": "-33.6109", "longitude": "-70.894"}, {"country_code": "CL", "postal_code": "9790000", "place_name": "Isla De Maipo", "latitude": "-33.7485", "longitude": "-70.9457"}, {"country_code": "CL", "postal_code": "9810000", "place_name": "El Monte", "latitude": "-33.6671", "longitude": "-71.0324"}, {"country_code": "CL", "postal_code": "5480000", "place_name": "Puerto Montt", "latitude": "-41.4892", "longitude": "-72.7953"}, {"country_code": "CL", "postal_code": "5550000", "place_name": "Puerto Varas", "latitude": "-41.1914", "longitude": "-72.3881"}, {"country_code": "CL", "postal_code": "5560000", "place_name": "Cochamo", "latitude": "-41.7611", "longitude": "-72.0929"}, {"country_code": "CL", "postal_code": "5570000", "place_name": "Calbuco", "latitude": "-41.7231", "longitude": "-73.1951"}, {"country_code": "CL", "postal_code": "5580000", "place_name": "Maull\u00edn", "latitude": "-41.6324", "longitude": "-73.5083"}, {"country_code": "CL", "postal_code": "5590000", "place_name": "Los Muermos", "latitude": "-41.398", "longitude": "-73.5826"}, {"country_code": "CL", "postal_code": "5600000", "place_name": "Fresia", "latitude": "-41.1544", "longitude": "-73.6065"}, {"country_code": "CL", "postal_code": "5610000", "place_name": "Llanquihue", "latitude": "-41.2381", "longitude": "-73.1396"}, {"country_code": "CL", "postal_code": "5620000", "place_name": "Frutillar", "latitude": "-41.0872", "longitude": "-73.0956"}, {"country_code": "CL", "postal_code": "5700000", "place_name": "Castro", "latitude": "-42.4741", "longitude": "-73.8041"}, {"country_code": "CL", "postal_code": "5710000", "place_name": "Ancud", "latitude": "-42.0176", "longitude": "-73.8022"}, {"country_code": "CL", "postal_code": "5720000", "place_name": "Quemchi", "latitude": "-42.1338", "longitude": "-73.5172"}, {"country_code": "CL", "postal_code": "5730000", "place_name": "Dalcahue", "latitude": "-42.309", "longitude": "-73.8338"}, {"country_code": "CL", "postal_code": "5740000", "place_name": "Curaco De V\u00e9lez", "latitude": "-42.4268", "longitude": "-73.5787"}, {"country_code": "CL", "postal_code": "5750000", "place_name": "Quinchao", "latitude": "-42.6446", "longitude": "-73.2776"}, {"country_code": "CL", "postal_code": "5760000", "place_name": "Puqueld\u00f3n", "latitude": "-42.627", "longitude": "-73.6369"}, {"country_code": "CL", "postal_code": "5770000", "place_name": "Chonchi", "latitude": "-42.6821", "longitude": "-73.9306"}, {"country_code": "CL", "postal_code": "5780000", "place_name": "Queilen", "latitude": "-42.8557", "longitude": "-73.5644"}, {"country_code": "CL", "postal_code": "5790000", "place_name": "Quell\u00f3n", "latitude": "-43.1518", "longitude": "-73.9954"}, {"country_code": "CL", "postal_code": "5290000", "place_name": "Osorno", "latitude": "-40.6108", "longitude": "-73.0877"}, {"country_code": "CL", "postal_code": "5350000", "place_name": "San Pablo", "latitude": "-40.4267", "longitude": "-73.1621"}, {"country_code": "CL", "postal_code": "5360000", "place_name": "Puyehue", "latitude": "-40.7255", "longitude": "-72.3841"}, {"country_code": "CL", "postal_code": "5370000", "place_name": "Puerto Octay", "latitude": "-40.9336", "longitude": "-72.5994"}, {"country_code": "CL", "postal_code": "5380000", "place_name": "Purranque", "latitude": "-40.9351", "longitude": "-73.4583"}, {"country_code": "CL", "postal_code": "5390000", "place_name": "R\u00edo Negro", "latitude": "-40.7702", "longitude": "-73.4175"}, {"country_code": "CL", "postal_code": "5400000", "place_name": "San Juan De La Costa", "latitude": "-40.5086", "longitude": "-73.5594"}, {"country_code": "CL", "postal_code": "5850000", "place_name": "Chait\u00e9n", "latitude": "-43.0941", "longitude": "-72.5759"}, {"country_code": "CL", "postal_code": "5860000", "place_name": "Hualaihue", "latitude": "-42.1772", "longitude": "-72.377"}, {"country_code": "CL", "postal_code": "5870000", "place_name": "Futaleuf\u00fa", "latitude": "-43.1811", "longitude": "-72.0071"}, {"country_code": "CL", "postal_code": "5880000", "place_name": "Palena", "latitude": "-43.6824", "longitude": "-71.9833"}, {"country_code": "CL", "postal_code": "1100000", "place_name": "Iquique", "latitude": "-20.9409", "longitude": "-70.0412"}, {"country_code": "CL", "postal_code": "1130000", "place_name": "Alto Hospicio", "latitude": "-20.1913", "longitude": "-70.0119"}, {"country_code": "CL", "postal_code": "1140000", "place_name": "Huara", "latitude": "-19.5359", "longitude": "-69.9848"}, {"country_code": "CL", "postal_code": "1150000", "place_name": "Camina", "latitude": "-19.3737", "longitude": "-69.5056"}, {"country_code": "CL", "postal_code": "1160000", "place_name": "Colchane", "latitude": "-19.3531", "longitude": "-68.847"}, {"country_code": "CL", "postal_code": "1170000", "place_name": "Pica", "latitude": "-20.4796", "longitude": "-68.9119"}, {"country_code": "CL", "postal_code": "1180000", "place_name": "Pozo Almonte", "latitude": "-20.7702", "longitude": "-69.5045"}, {"country_code": "CL", "postal_code": "1000000", "place_name": "Arica", "latitude": "-18.5377", "longitude": "-69.9746"}, {"country_code": "CL", "postal_code": "1040000", "place_name": "Camarones", "latitude": "-18.93", "longitude": "-69.6991"}, {"country_code": "CL", "postal_code": "1070000", "place_name": "Putre", "latitude": "-18.4287", "longitude": "-69.3116"}, {"country_code": "CL", "postal_code": "1080000", "place_name": "General Lagos", "latitude": "-17.8286", "longitude": "-69.5749"}, {"country_code": "CL", "postal_code": "5090000", "place_name": "Valdivia", "latitude": "-39.8178", "longitude": "-73.1751"}, {"country_code": "CL", "postal_code": "5150000", "place_name": "Mariquina", "latitude": "-39.5131", "longitude": "-73.0196"}, {"country_code": "CL", "postal_code": "5160000", "place_name": "Lanco", "latitude": "-39.5121", "longitude": "-72.6215"}, {"country_code": "CL", "postal_code": "5170000", "place_name": "Los Lagos", "latitude": "-39.8784", "longitude": "-72.5546"}, {"country_code": "CL", "postal_code": "5190000", "place_name": "Corral", "latitude": "-39.9849", "longitude": "-73.3715"}, {"country_code": "CL", "postal_code": "5200000", "place_name": "Mafil", "latitude": "-39.692", "longitude": "-72.8638"}, {"country_code": "CL", "postal_code": "5210000", "place_name": "Panguipulli", "latitude": "-39.7146", "longitude": "-72.0299"}, {"country_code": "CL", "postal_code": "5230000", "place_name": "Paillaco", "latitude": "-40.0741", "longitude": "-72.8436"}, {"country_code": "CL", "postal_code": "5180000", "place_name": "Futrono", "latitude": "-40.1189", "longitude": "-72.1154"}, {"country_code": "CL", "postal_code": "5220000", "place_name": "La Uni\u00f3n", "latitude": "-40.2013", "longitude": "-73.2223"}, {"country_code": "CL", "postal_code": "5240000", "place_name": "R\u00edo Bueno", "latitude": "-40.4959", "longitude": "-72.5357"}, {"country_code": "CL", "postal_code": "5250000", "place_name": "Lago Ranco", "latitude": "-40.3732", "longitude": "-72.1658"}]