[{"country_code": "MK", "postal_code": "1000", "place_name": "Skopje", "latitude": "42", "longitude": "21.4333"}, {"country_code": "MK", "postal_code": "1010", "place_name": "Skopje", "latitude": "42", "longitude": "21.4333"}, {"country_code": "MK", "postal_code": "1011", "place_name": "Kuceviste", "latitude": "42.1097", "longitude": "21.4181"}, {"country_code": "MK", "postal_code": "1020", "place_name": "Skopje-Karpos 3", "latitude": "41.9367", "longitude": "21.5217"}, {"country_code": "MK", "postal_code": "1040", "place_name": "Skopje", "latitude": "42", "longitude": "21.4333"}, {"country_code": "MK", "postal_code": "1041", "place_name": "Ilinden", "latitude": "41.9961", "longitude": "21.5822"}, {"country_code": "MK", "postal_code": "1042", "place_name": "Miladinovci", "latitude": "41.9781", "longitude": "21.6494"}, {"country_code": "MK", "postal_code": "1043", "place_name": "Petrovec", "latitude": "41.9389", "longitude": "21.615"}, {"country_code": "MK", "postal_code": "1044", "place_name": "Katlanovo", "latitude": "41.8944", "longitude": "21.6831"}, {"country_code": "MK", "postal_code": "1045", "place_name": "Aracinovo", "latitude": "42.0264", "longitude": "21.5619"}, {"country_code": "MK", "postal_code": "1047", "place_name": "Jurumleri", "latitude": "41.9672", "longitude": "21.5569"}, {"country_code": "MK", "postal_code": "1050", "place_name": "Skopje-Dracevo", "latitude": "41.9367", "longitude": "21.5217"}, {"country_code": "MK", "postal_code": "1053", "place_name": "Zelenikovo", "latitude": "41.8867", "longitude": "21.5869"}, {"country_code": "MK", "postal_code": "1054", "place_name": "Rakotnici", "latitude": "41.3161", "longitude": "21.1898"}, {"country_code": "MK", "postal_code": "1060", "place_name": "Skopje-Gjorce Petrov", "latitude": "42.0609", "longitude": "21.3193"}, {"country_code": "MK", "postal_code": "1062", "place_name": "Radusa", "latitude": "42.085", "longitude": "21.2106"}, {"country_code": "MK", "postal_code": "1063", "place_name": "Bukovik", "latitude": "41.9683", "longitude": "21.2369"}, {"country_code": "MK", "postal_code": "1200", "place_name": "Tetovo", "latitude": "42.0106", "longitude": "20.9714"}, {"country_code": "MK", "postal_code": "1201", "place_name": "Mala Recica", "latitude": "41.9925", "longitude": "20.9578"}, {"country_code": "MK", "postal_code": "1203", "place_name": "Nerashte", "latitude": "42.1067", "longitude": "21.1089"}, {"country_code": "MK", "postal_code": "1206", "place_name": "Jazince", "latitude": "42.1644", "longitude": "21.1761"}, {"country_code": "MK", "postal_code": "1211", "place_name": "Dobroste", "latitude": "42.1033", "longitude": "21.0778"}, {"country_code": "MK", "postal_code": "1212", "place_name": "Dzepciste", "latitude": "42.0328", "longitude": "21"}, {"country_code": "MK", "postal_code": "1213", "place_name": "Zerovjane", "latitude": "41.9153", "longitude": "20.9478"}, {"country_code": "MK", "postal_code": "1214", "place_name": "Pirok", "latitude": "41.9108", "longitude": "20.9106"}, {"country_code": "MK", "postal_code": "1215", "place_name": "Jegunovce", "latitude": "42.0736", "longitude": "21.1236"}, {"country_code": "MK", "postal_code": "1216", "place_name": "Brvenica", "latitude": "41.9672", "longitude": "20.9808"}, {"country_code": "MK", "postal_code": "1218", "place_name": "Grupcin", "latitude": "41.9678", "longitude": "21.1303"}, {"country_code": "MK", "postal_code": "1219", "place_name": "Golema Recica", "latitude": "41.9903", "longitude": "20.9458"}, {"country_code": "MK", "postal_code": "1220", "place_name": "Bogovinje", "latitude": "41.9236", "longitude": "20.9136"}, {"country_code": "MK", "postal_code": "1221", "place_name": "Kamenjane", "latitude": "41.9444", "longitude": "20.9267"}, {"country_code": "MK", "postal_code": "1224", "place_name": "Tearce", "latitude": "42.0744", "longitude": "21.0525"}, {"country_code": "MK", "postal_code": "1225", "place_name": "Vratnica", "latitude": "42.1433", "longitude": "21.1169"}, {"country_code": "MK", "postal_code": "1226", "place_name": "Zelino", "latitude": "41.9803", "longitude": "21.0642"}, {"country_code": "MK", "postal_code": "1227", "place_name": "Celopek", "latitude": "41.9317", "longitude": "21.0133"}, {"country_code": "MK", "postal_code": "1228", "place_name": "Shemshevo", "latitude": "42.0247", "longitude": "21.0797"}, {"country_code": "MK", "postal_code": "1230", "place_name": "Gostivar", "latitude": "41.7972", "longitude": "20.9083"}, {"country_code": "MK", "postal_code": "1231", "place_name": "Vrutok", "latitude": "41.7686", "longitude": "20.8392"}, {"country_code": "MK", "postal_code": "1234", "place_name": "Debreshe", "latitude": "41.8159", "longitude": "20.8842"}, {"country_code": "MK", "postal_code": "1235", "place_name": "Negotino-Gostivarsko", "latitude": "41.4846", "longitude": "22.0906"}, {"country_code": "MK", "postal_code": "1236", "place_name": "Dobri Dol", "latitude": "41.8658", "longitude": "20.8875"}, {"country_code": "MK", "postal_code": "1237", "place_name": "Cegrane", "latitude": "41.8389", "longitude": "20.9758"}, {"country_code": "MK", "postal_code": "1238", "place_name": "Vrapciste", "latitude": "41.8339", "longitude": "20.8853"}, {"country_code": "MK", "postal_code": "1239", "place_name": "Srbinovo", "latitude": "41.7058", "longitude": "20.9603"}, {"country_code": "MK", "postal_code": "1250", "place_name": "Debar", "latitude": "41.525", "longitude": "20.5275"}, {"country_code": "MK", "postal_code": "1254", "place_name": "Rostusa", "latitude": "41.61", "longitude": "20.6"}, {"country_code": "MK", "postal_code": "1255", "place_name": "Zirovnica", "latitude": "41.6744", "longitude": "20.5858"}, {"country_code": "MK", "postal_code": "1256", "place_name": "Mavrovi Anovi", "latitude": "41.7006", "longitude": "20.7556"}, {"country_code": "MK", "postal_code": "1257", "place_name": "Skudrinje", "latitude": "41.5656", "longitude": "20.6094"}, {"country_code": "MK", "postal_code": "1258", "place_name": "Golem Papradnik", "latitude": "41.4767", "longitude": "20.5444"}, {"country_code": "MK", "postal_code": "1300", "place_name": "Kumanovo", "latitude": "42.1322", "longitude": "21.7144"}, {"country_code": "MK", "postal_code": "1302", "place_name": "Zeglane", "latitude": "42.2625", "longitude": "21.9108"}, {"country_code": "MK", "postal_code": "1303", "place_name": "Staro Negoricane", "latitude": "42.1981", "longitude": "21.8286"}, {"country_code": "MK", "postal_code": "1304", "place_name": "Klecovce", "latitude": "42.1161", "longitude": "21.8572"}, {"country_code": "MK", "postal_code": "1305", "place_name": "Orasec", "latitude": "42.0625", "longitude": "21.7997"}, {"country_code": "MK", "postal_code": "1306", "place_name": "Matejce", "latitude": "42.1256", "longitude": "21.5978"}, {"country_code": "MK", "postal_code": "1307", "place_name": "Lipkovo", "latitude": "42.1564", "longitude": "21.5853"}, {"country_code": "MK", "postal_code": "1308", "place_name": "Tabanovce", "latitude": "42.2147", "longitude": "21.7083"}, {"country_code": "MK", "postal_code": "1309", "place_name": "Gradiste", "latitude": "42.0231", "longitude": "21.8878"}, {"country_code": "MK", "postal_code": "1312", "place_name": "Mlado Nagoricane", "latitude": "42.1703", "longitude": "21.8017"}, {"country_code": "MK", "postal_code": "1314", "place_name": "Oblavce", "latitude": "42.1572", "longitude": "21.9067"}, {"country_code": "MK", "postal_code": "1315", "place_name": "Otlja", "latitude": "42.1439", "longitude": "21.5878"}, {"country_code": "MK", "postal_code": "1316", "place_name": "Rankovce", "latitude": "42.1819", "longitude": "22.1228"}, {"country_code": "MK", "postal_code": "1322", "place_name": "Romanovce", "latitude": "42.0947", "longitude": "21.6931"}, {"country_code": "MK", "postal_code": "1323", "place_name": "Pcinja", "latitude": "42.0397", "longitude": "21.7561"}, {"country_code": "MK", "postal_code": "1324", "place_name": "Vaksince", "latitude": "42.2061", "longitude": "21.6631"}, {"country_code": "MK", "postal_code": "1325", "place_name": "Slupcane", "latitude": "42.1733", "longitude": "21.6278"}, {"country_code": "MK", "postal_code": "1330", "place_name": "Kriva Palanka", "latitude": "42.2019", "longitude": "22.3319"}, {"country_code": "MK", "postal_code": "1332", "place_name": "Petralnica", "latitude": "42.2083", "longitude": "22.1872"}, {"country_code": "MK", "postal_code": "1333", "place_name": "Mozdivnjak", "latitude": "42.1578", "longitude": "22.2539"}, {"country_code": "MK", "postal_code": "1334", "place_name": "Dubrovnica", "latitude": "42.2772", "longitude": "22.3239"}, {"country_code": "MK", "postal_code": "1335", "place_name": "Zidilovo", "latitude": "42.225", "longitude": "22.3958"}, {"country_code": "MK", "postal_code": "1360", "place_name": "Kratovo", "latitude": "42.0792", "longitude": "22.1814"}, {"country_code": "MK", "postal_code": "1361", "place_name": "Stracin", "latitude": "42.1506", "longitude": "22.0322"}, {"country_code": "MK", "postal_code": "1400", "place_name": "Veles", "latitude": "41.7156", "longitude": "21.7756"}, {"country_code": "MK", "postal_code": "1406", "place_name": "Basino Selo", "latitude": "41.7483", "longitude": "21.76"}, {"country_code": "MK", "postal_code": "1407", "place_name": "Ivankovci", "latitude": "41.8489", "longitude": "21.8203"}, {"country_code": "MK", "postal_code": "1408", "place_name": "Gorno Orizari", "latitude": "41.6858", "longitude": "21.7336"}, {"country_code": "MK", "postal_code": "1413", "place_name": "Caska", "latitude": "41.6506", "longitude": "21.6622"}, {"country_code": "MK", "postal_code": "1414", "place_name": "Izvor", "latitude": "41.5547", "longitude": "21.6972"}, {"country_code": "MK", "postal_code": "1415", "place_name": "Bogomila", "latitude": "41.5931", "longitude": "21.4717"}, {"country_code": "MK", "postal_code": "1420", "place_name": "Gradsko", "latitude": "41.5775", "longitude": "21.9428"}, {"country_code": "MK", "postal_code": "1421", "place_name": "Sirkovo", "latitude": "41.5064", "longitude": "21.8886"}, {"country_code": "MK", "postal_code": "1422", "place_name": "Rosoman", "latitude": "41.5161", "longitude": "21.9497"}, {"country_code": "MK", "postal_code": "1423", "place_name": "Drenovo", "latitude": "41.4194", "longitude": "21.89"}, {"country_code": "MK", "postal_code": "1424", "place_name": "Vozarci", "latitude": "41.43", "longitude": "21.9247"}, {"country_code": "MK", "postal_code": "1426", "place_name": "Marena", "latitude": "41.4664", "longitude": "22.0278"}, {"country_code": "MK", "postal_code": "1427", "place_name": "Sopot", "latitude": "41.49", "longitude": "22.0247"}, {"country_code": "MK", "postal_code": "1430", "place_name": "Kavadarci", "latitude": "41.4331", "longitude": "22.0119"}, {"country_code": "MK", "postal_code": "1434", "place_name": "Resava", "latitude": "41.3881", "longitude": "21.9781"}, {"country_code": "MK", "postal_code": "1437", "place_name": "Konopiste", "latitude": "41.2472", "longitude": "22.0772"}, {"country_code": "MK", "postal_code": "1440", "place_name": "Negotino", "latitude": "41.4839", "longitude": "22.0892"}, {"country_code": "MK", "postal_code": "1441", "place_name": "Pepeliste", "latitude": "41.5189", "longitude": "22.1283"}, {"country_code": "MK", "postal_code": "1442", "place_name": "Demir Kapija", "latitude": "41.405", "longitude": "22.2489"}, {"country_code": "MK", "postal_code": "1443", "place_name": "Dolni Disan", "latitude": "41.4283", "longitude": "22.0956"}, {"country_code": "MK", "postal_code": "1480", "place_name": "Gevgelija", "latitude": "41.1392", "longitude": "22.5025"}, {"country_code": "MK", "postal_code": "1483", "place_name": "Negorci", "latitude": "41.1836", "longitude": "22.4847"}, {"country_code": "MK", "postal_code": "1484", "place_name": "Bogdanci", "latitude": "41.2031", "longitude": "22.5756"}, {"country_code": "MK", "postal_code": "1485", "place_name": "Nov Dojran", "latitude": "41.2206", "longitude": "22.7061"}, {"country_code": "MK", "postal_code": "1487", "place_name": "Star Dojran", "latitude": "41.1875", "longitude": "22.7208"}, {"country_code": "MK", "postal_code": "1488", "place_name": "Stojakovo", "latitude": "41.1556", "longitude": "22.5775"}, {"country_code": "MK", "postal_code": "1489", "place_name": "Miravci", "latitude": "41.3078", "longitude": "22.435"}, {"country_code": "MK", "postal_code": "2000", "place_name": "Stip", "latitude": "41.7458", "longitude": "22.1958"}, {"country_code": "MK", "postal_code": "2207", "place_name": "Karbinci", "latitude": "41.8167", "longitude": "22.2375"}, {"country_code": "MK", "postal_code": "2208", "place_name": "Lozovo", "latitude": "41.7839", "longitude": "21.9056"}, {"country_code": "MK", "postal_code": "2210", "place_name": "Probishtip", "latitude": "42.0031", "longitude": "22.1786"}, {"country_code": "MK", "postal_code": "2212", "place_name": "Zletovo", "latitude": "41.9886", "longitude": "22.2361"}, {"country_code": "MK", "postal_code": "2220", "place_name": "Sveti Nikole", "latitude": "41.865", "longitude": "21.9428"}, {"country_code": "MK", "postal_code": "2225", "place_name": "Erdzelija", "latitude": "41.8353", "longitude": "22.0356"}, {"country_code": "MK", "postal_code": "2227", "place_name": "Amzabegovo", "latitude": "41.8119", "longitude": "21.9947"}, {"country_code": "MK", "postal_code": "2300", "place_name": "Kocani", "latitude": "41.9164", "longitude": "22.4128"}, {"country_code": "MK", "postal_code": "2301", "place_name": "Oblesevo", "latitude": "41.8833", "longitude": "22.3339"}, {"country_code": "MK", "postal_code": "2302", "place_name": "Orizari", "latitude": "41.9228", "longitude": "22.4469"}, {"country_code": "MK", "postal_code": "2304", "place_name": "Makedonska Kamenica", "latitude": "42.02", "longitude": "22.5919"}, {"country_code": "MK", "postal_code": "2305", "place_name": "Zrnovci", "latitude": "41.8542", "longitude": "22.4444"}, {"country_code": "MK", "postal_code": "2307", "place_name": "Gorni Podlog", "latitude": "41.8881", "longitude": "22.3814"}, {"country_code": "MK", "postal_code": "2310", "place_name": "Vinica", "latitude": "41.8828", "longitude": "22.5092"}, {"country_code": "MK", "postal_code": "2312", "place_name": "Istibanja", "latitude": "41.9297", "longitude": "22.5025"}, {"country_code": "MK", "postal_code": "2314", "place_name": "Blatec", "latitude": "41.8378", "longitude": "22.5781"}, {"country_code": "MK", "postal_code": "2315", "place_name": "Rusinovo", "latitude": "41.6833", "longitude": "22.8083"}, {"country_code": "MK", "postal_code": "2316", "place_name": "Dragobraste", "latitude": "41.8972", "longitude": "22.5994"}, {"country_code": "MK", "postal_code": "2320", "place_name": "Delcevo", "latitude": "41.9672", "longitude": "22.7694"}, {"country_code": "MK", "postal_code": "2325", "place_name": "Trabotiviste", "latitude": "41.8875", "longitude": "22.8167"}, {"country_code": "MK", "postal_code": "2326", "place_name": "Pehcevo", "latitude": "41.7594", "longitude": "22.8906"}, {"country_code": "MK", "postal_code": "2330", "place_name": "Berovo", "latitude": "41.7031", "longitude": "22.8578"}, {"country_code": "MK", "postal_code": "2331", "place_name": "Vladimirovo", "latitude": "41.71", "longitude": "22.7928"}, {"country_code": "MK", "postal_code": "2332", "place_name": "Budinarci", "latitude": "41.7642", "longitude": "22.7756"}, {"country_code": "MK", "postal_code": "2333", "place_name": "Cesinovo", "latitude": "41.8714", "longitude": "22.2892"}, {"country_code": "MK", "postal_code": "2400", "place_name": "Strumica", "latitude": "41.4375", "longitude": "22.6433"}, {"country_code": "MK", "postal_code": "2410", "place_name": "Kuklis", "latitude": "41.4053", "longitude": "22.6653"}, {"country_code": "MK", "postal_code": "2411", "place_name": "Vasilevo", "latitude": "41.4761", "longitude": "22.6417"}, {"country_code": "MK", "postal_code": "2412", "place_name": "Vladevci / Radicevo sobiraliste", "latitude": "41.5208", "longitude": "22.5914"}, {"country_code": "MK", "postal_code": "2413", "place_name": "Kosturino", "latitude": "41.3572", "longitude": "22.6094"}, {"country_code": "MK", "postal_code": "2414", "place_name": "Veljusa", "latitude": "41.4761", "longitude": "22.5675"}, {"country_code": "MK", "postal_code": "2416", "place_name": "Dobrasinci", "latitude": "41.5253", "longitude": "22.6753"}, {"country_code": "MK", "postal_code": "2420", "place_name": "Radovis", "latitude": "41.6383", "longitude": "22.4647"}, {"country_code": "MK", "postal_code": "2423", "place_name": "Podares", "latitude": "41.6139", "longitude": "22.5422"}, {"country_code": "MK", "postal_code": "2424", "place_name": "Konce", "latitude": "41.4958", "longitude": "22.385"}, {"country_code": "MK", "postal_code": "2430", "place_name": "Petralinci", "latitude": "41.4706", "longitude": "22.7269"}, {"country_code": "MK", "postal_code": "2431", "place_name": "Bosilovo", "latitude": "41.4406", "longitude": "22.7278"}, {"country_code": "MK", "postal_code": "2432", "place_name": "Murtino", "latitude": "41.4153", "longitude": "22.7267"}, {"country_code": "MK", "postal_code": "2433", "place_name": "Turnovo", "latitude": "41.4383", "longitude": "22.7736"}, {"country_code": "MK", "postal_code": "2434", "place_name": "Novo Selo", "latitude": "41.4858", "longitude": "22.5092"}, {"country_code": "MK", "postal_code": "2435", "place_name": "Mokrievo", "latitude": "41.375", "longitude": "22.8386"}, {"country_code": "MK", "postal_code": "2436", "place_name": "Dracevo", "latitude": "41.9367", "longitude": "21.5217"}, {"country_code": "MK", "postal_code": "2460", "place_name": "Valandovo", "latitude": "41.3169", "longitude": "22.5611"}, {"country_code": "MK", "postal_code": "2461", "place_name": "Calakli", "latitude": "41.3033", "longitude": "22.64"}, {"country_code": "MK", "postal_code": "2464", "place_name": "Udovo", "latitude": "41.3431", "longitude": "22.4428"}, {"country_code": "MK", "postal_code": "6000", "place_name": "Ohrid", "latitude": "41.1172", "longitude": "20.8019"}, {"country_code": "MK", "postal_code": "6245", "place_name": "Malo Crsko", "latitude": "41.4028", "longitude": "21.0017"}, {"country_code": "MK", "postal_code": "6250", "place_name": "Kicevo", "latitude": "41.5144", "longitude": "20.9633"}, {"country_code": "MK", "postal_code": "6253", "place_name": "Zajas", "latitude": "41.6072", "longitude": "20.9383"}, {"country_code": "MK", "postal_code": "6254", "place_name": "Oslomej", "latitude": "41.5772", "longitude": "21"}, {"country_code": "MK", "postal_code": "6255", "place_name": "Brzdani", "latitude": "41.4467", "longitude": "20.9069"}, {"country_code": "MK", "postal_code": "6256", "place_name": "Izvor", "latitude": "41.5547", "longitude": "21.6972"}, {"country_code": "MK", "postal_code": "6257", "place_name": "Dlapkin Dol", "latitude": "41.5592", "longitude": "20.9353"}, {"country_code": "MK", "postal_code": "6258", "place_name": "Vranestica", "latitude": "41.4453", "longitude": "21.0267"}, {"country_code": "MK", "postal_code": "6259", "place_name": "Celopeci", "latitude": "41.4725", "longitude": "21.0286"}, {"country_code": "MK", "postal_code": "6260", "place_name": "Rastanski Pat", "latitude": "41.716", "longitude": "21.7641"}, {"country_code": "MK", "postal_code": "6261", "place_name": "Drugovo", "latitude": "41.4842", "longitude": "20.9233"}, {"country_code": "MK", "postal_code": "6262", "place_name": "Strelci", "latitude": "41.5372", "longitude": "21.0036"}, {"country_code": "MK", "postal_code": "6306", "place_name": "Leskovec", "latitude": "40.95", "longitude": "20.8833"}, {"country_code": "MK", "postal_code": "6322", "place_name": "Ohrid", "latitude": "41.1172", "longitude": "20.8019"}, {"country_code": "MK", "postal_code": "6330", "place_name": "Struga", "latitude": "41.1781", "longitude": "20.6761"}, {"country_code": "MK", "postal_code": "6333", "place_name": "Radolista", "latitude": "41.1642", "longitude": "20.6233"}, {"country_code": "MK", "postal_code": "6334", "place_name": "Velesta", "latitude": "41.2408", "longitude": "20.6439"}, {"country_code": "MK", "postal_code": "6335", "place_name": "Vevcani", "latitude": "41.2406", "longitude": "20.5933"}, {"country_code": "MK", "postal_code": "6336", "place_name": "Labunista", "latitude": "41.2686", "longitude": "20.5961"}, {"country_code": "MK", "postal_code": "6337", "place_name": "Lukovo", "latitude": "41.3494", "longitude": "20.6047"}, {"country_code": "MK", "postal_code": "6338", "place_name": "Delgozda", "latitude": "41.2573", "longitude": "20.7218"}, {"country_code": "MK", "postal_code": "6339", "place_name": "Oktisi", "latitude": "41.2325", "longitude": "20.6072"}, {"country_code": "MK", "postal_code": "6341", "place_name": "Trebenista", "latitude": "41.2064", "longitude": "20.755"}, {"country_code": "MK", "postal_code": "6342", "place_name": "Meseista", "latitude": "41.2386", "longitude": "20.7767"}, {"country_code": "MK", "postal_code": "6344", "place_name": "Belcista", "latitude": "41.3028", "longitude": "20.8303"}, {"country_code": "MK", "postal_code": "6346", "place_name": "Slivovo", "latitude": "41.4056", "longitude": "20.845"}, {"country_code": "MK", "postal_code": "6530", "place_name": "Makedonski Brod", "latitude": "41.5136", "longitude": "21.2153"}, {"country_code": "MK", "postal_code": "6533", "place_name": "Dolni Manastirec", "latitude": "41.6269", "longitude": "21.2106"}, {"country_code": "MK", "postal_code": "6535", "place_name": "Samokov", "latitude": "41.6836", "longitude": "21.1442"}, {"country_code": "MK", "postal_code": "6539", "place_name": "Dvorci", "latitude": "41.4647", "longitude": "21.0928"}, {"country_code": "MK", "postal_code": "7000", "place_name": "Bitola", "latitude": "41.0311", "longitude": "21.3403"}, {"country_code": "MK", "postal_code": "7202", "place_name": "Smilevo", "latitude": "41.155", "longitude": "21.1111"}, {"country_code": "MK", "postal_code": "7204", "place_name": "Dolno Orizari", "latitude": "41.0503", "longitude": "21.3794"}, {"country_code": "MK", "postal_code": "7205", "place_name": "Dihovo", "latitude": "41.0303", "longitude": "21.2639"}, {"country_code": "MK", "postal_code": "7211", "place_name": "Novaci", "latitude": "41.0419", "longitude": "21.4561"}, {"country_code": "MK", "postal_code": "7212", "place_name": "Dedebalci", "latitude": "41.1164", "longitude": "21.4842"}, {"country_code": "MK", "postal_code": "7213", "place_name": "Makovo", "latitude": "41.1186", "longitude": "21.6094"}, {"country_code": "MK", "postal_code": "7214", "place_name": "Staravina", "latitude": "41.0897", "longitude": "21.7339"}, {"country_code": "MK", "postal_code": "7215", "place_name": "Dobrusevo", "latitude": "41.1686", "longitude": "21.4825"}, {"country_code": "MK", "postal_code": "7216", "place_name": "Mogila", "latitude": "41.1083", "longitude": "21.3786"}, {"country_code": "MK", "postal_code": "7221", "place_name": "Bistrica", "latitude": "40.9833", "longitude": "21.3667"}, {"country_code": "MK", "postal_code": "7223", "place_name": "Porodin", "latitude": "40.9333", "longitude": "21.3667"}, {"country_code": "MK", "postal_code": "7224", "place_name": "Keremenica", "latitude": "40.9242", "longitude": "21.4585"}, {"country_code": "MK", "postal_code": "7225", "place_name": "Bac", "latitude": "40.9333", "longitude": "21.5667"}, {"country_code": "MK", "postal_code": "7240", "place_name": "Demir Hisar", "latitude": "41.2217", "longitude": "21.2031"}, {"country_code": "MK", "postal_code": "7241", "place_name": "Kukurecani", "latitude": "41.0956", "longitude": "21.3256"}, {"country_code": "MK", "postal_code": "7242", "place_name": "Lopatica", "latitude": "41.1594", "longitude": "21.2539"}, {"country_code": "MK", "postal_code": "7244", "place_name": "Zvan", "latitude": "41.2878", "longitude": "21.1208"}, {"country_code": "MK", "postal_code": "7245", "place_name": "Ivanjevci", "latitude": "41.2064", "longitude": "21.3589"}, {"country_code": "MK", "postal_code": "7310", "place_name": "Resen", "latitude": "41.0889", "longitude": "21.0122"}, {"country_code": "MK", "postal_code": "7313", "place_name": "Capari", "latitude": "41.0561", "longitude": "21.1783"}, {"country_code": "MK", "postal_code": "7314", "place_name": "Kazani", "latitude": "41.0653", "longitude": "21.1472"}, {"country_code": "MK", "postal_code": "7315", "place_name": "Carev Dvor", "latitude": "41.0431", "longitude": "21.0072"}, {"country_code": "MK", "postal_code": "7316", "place_name": "Asamati", "latitude": "40.9864", "longitude": "21.0511"}, {"country_code": "MK", "postal_code": "7317", "place_name": "Krani", "latitude": "40.9394", "longitude": "21.1086"}, {"country_code": "MK", "postal_code": "7318", "place_name": "Ljubojno", "latitude": "40.8942", "longitude": "21.1408"}, {"country_code": "MK", "postal_code": "7319", "place_name": "Otesevo", "latitude": "40.9833", "longitude": "20.9167"}, {"country_code": "MK", "postal_code": "7320", "place_name": "Jankovec", "latitude": "41.1103", "longitude": "21.0114"}, {"country_code": "MK", "postal_code": "7500", "place_name": "Prilep", "latitude": "41.3464", "longitude": "21.5544"}, {"country_code": "MK", "postal_code": "7504", "place_name": "Dolneni", "latitude": "41.4253", "longitude": "21.4547"}, {"country_code": "MK", "postal_code": "7505", "place_name": "Kostinci", "latitude": "41.5017", "longitude": "21.4069"}, {"country_code": "MK", "postal_code": "7506", "place_name": "Dunje", "latitude": "41.2575", "longitude": "21.6922"}, {"country_code": "MK", "postal_code": "7507", "place_name": "Lazani", "latitude": "41.4422", "longitude": "21.3158"}, {"country_code": "MK", "postal_code": "7508", "place_name": "Vitoliste", "latitude": "41.1808", "longitude": "21.8267"}, {"country_code": "MK", "postal_code": "7509", "place_name": "Golemo Konjari", "latitude": "41.3431", "longitude": "21.4403"}, {"country_code": "MK", "postal_code": "7512", "place_name": "Topolcani", "latitude": "41.2286", "longitude": "21.4314"}, {"country_code": "MK", "postal_code": "7514", "place_name": "Kanatlarci", "latitude": "41.2103", "longitude": "21.5033"}, {"country_code": "MK", "postal_code": "7524", "place_name": "Krivogastani", "latitude": "41.3361", "longitude": "21.3331"}, {"country_code": "MK", "postal_code": "7525", "place_name": "Vodani", "latitude": "41.2836", "longitude": "21.3394"}, {"country_code": "MK", "postal_code": "7537", "place_name": "Debreste", "latitude": "41.4797", "longitude": "21.3153"}, {"country_code": "MK", "postal_code": "7550", "place_name": "Krusevo", "latitude": "41.3689", "longitude": "21.2489"}]