[{"country_code": "AT", "postal_code": "7000", "place_name": "Kleinh\u00f6flein im Burgenland", "latitude": "47.8415", "longitude": "16.5041"}, {"country_code": "AT", "postal_code": "7000", "place_name": "Sankt Georgen am Leithagebirge", "latitude": "47.85", "longitude": "16.55"}, {"country_code": "AT", "postal_code": "7000", "place_name": "Eisenstadt", "latitude": "47.8457", "longitude": "16.5233"}, {"country_code": "AT", "postal_code": "7071", "place_name": "Rust", "latitude": "47.8012", "longitude": "16.6716"}, {"country_code": "AT", "postal_code": "2443", "place_name": "Loretto", "latitude": "47.9156", "longitude": "16.5179"}, {"country_code": "AT", "postal_code": "2443", "place_name": "Stotzing", "latitude": "47.9", "longitude": "16.55"}, {"country_code": "AT", "postal_code": "2443", "place_name": "Leithaprodersdorf", "latitude": "47.9335", "longitude": "16.4791"}, {"country_code": "AT", "postal_code": "2485", "place_name": "Wimpassing an der Leitha", "latitude": "47.9167", "longitude": "16.4333"}, {"country_code": "AT", "postal_code": "2491", "place_name": "Neufeld an der Leitha", "latitude": "47.8656", "longitude": "16.3786"}, {"country_code": "AT", "postal_code": "2491", "place_name": "Steinbrunn / \u0160tikapron", "latitude": "47.8333", "longitude": "16.4167"}, {"country_code": "AT", "postal_code": "2491", "place_name": "Hornstein / Vori\u0161tan", "latitude": "47.8805", "longitude": "16.4445"}, {"country_code": "AT", "postal_code": "7011", "place_name": "Siegendorf / Cindrof", "latitude": "47.781", "longitude": "16.5423"}, {"country_code": "AT", "postal_code": "7012", "place_name": "Zagersdorf / Cogr\u0161tof", "latitude": "47.7647", "longitude": "16.5138"}, {"country_code": "AT", "postal_code": "7013", "place_name": "Klingenbach / Klimpuh", "latitude": "47.7728", "longitude": "16.5281"}, {"country_code": "AT", "postal_code": "7033", "place_name": "Zillingtal / Celindof", "latitude": "47.7997", "longitude": "16.3994"}, {"country_code": "AT", "postal_code": "7034", "place_name": "Zillingtal / Celindof", "latitude": "47.7997", "longitude": "16.3994"}, {"country_code": "AT", "postal_code": "7035", "place_name": "Zillingtal / Celindof", "latitude": "47.7997", "longitude": "16.3994"}, {"country_code": "AT", "postal_code": "7035", "place_name": "Steinbrunn / \u0160tikapron", "latitude": "47.8333", "longitude": "16.4167"}, {"country_code": "AT", "postal_code": "7041", "place_name": "Wulkaprodersdorf / Vulkaprodr\u0161tof", "latitude": "47.7975", "longitude": "16.5045"}, {"country_code": "AT", "postal_code": "7051", "place_name": "Gro\u00dfh\u00f6flein", "latitude": "47.8359", "longitude": "16.4804"}, {"country_code": "AT", "postal_code": "7052", "place_name": "M\u00fcllendorf", "latitude": "47.8394", "longitude": "16.4626"}, {"country_code": "AT", "postal_code": "7053", "place_name": "Hornstein / Vori\u0161tan", "latitude": "47.8805", "longitude": "16.4445"}, {"country_code": "AT", "postal_code": "7061", "place_name": "Trausdorf an der Wulka / Traj\u0161tof", "latitude": "47.8219", "longitude": "16.6317"}, {"country_code": "AT", "postal_code": "7062", "place_name": "Sankt Margarethen im Burgenland", "latitude": "47.8034", "longitude": "16.6088"}, {"country_code": "AT", "postal_code": "7063", "place_name": "Oggau am Neusiedler See", "latitude": "47.8333", "longitude": "16.6667"}, {"country_code": "AT", "postal_code": "7064", "place_name": "Oslip / Uzlop", "latitude": "47.8291", "longitude": "16.6196"}, {"country_code": "AT", "postal_code": "7072", "place_name": "M\u00f6rbisch am See", "latitude": "47.75", "longitude": "16.6667"}, {"country_code": "AT", "postal_code": "7081", "place_name": "Sch\u00fctzen am Gebirge", "latitude": "47.8523", "longitude": "16.6233"}, {"country_code": "AT", "postal_code": "7082", "place_name": "Donnerskirchen", "latitude": "47.8942", "longitude": "16.6463"}, {"country_code": "AT", "postal_code": "7083", "place_name": "Purbach am Neusiedler See", "latitude": "47.9129", "longitude": "16.6956"}, {"country_code": "AT", "postal_code": "7091", "place_name": "Breitenbrunn", "latitude": "47.9445", "longitude": "16.7315"}, {"country_code": "AT", "postal_code": "7521", "place_name": "Eberau", "latitude": "47.1076", "longitude": "16.4604"}, {"country_code": "AT", "postal_code": "7521", "place_name": "Gaas", "latitude": "47.0824", "longitude": "16.463"}, {"country_code": "AT", "postal_code": "7521", "place_name": "Unterbildein", "latitude": "47.1284", "longitude": "16.4679"}, {"country_code": "AT", "postal_code": "7521", "place_name": "Oberbildein", "latitude": "47.1333", "longitude": "16.4667"}, {"country_code": "AT", "postal_code": "7521", "place_name": "Kulm im Burgenland", "latitude": "47.104", "longitude": "16.4524"}, {"country_code": "AT", "postal_code": "7521", "place_name": "Winten", "latitude": "47.1171", "longitude": "16.4445"}, {"country_code": "AT", "postal_code": "7522", "place_name": "Luising", "latitude": "47.0139", "longitude": "16.4794"}, {"country_code": "AT", "postal_code": "7522", "place_name": "Steinfurt", "latitude": "47.0667", "longitude": "16.4167"}, {"country_code": "AT", "postal_code": "7522", "place_name": "Heiligenbrunn", "latitude": "47.027", "longitude": "16.4169"}, {"country_code": "AT", "postal_code": "7522", "place_name": "Deutsch Ehrensdorf", "latitude": "47.0979", "longitude": "16.4142"}, {"country_code": "AT", "postal_code": "7522", "place_name": "Reinersdorf", "latitude": "47.0104", "longitude": "16.3888"}, {"country_code": "AT", "postal_code": "7522", "place_name": "Hagensdorf im Burgenland", "latitude": "47.0145", "longitude": "16.4554"}, {"country_code": "AT", "postal_code": "7522", "place_name": "Kroatisch Ehrensdorf", "latitude": "47.1175", "longitude": "16.4024"}, {"country_code": "AT", "postal_code": "7522", "place_name": "Sumetendorf", "latitude": "47.0445", "longitude": "16.3935"}, {"country_code": "AT", "postal_code": "7522", "place_name": "Strem", "latitude": "47.045", "longitude": "16.4143"}, {"country_code": "AT", "postal_code": "7522", "place_name": "Deutsch Bieling", "latitude": "47.0167", "longitude": "16.4333"}, {"country_code": "AT", "postal_code": "7533", "place_name": "Ollersdorf im Burgenland", "latitude": "47.1833", "longitude": "16.1667"}, {"country_code": "AT", "postal_code": "7534", "place_name": "Rauchwart", "latitude": "47.1333", "longitude": "16.2333"}, {"country_code": "AT", "postal_code": "7534", "place_name": "Olbendorf", "latitude": "47.1833", "longitude": "16.2"}, {"country_code": "AT", "postal_code": "7535", "place_name": "Gamischdorf", "latitude": "47.1078", "longitude": "16.2591"}, {"country_code": "AT", "postal_code": "7535", "place_name": "Schallendorf im Burgenland", "latitude": "47.1167", "longitude": "16.25"}, {"country_code": "AT", "postal_code": "7535", "place_name": "Rauchwart", "latitude": "47.1333", "longitude": "16.2333"}, {"country_code": "AT", "postal_code": "7535", "place_name": "Sankt Michael im Burgenland", "latitude": "47.1333", "longitude": "16.2667"}, {"country_code": "AT", "postal_code": "7536", "place_name": "G\u00fcttenbach / Pinkovac", "latitude": "47.1667", "longitude": "16.3"}, {"country_code": "AT", "postal_code": "7537", "place_name": "Neuberg im Burgenland / Nova Gora", "latitude": "47.1591", "longitude": "16.2209"}, {"country_code": "AT", "postal_code": "7540", "place_name": "Moschendorf", "latitude": "47.0584", "longitude": "16.4773"}, {"country_code": "AT", "postal_code": "7540", "place_name": "Tschanigraben", "latitude": "47.0677", "longitude": "16.2921"}, {"country_code": "AT", "postal_code": "7540", "place_name": "Sankt Nikolaus", "latitude": "47.0462", "longitude": "16.3323"}, {"country_code": "AT", "postal_code": "7540", "place_name": "Inzenhof", "latitude": "47.0167", "longitude": "16.3167"}, {"country_code": "AT", "postal_code": "7540", "place_name": "Kleinm\u00fcrbisch", "latitude": "47.033", "longitude": "16.3245"}, {"country_code": "AT", "postal_code": "7540", "place_name": "Sulz im Burgenland", "latitude": "47.0748", "longitude": "16.2696"}, {"country_code": "AT", "postal_code": "7540", "place_name": "Glasing", "latitude": "47.0433", "longitude": "16.3575"}, {"country_code": "AT", "postal_code": "7540", "place_name": "Urbersdorf", "latitude": "47.0576", "longitude": "16.3729"}, {"country_code": "AT", "postal_code": "7540", "place_name": "Krottendorf", "latitude": "47.0595", "longitude": "16.3071"}, {"country_code": "AT", "postal_code": "7540", "place_name": "G\u00fcssing", "latitude": "47.0594", "longitude": "16.3243"}, {"country_code": "AT", "postal_code": "7540", "place_name": "Neustift bei G\u00fcssing", "latitude": "47.0167", "longitude": "16.2667"}, {"country_code": "AT", "postal_code": "7540", "place_name": "Gro\u00dfm\u00fcrbisch", "latitude": "47.0164", "longitude": "16.362"}, {"country_code": "AT", "postal_code": "7540", "place_name": "Rehgraben", "latitude": "47.0833", "longitude": "16.2333"}, {"country_code": "AT", "postal_code": "7542", "place_name": "Sulz im Burgenland", "latitude": "47.0748", "longitude": "16.2696"}, {"country_code": "AT", "postal_code": "7542", "place_name": "Gerersdorf bei G\u00fcssing", "latitude": "47.0667", "longitude": "16.25"}, {"country_code": "AT", "postal_code": "7542", "place_name": "Steingraben", "latitude": "47.0643", "longitude": "16.2743"}, {"country_code": "AT", "postal_code": "7543", "place_name": "Kukmirn", "latitude": "47.0754", "longitude": "16.2103"}, {"country_code": "AT", "postal_code": "7543", "place_name": "Neusiedl", "latitude": "47.1", "longitude": "16.1833"}, {"country_code": "AT", "postal_code": "7543", "place_name": "Eisenh\u00fcttl", "latitude": "47.1", "longitude": "16.2"}, {"country_code": "AT", "postal_code": "7543", "place_name": "Limbach", "latitude": "47.0667", "longitude": "16.1667"}, {"country_code": "AT", "postal_code": "7544", "place_name": "Kroatisch Tschantschendorf", "latitude": "47.0974", "longitude": "16.2864"}, {"country_code": "AT", "postal_code": "7544", "place_name": "Tobaj", "latitude": "47.0833", "longitude": "16.3"}, {"country_code": "AT", "postal_code": "7544", "place_name": "Punitz", "latitude": "47.1167", "longitude": "16.35"}, {"country_code": "AT", "postal_code": "7544", "place_name": "Deutsch Tschantschendorf", "latitude": "47.1", "longitude": "16.2833"}, {"country_code": "AT", "postal_code": "7544", "place_name": "Hasendorf im Burgenland", "latitude": "47.0833", "longitude": "16.3"}, {"country_code": "AT", "postal_code": "7544", "place_name": "Tudersdorf", "latitude": "47.1", "longitude": "16.2833"}, {"country_code": "AT", "postal_code": "7551", "place_name": "Heugraben", "latitude": "47.1167", "longitude": "16.1833"}, {"country_code": "AT", "postal_code": "7551", "place_name": "Stegersbach", "latitude": "47.1667", "longitude": "16.1667"}, {"country_code": "AT", "postal_code": "7551", "place_name": "Rohr im Burgenland", "latitude": "47.1167", "longitude": "16.1667"}, {"country_code": "AT", "postal_code": "7551", "place_name": "Bocksdorf", "latitude": "47.1333", "longitude": "16.1667"}, {"country_code": "AT", "postal_code": "7552", "place_name": "Stinatz / Stinjaki", "latitude": "47.2", "longitude": "16.1167"}, {"country_code": "AT", "postal_code": "8291", "place_name": "Burgauberg", "latitude": "47.1477", "longitude": "16.1235"}, {"country_code": "AT", "postal_code": "8292", "place_name": "Hackerberg", "latitude": "47.2", "longitude": "16.1167"}, {"country_code": "AT", "postal_code": "8292", "place_name": "Neudauberg", "latitude": "47.1717", "longitude": "16.1195"}, {"country_code": "AT", "postal_code": "8293", "place_name": "W\u00f6rterberg", "latitude": "47.2167", "longitude": "16.1"}, {"country_code": "AT", "postal_code": "7561", "place_name": "Heiligenkreuz im Lafnitztal", "latitude": "46.9892", "longitude": "16.2608"}, {"country_code": "AT", "postal_code": "7561", "place_name": "Poppendorf im Burgenland", "latitude": "46.9969", "longitude": "16.225"}, {"country_code": "AT", "postal_code": "7562", "place_name": "Eltendorf", "latitude": "47", "longitude": "16.2"}, {"country_code": "AT", "postal_code": "7562", "place_name": "Zahling", "latitude": "47.0333", "longitude": "16.2"}, {"country_code": "AT", "postal_code": "7563", "place_name": "K\u00f6nigsdorf", "latitude": "47", "longitude": "16.1667"}, {"country_code": "AT", "postal_code": "7564", "place_name": "Rudersdorf", "latitude": "47.05", "longitude": "16.1167"}, {"country_code": "AT", "postal_code": "7564", "place_name": "Dobersdorf", "latitude": "47.0167", "longitude": "16.1333"}, {"country_code": "AT", "postal_code": "7571", "place_name": "Rudersdorf", "latitude": "47.05", "longitude": "16.1167"}, {"country_code": "AT", "postal_code": "7572", "place_name": "Rohrbrunn", "latitude": "47.1244", "longitude": "16.1151"}, {"country_code": "AT", "postal_code": "7572", "place_name": "Deutsch Kaltenbrunn", "latitude": "47.0879", "longitude": "16.1079"}, {"country_code": "AT", "postal_code": "8282", "place_name": "Henndorf im Burgenland", "latitude": "46.982", "longitude": "16.1459"}, {"country_code": "AT", "postal_code": "8350", "place_name": "Welten", "latitude": "46.9292", "longitude": "16.0825"}, {"country_code": "AT", "postal_code": "8380", "place_name": "Neumarkt an der Raab", "latitude": "46.9269", "longitude": "16.1667"}, {"country_code": "AT", "postal_code": "8380", "place_name": "Rax", "latitude": "46.9333", "longitude": "16.1667"}, {"country_code": "AT", "postal_code": "8380", "place_name": "Grieselstein", "latitude": "46.9525", "longitude": "16.12"}, {"country_code": "AT", "postal_code": "8380", "place_name": "Jennersdorf", "latitude": "46.9385", "longitude": "16.1416"}, {"country_code": "AT", "postal_code": "8380", "place_name": "Henndorf im Burgenland", "latitude": "46.982", "longitude": "16.1459"}, {"country_code": "AT", "postal_code": "8382", "place_name": "Wallendorf", "latitude": "46.9719", "longitude": "16.2333"}, {"country_code": "AT", "postal_code": "8382", "place_name": "Krobotek", "latitude": "46.9715", "longitude": "16.1921"}, {"country_code": "AT", "postal_code": "8382", "place_name": "Deutsch Minihof", "latitude": "46.9708", "longitude": "16.2426"}, {"country_code": "AT", "postal_code": "8382", "place_name": "Rosendorf", "latitude": "46.9797", "longitude": "16.2103"}, {"country_code": "AT", "postal_code": "8382", "place_name": "Weichselbaum", "latitude": "46.9425", "longitude": "16.1875"}, {"country_code": "AT", "postal_code": "8382", "place_name": "Mogersdorf", "latitude": "46.9492", "longitude": "16.2322"}, {"country_code": "AT", "postal_code": "8382", "place_name": "Maria Bild", "latitude": "46.9589", "longitude": "16.1897"}, {"country_code": "AT", "postal_code": "8383", "place_name": "Welten", "latitude": "46.9292", "longitude": "16.0825"}, {"country_code": "AT", "postal_code": "8383", "place_name": "Gritsch", "latitude": "46.9244", "longitude": "16.1053"}, {"country_code": "AT", "postal_code": "8383", "place_name": "Oberdrosen", "latitude": "46.889", "longitude": "16.1203"}, {"country_code": "AT", "postal_code": "8383", "place_name": "Eisenberg an der Raab", "latitude": "46.9", "longitude": "16.1333"}, {"country_code": "AT", "postal_code": "8383", "place_name": "Doiber", "latitude": "46.9222", "longitude": "16.1153"}, {"country_code": "AT", "postal_code": "8383", "place_name": "Sankt Martin an der Raab", "latitude": "46.9225", "longitude": "16.1361"}, {"country_code": "AT", "postal_code": "8384", "place_name": "Windisch-Minihof", "latitude": "46.8908", "longitude": "16.0954"}, {"country_code": "AT", "postal_code": "8384", "place_name": "Tauka", "latitude": "46.8647", "longitude": "16.0789"}, {"country_code": "AT", "postal_code": "8384", "place_name": "Bonisdorf", "latitude": "46.8444", "longitude": "16.0497"}, {"country_code": "AT", "postal_code": "8384", "place_name": "Minihof-Liebau", "latitude": "46.9173", "longitude": "16.1252"}, {"country_code": "AT", "postal_code": "8384", "place_name": "Oberdrosen", "latitude": "46.889", "longitude": "16.1203"}, {"country_code": "AT", "postal_code": "8385", "place_name": "Bonisdorf", "latitude": "46.8444", "longitude": "16.0497"}, {"country_code": "AT", "postal_code": "8385", "place_name": "Welten", "latitude": "46.9292", "longitude": "16.0825"}, {"country_code": "AT", "postal_code": "8385", "place_name": "Krottendorf bei Neuhaus am Klausenbach", "latitude": "46.85", "longitude": "16.0167"}, {"country_code": "AT", "postal_code": "8385", "place_name": "Neuhaus am Klausenbach", "latitude": "46.8667", "longitude": "16.0333"}, {"country_code": "AT", "postal_code": "8385", "place_name": "M\u00fchlgraben", "latitude": "46.8897", "longitude": "16.0408"}, {"country_code": "AT", "postal_code": "8385", "place_name": "Kalch", "latitude": "46.85", "longitude": "16.0167"}, {"country_code": "AT", "postal_code": "7020", "place_name": "Loipersbach im Burgenland", "latitude": "47.6966", "longitude": "16.4792"}, {"country_code": "AT", "postal_code": "7021", "place_name": "Baumgarten / Pajngrt", "latitude": "47.7389", "longitude": "16.5006"}, {"country_code": "AT", "postal_code": "7021", "place_name": "Dra\u00dfburg / Rasporak", "latitude": "47.7465", "longitude": "16.4868"}, {"country_code": "AT", "postal_code": "7022", "place_name": "Schattendorf", "latitude": "47.7097", "longitude": "16.5098"}, {"country_code": "AT", "postal_code": "7023", "place_name": "St\u00f6ttera", "latitude": "47.7679", "longitude": "16.4611"}, {"country_code": "AT", "postal_code": "7023", "place_name": "P\u00f6ttelsdorf", "latitude": "47.7537", "longitude": "16.4386"}, {"country_code": "AT", "postal_code": "7023", "place_name": "Zemendorf", "latitude": "47.7628", "longitude": "16.4511"}, {"country_code": "AT", "postal_code": "7024", "place_name": "Hirm", "latitude": "47.7865", "longitude": "16.4546"}, {"country_code": "AT", "postal_code": "7031", "place_name": "Krensdorf", "latitude": "47.7855", "longitude": "16.4149"}, {"country_code": "AT", "postal_code": "7032", "place_name": "Sigle\u00df", "latitude": "47.7753", "longitude": "16.395"}, {"country_code": "AT", "postal_code": "7033", "place_name": "P\u00f6ttsching", "latitude": "47.8045", "longitude": "16.3711"}, {"country_code": "AT", "postal_code": "7042", "place_name": "Antau / Otava", "latitude": "47.7738", "longitude": "16.4798"}, {"country_code": "AT", "postal_code": "7201", "place_name": "Neud\u00f6rfl", "latitude": "47.7966", "longitude": "16.2977"}, {"country_code": "AT", "postal_code": "7202", "place_name": "Wiesen", "latitude": "47.7378", "longitude": "16.338"}, {"country_code": "AT", "postal_code": "7202", "place_name": "Bad Sauerbrunn", "latitude": "47.7744", "longitude": "16.3284"}, {"country_code": "AT", "postal_code": "7202", "place_name": "P\u00f6ttsching", "latitude": "47.8045", "longitude": "16.3711"}, {"country_code": "AT", "postal_code": "7203", "place_name": "Wiesen", "latitude": "47.7378", "longitude": "16.338"}, {"country_code": "AT", "postal_code": "7210", "place_name": "Walbersdorf", "latitude": "47.7333", "longitude": "16.4"}, {"country_code": "AT", "postal_code": "7210", "place_name": "Mattersburg", "latitude": "47.7333", "longitude": "16.4"}, {"country_code": "AT", "postal_code": "7212", "place_name": "Forchtenstein", "latitude": "47.7116", "longitude": "16.3453"}, {"country_code": "AT", "postal_code": "7221", "place_name": "Marz", "latitude": "47.7167", "longitude": "16.4167"}, {"country_code": "AT", "postal_code": "7222", "place_name": "Rohrbach bei Mattersburg", "latitude": "47.7052", "longitude": "16.4301"}, {"country_code": "AT", "postal_code": "7223", "place_name": "Sieggraben", "latitude": "47.6513", "longitude": "16.3799"}, {"country_code": "AT", "postal_code": "2413", "place_name": "Edelstal", "latitude": "48.1", "longitude": "16.9833"}, {"country_code": "AT", "postal_code": "2421", "place_name": "Kittsee", "latitude": "48.0925", "longitude": "17.0639"}, {"country_code": "AT", "postal_code": "2422", "place_name": "Pama / Bijelo Selo", "latitude": "48.05", "longitude": "17.0333"}, {"country_code": "AT", "postal_code": "2423", "place_name": "Deutsch Jahrndorf", "latitude": "48.0167", "longitude": "17.1"}, {"country_code": "AT", "postal_code": "2424", "place_name": "Zurndorf", "latitude": "47.9831", "longitude": "17.0031"}, {"country_code": "AT", "postal_code": "2425", "place_name": "Nickelsdorf", "latitude": "47.9406", "longitude": "17.0694"}, {"country_code": "AT", "postal_code": "2460", "place_name": "Bruckneudorf", "latitude": "48.0167", "longitude": "16.7833"}, {"country_code": "AT", "postal_code": "2462", "place_name": "K\u00f6nigshof", "latitude": "48.0339", "longitude": "16.7207"}, {"country_code": "AT", "postal_code": "2462", "place_name": "Kaisersteinbruch", "latitude": "47.9881", "longitude": "16.7029"}, {"country_code": "AT", "postal_code": "2471", "place_name": "Parndorf / Pandrof", "latitude": "47.9996", "longitude": "16.8605"}, {"country_code": "AT", "postal_code": "2473", "place_name": "Potzneusiedl", "latitude": "48.045", "longitude": "16.9477"}, {"country_code": "AT", "postal_code": "2474", "place_name": "Gattendorf", "latitude": "48.0167", "longitude": "16.9833"}, {"country_code": "AT", "postal_code": "2475", "place_name": "Neudorf / Novo Selo", "latitude": "48.0167", "longitude": "16.9333"}, {"country_code": "AT", "postal_code": "7092", "place_name": "Winden am See", "latitude": "47.95", "longitude": "16.75"}, {"country_code": "AT", "postal_code": "7093", "place_name": "Jois", "latitude": "47.9617", "longitude": "16.796"}, {"country_code": "AT", "postal_code": "7100", "place_name": "Weiden am See", "latitude": "47.9253", "longitude": "16.869"}, {"country_code": "AT", "postal_code": "7100", "place_name": "Neusiedl am See", "latitude": "47.949", "longitude": "16.8417"}, {"country_code": "AT", "postal_code": "7111", "place_name": "Parndorf / Pandrof", "latitude": "47.9996", "longitude": "16.8605"}, {"country_code": "AT", "postal_code": "7121", "place_name": "Weiden am See", "latitude": "47.9253", "longitude": "16.869"}, {"country_code": "AT", "postal_code": "7122", "place_name": "Gols", "latitude": "47.8969", "longitude": "16.9111"}, {"country_code": "AT", "postal_code": "7123", "place_name": "M\u00f6nchhof", "latitude": "47.8802", "longitude": "16.9413"}, {"country_code": "AT", "postal_code": "7131", "place_name": "Halbturn", "latitude": "47.8702", "longitude": "16.9754"}, {"country_code": "AT", "postal_code": "7132", "place_name": "Frauenkirchen", "latitude": "47.8368", "longitude": "16.9258"}, {"country_code": "AT", "postal_code": "7132", "place_name": "Apetlon", "latitude": "47.7439", "longitude": "16.8302"}, {"country_code": "AT", "postal_code": "7141", "place_name": "Podersdorf am See", "latitude": "47.8541", "longitude": "16.8371"}, {"country_code": "AT", "postal_code": "7142", "place_name": "Illmitz", "latitude": "47.7615", "longitude": "16.8002"}, {"country_code": "AT", "postal_code": "7143", "place_name": "Apetlon", "latitude": "47.7439", "longitude": "16.8302"}, {"country_code": "AT", "postal_code": "7151", "place_name": "Wallern im Burgenland", "latitude": "47.7285", "longitude": "16.9371"}, {"country_code": "AT", "postal_code": "7152", "place_name": "Pamhagen", "latitude": "47.7009", "longitude": "16.9078"}, {"country_code": "AT", "postal_code": "7152", "place_name": "Wallern im Burgenland", "latitude": "47.7285", "longitude": "16.9371"}, {"country_code": "AT", "postal_code": "7161", "place_name": "Sankt Andr\u00e4 am Zicksee", "latitude": "47.7841", "longitude": "16.9419"}, {"country_code": "AT", "postal_code": "7161", "place_name": "Apetlon", "latitude": "47.7439", "longitude": "16.8302"}, {"country_code": "AT", "postal_code": "7162", "place_name": "Tadten", "latitude": "47.7667", "longitude": "16.9833"}, {"country_code": "AT", "postal_code": "7163", "place_name": "Andau", "latitude": "47.7744", "longitude": "17.0329"}, {"country_code": "AT", "postal_code": "2812", "place_name": "Landsee", "latitude": "47.5583", "longitude": "16.3314"}, {"country_code": "AT", "postal_code": "7301", "place_name": "Deutschkreutz", "latitude": "47.6", "longitude": "16.6333"}, {"country_code": "AT", "postal_code": "7301", "place_name": "Girm", "latitude": "47.6", "longitude": "16.6067"}, {"country_code": "AT", "postal_code": "7302", "place_name": "Nikitsch / File\u017e", "latitude": "47.5362", "longitude": "16.6602"}, {"country_code": "AT", "postal_code": "7302", "place_name": "Kroatisch Minihof / Mjenovo", "latitude": "47.5255", "longitude": "16.6445"}, {"country_code": "AT", "postal_code": "7304", "place_name": "Mitterpullendorf", "latitude": "47.4933", "longitude": "16.5213"}, {"country_code": "AT", "postal_code": "7304", "place_name": "Gro\u00dfwarasdorf / Veliki Bori\u0161tof", "latitude": "47.5391", "longitude": "16.553"}, {"country_code": "AT", "postal_code": "7304", "place_name": "Nebersdorf / \u0160u\u0161evo", "latitude": "47.5129", "longitude": "16.5705"}, {"country_code": "AT", "postal_code": "7304", "place_name": "Langental / Longitolj", "latitude": "47.5036", "longitude": "16.5436"}, {"country_code": "AT", "postal_code": "7304", "place_name": "Kleinwarasdorf / Mali Bori\u0161tof", "latitude": "47.5374", "longitude": "16.589"}, {"country_code": "AT", "postal_code": "7311", "place_name": "Haschendorf", "latitude": "47.5979", "longitude": "16.5729"}, {"country_code": "AT", "postal_code": "7311", "place_name": "Neckenmarkt", "latitude": "47.5996", "longitude": "16.5467"}, {"country_code": "AT", "postal_code": "7312", "place_name": "Horitschon", "latitude": "47.5873", "longitude": "16.547"}, {"country_code": "AT", "postal_code": "7312", "place_name": "Unterpetersdorf", "latitude": "47.5905", "longitude": "16.582"}, {"country_code": "AT", "postal_code": "7321", "place_name": "Raiding", "latitude": "47.5658", "longitude": "16.5306"}, {"country_code": "AT", "postal_code": "7321", "place_name": "Lackendorf", "latitude": "47.59", "longitude": "16.504"}, {"country_code": "AT", "postal_code": "7321", "place_name": "Unterfrauenhaid", "latitude": "47.5712", "longitude": "16.4988"}, {"country_code": "AT", "postal_code": "7322", "place_name": "Lackenbach", "latitude": "47.5904", "longitude": "16.4653"}, {"country_code": "AT", "postal_code": "7323", "place_name": "Ritzing", "latitude": "47.6132", "longitude": "16.4955"}, {"country_code": "AT", "postal_code": "7331", "place_name": "Kalkgruben", "latitude": "47.6211", "longitude": "16.3961"}, {"country_code": "AT", "postal_code": "7331", "place_name": "Tschurndorf", "latitude": "47.6077", "longitude": "16.4057"}, {"country_code": "AT", "postal_code": "7331", "place_name": "Weppersdorf", "latitude": "47.5795", "longitude": "16.4268"}, {"country_code": "AT", "postal_code": "7332", "place_name": "Oberpetersdorf", "latitude": "47.6155", "longitude": "16.3765"}, {"country_code": "AT", "postal_code": "7332", "place_name": "Kobersdorf", "latitude": "47.5957", "longitude": "16.3917"}, {"country_code": "AT", "postal_code": "7341", "place_name": "Markt Sankt Martin", "latitude": "47.562", "longitude": "16.4251"}, {"country_code": "AT", "postal_code": "7341", "place_name": "Landsee", "latitude": "47.5583", "longitude": "16.3314"}, {"country_code": "AT", "postal_code": "7341", "place_name": "Lindgraben", "latitude": "47.5748", "longitude": "16.3989"}, {"country_code": "AT", "postal_code": "7341", "place_name": "Neudorf bei Landsee", "latitude": "47.5625", "longitude": "16.3798"}, {"country_code": "AT", "postal_code": "7342", "place_name": "Kaisersdorf / Kali\u0161trof", "latitude": "47.5374", "longitude": "16.392"}, {"country_code": "AT", "postal_code": "7343", "place_name": "Neutal", "latitude": "47.5455", "longitude": "16.4462"}, {"country_code": "AT", "postal_code": "7344", "place_name": "Stoob", "latitude": "47.5284", "longitude": "16.4776"}, {"country_code": "AT", "postal_code": "7350", "place_name": "Oberpullendorf / Fels\u00f6pulya", "latitude": "47.5108", "longitude": "16.4994"}, {"country_code": "AT", "postal_code": "7350", "place_name": "Stoob", "latitude": "47.5284", "longitude": "16.4776"}, {"country_code": "AT", "postal_code": "7350", "place_name": "Mitterpullendorf", "latitude": "47.4933", "longitude": "16.5213"}, {"country_code": "AT", "postal_code": "7361", "place_name": "Kroatisch Geresdorf / Geri\u0161tof", "latitude": "47.4914", "longitude": "16.6102"}, {"country_code": "AT", "postal_code": "7361", "place_name": "Lutzmannsburg", "latitude": "47.4637", "longitude": "16.6366"}, {"country_code": "AT", "postal_code": "7361", "place_name": "Strebersdorf", "latitude": "47.4578", "longitude": "16.6191"}, {"country_code": "AT", "postal_code": "7361", "place_name": "Frankenau / Frakanava", "latitude": "47.45", "longitude": "16.6"}, {"country_code": "AT", "postal_code": "7371", "place_name": "Oberrabnitz", "latitude": "47.4929", "longitude": "16.3544"}, {"country_code": "AT", "postal_code": "7371", "place_name": "Unterrabnitz", "latitude": "47.4539", "longitude": "16.3768"}, {"country_code": "AT", "postal_code": "7371", "place_name": "Schwendgraben", "latitude": "47.4709", "longitude": "16.3557"}, {"country_code": "AT", "postal_code": "7372", "place_name": "Karl", "latitude": "47.5089", "longitude": "16.3464"}, {"country_code": "AT", "postal_code": "7372", "place_name": "Dra\u00dfmarkt", "latitude": "47.5167", "longitude": "16.4"}, {"country_code": "AT", "postal_code": "7373", "place_name": "Piringsdorf", "latitude": "47.4483", "longitude": "16.4152"}, {"country_code": "AT", "postal_code": "7374", "place_name": "Weingraben / Bajngrob", "latitude": "47.5139", "longitude": "16.3637"}, {"country_code": "AT", "postal_code": "7441", "place_name": "Salmannsdorf", "latitude": "47.4167", "longitude": "16.3333"}, {"country_code": "AT", "postal_code": "7441", "place_name": "Kogl im Burgenland", "latitude": "47.4453", "longitude": "16.2987"}, {"country_code": "AT", "postal_code": "7441", "place_name": "Steinbach im Burgenland", "latitude": "47.475", "longitude": "16.3166"}, {"country_code": "AT", "postal_code": "7441", "place_name": "Bubendorf im Burgenland", "latitude": "47.4274", "longitude": "16.3466"}, {"country_code": "AT", "postal_code": "7441", "place_name": "Pilgersdorf", "latitude": "47.4411", "longitude": "16.3492"}, {"country_code": "AT", "postal_code": "7441", "place_name": "Lebenbrunn", "latitude": "47.4627", "longitude": "16.3023"}, {"country_code": "AT", "postal_code": "7441", "place_name": "Deutsch Gerisdorf", "latitude": "47.4167", "longitude": "16.3667"}, {"country_code": "AT", "postal_code": "7442", "place_name": "Langeck im Burgenland", "latitude": "47.4", "longitude": "16.3667"}, {"country_code": "AT", "postal_code": "7442", "place_name": "Glash\u00fctten bei Langeck im Burgenland", "latitude": "47.3757", "longitude": "16.3833"}, {"country_code": "AT", "postal_code": "7442", "place_name": "Hammerteich", "latitude": "47.4087", "longitude": "16.4437"}, {"country_code": "AT", "postal_code": "7442", "place_name": "Hochstra\u00df", "latitude": "47.4287", "longitude": "16.4047"}, {"country_code": "AT", "postal_code": "7442", "place_name": "Lockenhaus", "latitude": "47.4075", "longitude": "16.4162"}, {"country_code": "AT", "postal_code": "7443", "place_name": "Liebing", "latitude": "47.4136", "longitude": "16.4945"}, {"country_code": "AT", "postal_code": "7443", "place_name": "Rattersdorf", "latitude": "47.4078", "longitude": "16.498"}, {"country_code": "AT", "postal_code": "7444", "place_name": "Unterloisdorf", "latitude": "47.4367", "longitude": "16.5328"}, {"country_code": "AT", "postal_code": "7444", "place_name": "Mannersdorf an der Rabnitz", "latitude": "47.4281", "longitude": "16.5268"}, {"country_code": "AT", "postal_code": "7444", "place_name": "Klostermarienberg", "latitude": "47.4219", "longitude": "16.5627"}, {"country_code": "AT", "postal_code": "7451", "place_name": "Oberloisdorf", "latitude": "47.4474", "longitude": "16.5076"}, {"country_code": "AT", "postal_code": "7452", "place_name": "Gro\u00dfmutschen / Mucindrof", "latitude": "47.4667", "longitude": "16.5833"}, {"country_code": "AT", "postal_code": "7452", "place_name": "Unterpullendorf / Dolnja Pulja", "latitude": "47.4753", "longitude": "16.5402"}, {"country_code": "AT", "postal_code": "7452", "place_name": "Kleinmutschen / Pervane", "latitude": "47.463", "longitude": "16.5747"}, {"country_code": "AT", "postal_code": "7453", "place_name": "D\u00f6rfl", "latitude": "47.4833", "longitude": "16.4833"}, {"country_code": "AT", "postal_code": "7453", "place_name": "Steinberg", "latitude": "47.4743", "longitude": "16.4876"}, {"country_code": "AT", "postal_code": "2852", "place_name": "Aschau im Burgenland", "latitude": "47.4", "longitude": "16.2"}, {"country_code": "AT", "postal_code": "2852", "place_name": "Dreih\u00fctten", "latitude": "47.4207", "longitude": "16.2199"}, {"country_code": "AT", "postal_code": "7400", "place_name": "Obersch\u00fctzen", "latitude": "47.3514", "longitude": "16.2073"}, {"country_code": "AT", "postal_code": "7400", "place_name": "Untersch\u00fctzen", "latitude": "47.3189", "longitude": "16.2037"}, {"country_code": "AT", "postal_code": "7400", "place_name": "Oberwart / Fels\u00f6\u00f6r", "latitude": "47.3214", "longitude": "16.2248"}, {"country_code": "AT", "postal_code": "7400", "place_name": "Sankt Martin in der Wart", "latitude": "47.2988", "longitude": "16.2381"}, {"country_code": "AT", "postal_code": "7400", "place_name": "Drumling", "latitude": "47.3167", "longitude": "16.25"}, {"country_code": "AT", "postal_code": "7410", "place_name": "Kitzladen", "latitude": "47.3167", "longitude": "16.0667"}, {"country_code": "AT", "postal_code": "7410", "place_name": "Loipersdorf im Burgenland", "latitude": "47.3333", "longitude": "16.0833"}, {"country_code": "AT", "postal_code": "7411", "place_name": "Buchschachen", "latitude": "47.3167", "longitude": "16.1"}, {"country_code": "AT", "postal_code": "7411", "place_name": "Markt Allhau", "latitude": "47.2833", "longitude": "16.0833"}, {"country_code": "AT", "postal_code": "7412", "place_name": "Wolfau", "latitude": "47.25", "longitude": "16.1"}, {"country_code": "AT", "postal_code": "7422", "place_name": "Riedlingsdorf", "latitude": "47.35", "longitude": "16.1333"}, {"country_code": "AT", "postal_code": "7423", "place_name": "Grafenschachen", "latitude": "47.3667", "longitude": "16.0667"}, {"country_code": "AT", "postal_code": "7423", "place_name": "Kroisegg", "latitude": "47.3785", "longitude": "16.0375"}, {"country_code": "AT", "postal_code": "7423", "place_name": "Wiesfleck", "latitude": "47.3833", "longitude": "16.1333"}, {"country_code": "AT", "postal_code": "7423", "place_name": "Sch\u00f6nherrn", "latitude": "47.4167", "longitude": "16.1667"}, {"country_code": "AT", "postal_code": "7423", "place_name": "Weinberg im Burgenland", "latitude": "47.3909", "longitude": "16.1669"}, {"country_code": "AT", "postal_code": "7423", "place_name": "Pinkafeld", "latitude": "47.3667", "longitude": "16.1167"}, {"country_code": "AT", "postal_code": "7423", "place_name": "Neustift an der Lafnitz", "latitude": "47.3667", "longitude": "16.0333"}, {"country_code": "AT", "postal_code": "7423", "place_name": "Hochart", "latitude": "47.4", "longitude": "16.1167"}, {"country_code": "AT", "postal_code": "7423", "place_name": "Schreibersdorf", "latitude": "47.4", "longitude": "16.15"}, {"country_code": "AT", "postal_code": "7431", "place_name": "Sulzriegel", "latitude": "47.3333", "longitude": "16.2333"}, {"country_code": "AT", "postal_code": "7431", "place_name": "Bad Tatzmannsdorf", "latitude": "47.3823", "longitude": "16.2523"}, {"country_code": "AT", "postal_code": "7431", "place_name": "Jormannsdorf", "latitude": "47.35", "longitude": "16.2167"}, {"country_code": "AT", "postal_code": "7431", "place_name": "Obersch\u00fctzen", "latitude": "47.3514", "longitude": "16.2073"}, {"country_code": "AT", "postal_code": "7432", "place_name": "Willersdorf", "latitude": "47.3667", "longitude": "16.2"}, {"country_code": "AT", "postal_code": "7432", "place_name": "Obersch\u00fctzen", "latitude": "47.3514", "longitude": "16.2073"}, {"country_code": "AT", "postal_code": "7432", "place_name": "Schmiedrait", "latitude": "47.4167", "longitude": "16.1833"}, {"country_code": "AT", "postal_code": "7432", "place_name": "Aschau im Burgenland", "latitude": "47.4", "longitude": "16.2"}, {"country_code": "AT", "postal_code": "7433", "place_name": "Tauchen", "latitude": "47.4", "longitude": "16.2167"}, {"country_code": "AT", "postal_code": "7433", "place_name": "Neustift bei Schlaining", "latitude": "47.35", "longitude": "16.25"}, {"country_code": "AT", "postal_code": "7433", "place_name": "Bergwerk", "latitude": "47.3667", "longitude": "16.25"}, {"country_code": "AT", "postal_code": "7433", "place_name": "Grodnau", "latitude": "47.3833", "longitude": "16.2667"}, {"country_code": "AT", "postal_code": "7433", "place_name": "Mariasdorf", "latitude": "47.3658", "longitude": "16.2314"}, {"country_code": "AT", "postal_code": "7434", "place_name": "Bernstein", "latitude": "47.4", "longitude": "16.25"}, {"country_code": "AT", "postal_code": "7434", "place_name": "Rettenbach", "latitude": "47.4", "longitude": "16.2333"}, {"country_code": "AT", "postal_code": "7434", "place_name": "Dreih\u00fctten", "latitude": "47.4207", "longitude": "16.2199"}, {"country_code": "AT", "postal_code": "7434", "place_name": "Holzschlag", "latitude": "47.3833", "longitude": "16.3"}, {"country_code": "AT", "postal_code": "7434", "place_name": "Stuben", "latitude": "47.4306", "longitude": "16.2487"}, {"country_code": "AT", "postal_code": "7434", "place_name": "Redlschlag", "latitude": "47.4408", "longitude": "16.2879"}, {"country_code": "AT", "postal_code": "7435", "place_name": "Holzschlag", "latitude": "47.3833", "longitude": "16.3"}, {"country_code": "AT", "postal_code": "7435", "place_name": "Glash\u00fctten bei Schlaining", "latitude": "47.35", "longitude": "16.3333"}, {"country_code": "AT", "postal_code": "7435", "place_name": "Oberkohlst\u00e4tten", "latitude": "47.3667", "longitude": "16.3333"}, {"country_code": "AT", "postal_code": "7435", "place_name": "Unterkohlst\u00e4tten", "latitude": "47.3833", "longitude": "16.3167"}, {"country_code": "AT", "postal_code": "7435", "place_name": "G\u00fcnseck", "latitude": "47.4", "longitude": "16.3167"}, {"country_code": "AT", "postal_code": "7461", "place_name": "Podler / Poljanci", "latitude": "47.2833", "longitude": "16.3333"}, {"country_code": "AT", "postal_code": "7461", "place_name": "Allersgraben / \u0160irokani", "latitude": "47.3167", "longitude": "16.3167"}, {"country_code": "AT", "postal_code": "7461", "place_name": "Altschlaining", "latitude": "47.3167", "longitude": "16.2833"}, {"country_code": "AT", "postal_code": "7461", "place_name": "Stadtschlaining", "latitude": "47.3167", "longitude": "16.2833"}, {"country_code": "AT", "postal_code": "7461", "place_name": "Rauhriegel / Rorigljin", "latitude": "47.3126", "longitude": "16.3281"}, {"country_code": "AT", "postal_code": "7461", "place_name": "Goberling", "latitude": "47.35", "longitude": "16.2833"}, {"country_code": "AT", "postal_code": "7461", "place_name": "M\u00f6nchmeierhof / Marof", "latitude": "47.3213", "longitude": "16.3086"}, {"country_code": "AT", "postal_code": "7461", "place_name": "Allersdorf im Burgenland / Kljucarevci", "latitude": "47.3126", "longitude": "16.3281"}, {"country_code": "AT", "postal_code": "7461", "place_name": "Neumarkt im Tauchental", "latitude": "47.2962", "longitude": "16.2981"}, {"country_code": "AT", "postal_code": "7463", "place_name": "Zuberbach / Sabara", "latitude": "47.3126", "longitude": "16.3281"}, {"country_code": "AT", "postal_code": "7463", "place_name": "Rumpersdorf / Rupi\u0161ce", "latitude": "47.3167", "longitude": "16.3333"}, {"country_code": "AT", "postal_code": "7463", "place_name": "Weiden bei Rechnitz / Bandol", "latitude": "47.3", "longitude": "16.35"}, {"country_code": "AT", "postal_code": "7463", "place_name": "Oberpodgoria / Podgorje", "latitude": "47.322", "longitude": "16.3452"}, {"country_code": "AT", "postal_code": "7463", "place_name": "Unterpodgoria / Bo\u0161njakov Brig", "latitude": "47.3143", "longitude": "16.3574"}, {"country_code": "AT", "postal_code": "7464", "place_name": "Althodis / Stari Hodas", "latitude": "47.3142", "longitude": "16.3768"}, {"country_code": "AT", "postal_code": "7464", "place_name": "Markt Neuhodis", "latitude": "47.2956", "longitude": "16.3956"}, {"country_code": "AT", "postal_code": "7471", "place_name": "Rechnitz", "latitude": "47.3047", "longitude": "16.441"}, {"country_code": "AT", "postal_code": "7472", "place_name": "Schachendorf / Cajta", "latitude": "47.2667", "longitude": "16.4333"}, {"country_code": "AT", "postal_code": "7472", "place_name": "Schandorf / Cemba", "latitude": "47.2418", "longitude": "16.4227"}, {"country_code": "AT", "postal_code": "7472", "place_name": "D\u00fcrnbach im Burgenland / Vincjet", "latitude": "47.2066", "longitude": "16.4163"}, {"country_code": "AT", "postal_code": "7473", "place_name": "Woppendorf", "latitude": "47.2", "longitude": "16.3833"}, {"country_code": "AT", "postal_code": "7473", "place_name": "Hannersdorf", "latitude": "47.229", "longitude": "16.3825"}, {"country_code": "AT", "postal_code": "7473", "place_name": "Burg", "latitude": "47.2167", "longitude": "16.4"}, {"country_code": "AT", "postal_code": "7474", "place_name": "H\u00f6ll", "latitude": "47.143", "longitude": "16.4398"}, {"country_code": "AT", "postal_code": "7474", "place_name": "Burg", "latitude": "47.2167", "longitude": "16.4"}, {"country_code": "AT", "postal_code": "7474", "place_name": "Sankt Kathrein im Burgenland", "latitude": "47.139", "longitude": "16.4154"}, {"country_code": "AT", "postal_code": "7474", "place_name": "Eisenberg an der Pinka", "latitude": "47.1803", "longitude": "16.426"}, {"country_code": "AT", "postal_code": "7474", "place_name": "Edlitz im Burgenland", "latitude": "47.1349", "longitude": "16.4351"}, {"country_code": "AT", "postal_code": "7474", "place_name": "Deutsch-Sch\u00fctzen", "latitude": "47.2066", "longitude": "16.4163"}, {"country_code": "AT", "postal_code": "7501", "place_name": "Unterwart / Als\u00f3\u00f6r", "latitude": "47.2485", "longitude": "16.2906"}, {"country_code": "AT", "postal_code": "7501", "place_name": "Siget in der Wart / \u00d6risziget", "latitude": "47.2485", "longitude": "16.2906"}, {"country_code": "AT", "postal_code": "7501", "place_name": "Rotenturm an der Pinka", "latitude": "47.25", "longitude": "16.25"}, {"country_code": "AT", "postal_code": "7501", "place_name": "Eisenzicken", "latitude": "47.2833", "longitude": "16.2667"}, {"country_code": "AT", "postal_code": "7501", "place_name": "Oberdorf im Burgenland", "latitude": "47.2167", "longitude": "16.2167"}, {"country_code": "AT", "postal_code": "7501", "place_name": "Spitzzicken / Hrvatski Cikljin", "latitude": "47.281", "longitude": "16.2808"}, {"country_code": "AT", "postal_code": "7503", "place_name": "Gro\u00dfpetersdorf", "latitude": "47.2389", "longitude": "16.3178"}, {"country_code": "AT", "postal_code": "7503", "place_name": "Welgersdorf", "latitude": "47.2333", "longitude": "16.35"}, {"country_code": "AT", "postal_code": "7503", "place_name": "D\u00fcrnbach im Burgenland / Vincjet", "latitude": "47.2485", "longitude": "16.2906"}, {"country_code": "AT", "postal_code": "7503", "place_name": "Zuberbach / Sabara", "latitude": "47.2485", "longitude": "16.2906"}, {"country_code": "AT", "postal_code": "7503", "place_name": "Kleinzicken", "latitude": "47.2485", "longitude": "16.2906"}, {"country_code": "AT", "postal_code": "7503", "place_name": "Jabing", "latitude": "47.25", "longitude": "16.2833"}, {"country_code": "AT", "postal_code": "7503", "place_name": "Kleinpetersdorf", "latitude": "47.2167", "longitude": "16.3333"}, {"country_code": "AT", "postal_code": "7503", "place_name": "Miedlingsdorf", "latitude": "47.2667", "longitude": "16.3167"}, {"country_code": "AT", "postal_code": "7511", "place_name": "Mischendorf", "latitude": "47.1833", "longitude": "16.3167"}, {"country_code": "AT", "postal_code": "7511", "place_name": "Rohrbach an der Teich", "latitude": "47.2", "longitude": "16.2833"}, {"country_code": "AT", "postal_code": "7511", "place_name": "Neuhaus in der Wart", "latitude": "47.2171", "longitude": "16.2635"}, {"country_code": "AT", "postal_code": "7511", "place_name": "Gro\u00dfbachselten", "latitude": "47.2167", "longitude": "16.3"}, {"country_code": "AT", "postal_code": "7511", "place_name": "Kotezicken", "latitude": "47.2", "longitude": "16.35"}, {"country_code": "AT", "postal_code": "7511", "place_name": "Kleinbachselten", "latitude": "47.2", "longitude": "16.3"}, {"country_code": "AT", "postal_code": "7512", "place_name": "Badersdorf", "latitude": "47.2", "longitude": "16.3667"}, {"country_code": "AT", "postal_code": "7512", "place_name": "Harmisch", "latitude": "47.1478", "longitude": "16.3823"}, {"country_code": "AT", "postal_code": "7512", "place_name": "Kirchfidisch", "latitude": "47.1609", "longitude": "16.3485"}, {"country_code": "AT", "postal_code": "7512", "place_name": "Kohfidisch", "latitude": "47.1747", "longitude": "16.357"}, {"country_code": "AT", "postal_code": "7531", "place_name": "Kemeten", "latitude": "47.2333", "longitude": "16.15"}, {"country_code": "AT", "postal_code": "7532", "place_name": "Litzelsdorf", "latitude": "47.2", "longitude": "16.15"}, {"country_code": "AT", "postal_code": "8240", "place_name": "Pinkafeld", "latitude": "47.3667", "longitude": "16.1167"}, {"country_code": "AT", "postal_code": "9020", "place_name": "Klagenfurt,12.Bez.:St. Martin", "latitude": "46.6506", "longitude": "14.3539"}, {"country_code": "AT", "postal_code": "9020", "place_name": "Klagenfurt,10.Bez.:St. Peter", "latitude": "46.6506", "longitude": "14.3539"}, {"country_code": "AT", "postal_code": "9020", "place_name": "Klagenfurt,08.Bez.:Villacher Vorstadt", "latitude": "46.6506", "longitude": "14.3539"}, {"country_code": "AT", "postal_code": "9020", "place_name": "Klagenfurt,11.Bez.:St. Ruprecht", "latitude": "46.6506", "longitude": "14.3539"}, {"country_code": "AT", "postal_code": "9020", "place_name": "Klagenfurt,07.Bez.:Viktringer Vorstadt", "latitude": "46.6506", "longitude": "14.3539"}, {"country_code": "AT", "postal_code": "9020", "place_name": "Klagenfurt,05.Bez.:St.Veiter Vorstadt", "latitude": "46.6506", "longitude": "14.3539"}, {"country_code": "AT", "postal_code": "9020", "place_name": "Klagenfurt,04.Bez.:Innere Stadt", "latitude": "46.6506", "longitude": "14.3539"}, {"country_code": "AT", "postal_code": "9020", "place_name": "Klagenfurt,03.Bez.:Innere Stadt", "latitude": "46.6506", "longitude": "14.3539"}, {"country_code": "AT", "postal_code": "9020", "place_name": "Klagenfurt,02.Bez.:Innere Stadt", "latitude": "46.6506", "longitude": "14.3539"}, {"country_code": "AT", "postal_code": "9020", "place_name": "Klagenfurt,01.Bez.:Innere Stadt", "latitude": "46.6506", "longitude": "14.3539"}, {"country_code": "AT", "postal_code": "9020", "place_name": "Klagenfurt,15.Bez.:H\u00f6rtendorf", "latitude": "46.6506", "longitude": "14.3539"}, {"country_code": "AT", "postal_code": "9020", "place_name": "Klagenfurt,13.Bez.:Viktring", "latitude": "46.6506", "longitude": "14.3539"}, {"country_code": "AT", "postal_code": "9020", "place_name": "Klagenfurt,09.Bez.:Annabichl", "latitude": "46.6506", "longitude": "14.3539"}, {"country_code": "AT", "postal_code": "9020", "place_name": "Klagenfurt,06.Bez.:V\u00f6lkermarkt.Vorst.", "latitude": "46.6506", "longitude": "14.3539"}, {"country_code": "AT", "postal_code": "9061", "place_name": "Klagenfurt,14.Bez.:W\u00f6lfnitz", "latitude": "46.6566", "longitude": "14.345"}, {"country_code": "AT", "postal_code": "9061", "place_name": "Klagenfurt,09.Bez.:Annabichl", "latitude": "46.6566", "longitude": "14.345"}, {"country_code": "AT", "postal_code": "9063", "place_name": "Klagenfurt,14.Bez.:W\u00f6lfnitz", "latitude": "46.6566", "longitude": "14.345"}, {"country_code": "AT", "postal_code": "9065", "place_name": "Klagenfurt,10.Bez.:St. Peter", "latitude": "46.6566", "longitude": "14.345"}, {"country_code": "AT", "postal_code": "9073", "place_name": "Klagenfurt,13.Bez.:Viktring", "latitude": "46.5662", "longitude": "14.1898"}, {"country_code": "AT", "postal_code": "9073", "place_name": "Klagenfurt,11.Bez.:St. Ruprecht", "latitude": "46.5662", "longitude": "14.1898"}, {"country_code": "AT", "postal_code": "9201", "place_name": "Klagenfurt,14.Bez.:W\u00f6lfnitz", "latitude": "46.6372", "longitude": "14.1992"}, {"country_code": "AT", "postal_code": "9500", "place_name": "Drautschen", "latitude": "46.6173", "longitude": "13.8349"}, {"country_code": "AT", "postal_code": "9500", "place_name": "Goritschach", "latitude": "46.6167", "longitude": "13.8167"}, {"country_code": "AT", "postal_code": "9500", "place_name": "Mittewald ob Villach", "latitude": "46.6333", "longitude": "13.7667"}, {"country_code": "AT", "postal_code": "9500", "place_name": "Maria Gail", "latitude": "46.5922", "longitude": "13.8808"}, {"country_code": "AT", "postal_code": "9500", "place_name": "Villach-St. Martin", "latitude": "46.6206", "longitude": "13.8067"}, {"country_code": "AT", "postal_code": "9500", "place_name": "Zauchen", "latitude": "46.6167", "longitude": "13.9"}, {"country_code": "AT", "postal_code": "9500", "place_name": "Villach-St. Agathen und Perau", "latitude": "46.6173", "longitude": "13.8349"}, {"country_code": "AT", "postal_code": "9500", "place_name": "Villach-Lind", "latitude": "46.6173", "longitude": "13.8349"}, {"country_code": "AT", "postal_code": "9500", "place_name": "Villach-Seebach-Wasenboden", "latitude": "46.6173", "longitude": "13.8349"}, {"country_code": "AT", "postal_code": "9500", "place_name": "Kumitz", "latitude": "46.6173", "longitude": "13.8349"}, {"country_code": "AT", "postal_code": "9500", "place_name": "Villach-Innere Stadt", "latitude": "46.6173", "longitude": "13.8349"}, {"country_code": "AT", "postal_code": "9500", "place_name": "Dobrova", "latitude": "46.6173", "longitude": "13.8349"}, {"country_code": "AT", "postal_code": "9500", "place_name": "Turdanitsch", "latitude": "46.5833", "longitude": "13.8667"}, {"country_code": "AT", "postal_code": "9500", "place_name": "Duel", "latitude": "46.6173", "longitude": "13.8349"}, {"country_code": "AT", "postal_code": "9500", "place_name": "Neulandskron", "latitude": "46.6173", "longitude": "13.8349"}, {"country_code": "AT", "postal_code": "9500", "place_name": "Wei\u00dfenbach", "latitude": "46.6173", "longitude": "13.8349"}, {"country_code": "AT", "postal_code": "9500", "place_name": "Neufellach", "latitude": "46.6173", "longitude": "13.8349"}, {"country_code": "AT", "postal_code": "9500", "place_name": "Rennstein", "latitude": "46.6173", "longitude": "13.8349"}, {"country_code": "AT", "postal_code": "9500", "place_name": "Villach-Warmbad-Judendorf", "latitude": "46.6072", "longitude": "13.7969"}, {"country_code": "AT", "postal_code": "9500", "place_name": "St. Leonhard", "latitude": "46.6167", "longitude": "13.85"}, {"country_code": "AT", "postal_code": "9500", "place_name": "Villach-Auen", "latitude": "46.5996", "longitude": "13.8439"}, {"country_code": "AT", "postal_code": "9500", "place_name": "Villach-V\u00f6lkendorf", "latitude": "46.6167", "longitude": "13.8333"}, {"country_code": "AT", "postal_code": "9500", "place_name": "Kleinsattel", "latitude": "46.6", "longitude": "13.8833"}, {"country_code": "AT", "postal_code": "9500", "place_name": "Obere Fellach", "latitude": "46.629", "longitude": "13.809"}, {"country_code": "AT", "postal_code": "9500", "place_name": "St. Michael", "latitude": "46.6286", "longitude": "13.91"}, {"country_code": "AT", "postal_code": "9500", "place_name": "Untere Fellach", "latitude": "46.625", "longitude": "13.8268"}, {"country_code": "AT", "postal_code": "9500", "place_name": "Pog\u00f6riach", "latitude": "46.6167", "longitude": "13.8"}, {"country_code": "AT", "postal_code": "9500", "place_name": "Prossowitsch", "latitude": "46.6", "longitude": "13.8833"}, {"country_code": "AT", "postal_code": "9500", "place_name": "Gro\u00dfvassach", "latitude": "46.6273", "longitude": "13.8495"}, {"country_code": "AT", "postal_code": "9500", "place_name": "Heiligengeist", "latitude": "46.6125", "longitude": "13.7478"}, {"country_code": "AT", "postal_code": "9500", "place_name": "Kleinvassach", "latitude": "46.6309", "longitude": "13.8528"}, {"country_code": "AT", "postal_code": "9500", "place_name": "Oberwollanig", "latitude": "46.6506", "longitude": "13.8339"}, {"country_code": "AT", "postal_code": "9500", "place_name": "Tschinowitsch", "latitude": "46.5833", "longitude": "13.85"}, {"country_code": "AT", "postal_code": "9500", "place_name": "Gritschach", "latitude": "46.6346", "longitude": "13.8371"}, {"country_code": "AT", "postal_code": "9500", "place_name": "Landskron", "latitude": "46.6167", "longitude": "13.8833"}, {"country_code": "AT", "postal_code": "9500", "place_name": "Unterwollanig", "latitude": "46.6372", "longitude": "13.8272"}, {"country_code": "AT", "postal_code": "9500", "place_name": "St. Georgen", "latitude": "46.6333", "longitude": "13.8"}, {"country_code": "AT", "postal_code": "9504", "place_name": "Villach-Auen", "latitude": "46.5996", "longitude": "13.8439"}, {"country_code": "AT", "postal_code": "9504", "place_name": "Villach-V\u00f6lkendorf", "latitude": "46.6167", "longitude": "13.8333"}, {"country_code": "AT", "postal_code": "9504", "place_name": "Villach-Warmbad-Judendorf", "latitude": "46.6072", "longitude": "13.7969"}, {"country_code": "AT", "postal_code": "9523", "place_name": "Kumitz", "latitude": "46.6513", "longitude": "13.8788"}, {"country_code": "AT", "postal_code": "9523", "place_name": "Urlaken", "latitude": "46.6513", "longitude": "13.8788"}, {"country_code": "AT", "postal_code": "9523", "place_name": "Neulandskron", "latitude": "46.6513", "longitude": "13.8788"}, {"country_code": "AT", "postal_code": "9523", "place_name": "Heiligen Gestade", "latitude": "46.6513", "longitude": "13.8788"}, {"country_code": "AT", "postal_code": "9523", "place_name": "Landskron", "latitude": "46.6167", "longitude": "13.8833"}, {"country_code": "AT", "postal_code": "9523", "place_name": "Gratschach", "latitude": "46.6333", "longitude": "13.9"}, {"country_code": "AT", "postal_code": "9523", "place_name": "St. Ruprecht", "latitude": "46.6453", "longitude": "13.8694"}, {"country_code": "AT", "postal_code": "9523", "place_name": "St. Andr\u00e4", "latitude": "46.6442", "longitude": "13.8922"}, {"country_code": "AT", "postal_code": "9524", "place_name": "Landskron", "latitude": "46.6167", "longitude": "13.8833"}, {"country_code": "AT", "postal_code": "9524", "place_name": "St. Magdalen", "latitude": "46.6167", "longitude": "13.8833"}, {"country_code": "AT", "postal_code": "9524", "place_name": "Villach-Seebach-Wasenboden", "latitude": "46.6513", "longitude": "13.8788"}, {"country_code": "AT", "postal_code": "9524", "place_name": "St. Ulrich", "latitude": "46.6089", "longitude": "13.9164"}, {"country_code": "AT", "postal_code": "9580", "place_name": "Graschitz", "latitude": "46.5645", "longitude": "13.8748"}, {"country_code": "AT", "postal_code": "9580", "place_name": "Serai", "latitude": "46.5645", "longitude": "13.8748"}, {"country_code": "AT", "postal_code": "9580", "place_name": "Greuth", "latitude": "46.5645", "longitude": "13.8748"}, {"country_code": "AT", "postal_code": "9580", "place_name": "St. Niklas an der Drau", "latitude": "46.6042", "longitude": "13.8644"}, {"country_code": "AT", "postal_code": "9580", "place_name": "Kratschach", "latitude": "46.6", "longitude": "13.9"}, {"country_code": "AT", "postal_code": "9580", "place_name": "Gro\u00dfsattel", "latitude": "46.6", "longitude": "13.9167"}, {"country_code": "AT", "postal_code": "9580", "place_name": "Bogenfeld", "latitude": "46.5833", "longitude": "13.9333"}, {"country_code": "AT", "postal_code": "9580", "place_name": "Mittewald", "latitude": "46.5897", "longitude": "13.8906"}, {"country_code": "AT", "postal_code": "9580", "place_name": "Egg am Faaker See", "latitude": "46.5868", "longitude": "13.9337"}, {"country_code": "AT", "postal_code": "9580", "place_name": "Drobollach am Faaker See", "latitude": "46.5833", "longitude": "13.9167"}, {"country_code": "AT", "postal_code": "9585", "place_name": "Villach-Warmbad-Judendorf", "latitude": "46.6072", "longitude": "13.7969"}, {"country_code": "AT", "postal_code": "9586", "place_name": "Untersch\u00fctt", "latitude": "46.5656", "longitude": "13.7861"}, {"country_code": "AT", "postal_code": "9586", "place_name": "Unterfederaun", "latitude": "46.5758", "longitude": "13.7778"}, {"country_code": "AT", "postal_code": "9586", "place_name": "Oberfederaun", "latitude": "46.5833", "longitude": "13.8167"}, {"country_code": "AT", "postal_code": "9586", "place_name": "Obersch\u00fctt", "latitude": "46.5697", "longitude": "13.7581"}, {"country_code": "AT", "postal_code": "9587", "place_name": "Obersch\u00fctt", "latitude": "46.5697", "longitude": "13.7581"}, {"country_code": "AT", "postal_code": "9614", "place_name": "Bodenhof", "latitude": "46.5974", "longitude": "13.5657"}, {"country_code": "AT", "postal_code": "9614", "place_name": "Vorderberg", "latitude": "46.5969", "longitude": "13.5233"}, {"country_code": "AT", "postal_code": "9615", "place_name": "Schinzengraben", "latitude": "46.5974", "longitude": "13.5657"}, {"country_code": "AT", "postal_code": "9615", "place_name": "K\u00f6stendorf", "latitude": "46.6167", "longitude": "13.5"}, {"country_code": "AT", "postal_code": "9615", "place_name": "Schinzengraben", "latitude": "46.5974", "longitude": "13.5657"}, {"country_code": "AT", "postal_code": "9615", "place_name": "Wittenig", "latitude": "46.5974", "longitude": "13.5657"}, {"country_code": "AT", "postal_code": "9615", "place_name": "Siebenbr\u00fcnn", "latitude": "46.5974", "longitude": "13.5657"}, {"country_code": "AT", "postal_code": "9615", "place_name": "Presseggen", "latitude": "46.5974", "longitude": "13.5657"}, {"country_code": "AT", "postal_code": "9615", "place_name": "Zuchen", "latitude": "46.5974", "longitude": "13.5657"}, {"country_code": "AT", "postal_code": "9615", "place_name": "M\u00f6derndorf", "latitude": "46.6128", "longitude": "13.3658"}, {"country_code": "AT", "postal_code": "9615", "place_name": "F\u00f6rolach", "latitude": "46.6328", "longitude": "13.4717"}, {"country_code": "AT", "postal_code": "9615", "place_name": "Latschach", "latitude": "46.6", "longitude": "13.4667"}, {"country_code": "AT", "postal_code": "9615", "place_name": "G\u00f6rtschach", "latitude": "46.6128", "longitude": "13.465"}, {"country_code": "AT", "postal_code": "9620", "place_name": "Jadersdorf", "latitude": "46.6631", "longitude": "13.3253"}, {"country_code": "AT", "postal_code": "9620", "place_name": "Sonnenalpe Nassfeld", "latitude": "46.5633", "longitude": "13.2739"}, {"country_code": "AT", "postal_code": "9620", "place_name": "Presseggersee", "latitude": "46.631", "longitude": "13.438"}, {"country_code": "AT", "postal_code": "9620", "place_name": "Mitschig", "latitude": "46.6244", "longitude": "13.3392"}, {"country_code": "AT", "postal_code": "9620", "place_name": "Guggenberg", "latitude": "46.6333", "longitude": "13.3"}, {"country_code": "AT", "postal_code": "9620", "place_name": "St. Lorenzen im Gitschtal", "latitude": "46.65", "longitude": "13.3"}, {"country_code": "AT", "postal_code": "9620", "place_name": "Untervellach", "latitude": "46.6214", "longitude": "13.3931"}, {"country_code": "AT", "postal_code": "9620", "place_name": "Hermagor", "latitude": "46.6272", "longitude": "13.3672"}, {"country_code": "AT", "postal_code": "9620", "place_name": "Kraschach", "latitude": "46.6333", "longitude": "13.3167"}, {"country_code": "AT", "postal_code": "9620", "place_name": "Kameritsch", "latitude": "46.6333", "longitude": "13.3167"}, {"country_code": "AT", "postal_code": "9620", "place_name": "Radnig", "latitude": "46.6444", "longitude": "13.3639"}, {"country_code": "AT", "postal_code": "9620", "place_name": "M\u00f6derndorf", "latitude": "46.6128", "longitude": "13.3658"}, {"country_code": "AT", "postal_code": "9620", "place_name": "Lassendorf", "latitude": "46.6619", "longitude": "13.3069"}, {"country_code": "AT", "postal_code": "9620", "place_name": "Oberm\u00f6schach", "latitude": "46.6389", "longitude": "13.3492"}, {"country_code": "AT", "postal_code": "9620", "place_name": "Neudorf", "latitude": "46.6296", "longitude": "13.3962"}, {"country_code": "AT", "postal_code": "9620", "place_name": "Neuprie\u00dfenegg", "latitude": "46.6296", "longitude": "13.3962"}, {"country_code": "AT", "postal_code": "9620", "place_name": "Obervellach", "latitude": "46.6335", "longitude": "13.3955"}, {"country_code": "AT", "postal_code": "9620", "place_name": "Brunn", "latitude": "46.65", "longitude": "13.3167"}, {"country_code": "AT", "postal_code": "9620", "place_name": "Braunitzen", "latitude": "46.6296", "longitude": "13.3962"}, {"country_code": "AT", "postal_code": "9620", "place_name": "Potschach", "latitude": "46.6296", "longitude": "13.3962"}, {"country_code": "AT", "postal_code": "9620", "place_name": "Wulzentratten", "latitude": "46.6667", "longitude": "13.2833"}, {"country_code": "AT", "postal_code": "9620", "place_name": "Bergl", "latitude": "46.6296", "longitude": "13.3962"}, {"country_code": "AT", "postal_code": "9620", "place_name": "Aigen", "latitude": "46.6296", "longitude": "13.3962"}, {"country_code": "AT", "postal_code": "9620", "place_name": "Podlanig", "latitude": "46.6296", "longitude": "13.3962"}, {"country_code": "AT", "postal_code": "9620", "place_name": "Postran", "latitude": "46.6296", "longitude": "13.3962"}, {"country_code": "AT", "postal_code": "9620", "place_name": "K\u00fchweg", "latitude": "46.6333", "longitude": "13.3667"}, {"country_code": "AT", "postal_code": "9620", "place_name": "Burgstall", "latitude": "46.6296", "longitude": "13.3962"}, {"country_code": "AT", "postal_code": "9620", "place_name": "Sonnleitn", "latitude": "46.6296", "longitude": "13.3962"}, {"country_code": "AT", "postal_code": "9620", "place_name": "Eggforst", "latitude": "46.6296", "longitude": "13.3962"}, {"country_code": "AT", "postal_code": "9620", "place_name": "Liesch", "latitude": "46.65", "longitude": "13.3333"}, {"country_code": "AT", "postal_code": "9620", "place_name": "Kreuth ob M\u00f6schach", "latitude": "46.6322", "longitude": "13.3438"}, {"country_code": "AT", "postal_code": "9620", "place_name": "Gr\u00fcnburg", "latitude": "46.6296", "longitude": "13.3962"}, {"country_code": "AT", "postal_code": "9620", "place_name": "Kh\u00fcnburg", "latitude": "46.6296", "longitude": "13.3962"}, {"country_code": "AT", "postal_code": "9620", "place_name": "Radnigforst", "latitude": "46.6296", "longitude": "13.3962"}, {"country_code": "AT", "postal_code": "9620", "place_name": "Watschig", "latitude": "46.6194", "longitude": "13.31"}, {"country_code": "AT", "postal_code": "9620", "place_name": "Unterm\u00f6schach", "latitude": "46.6333", "longitude": "13.35"}, {"country_code": "AT", "postal_code": "9620", "place_name": "Kra\u00df", "latitude": "46.6296", "longitude": "13.3962"}, {"country_code": "AT", "postal_code": "9620", "place_name": "K\u00fchwegboden", "latitude": "46.6296", "longitude": "13.3962"}, {"country_code": "AT", "postal_code": "9622", "place_name": "Langwiesen", "latitude": "46.6296", "longitude": "13.3962"}, {"country_code": "AT", "postal_code": "9622", "place_name": "Golz", "latitude": "46.6833", "longitude": "13.2667"}, {"country_code": "AT", "postal_code": "9622", "place_name": "Wei\u00dfbriach", "latitude": "46.6872", "longitude": "13.2469"}, {"country_code": "AT", "postal_code": "9622", "place_name": "Regitt", "latitude": "46.6296", "longitude": "13.3962"}, {"country_code": "AT", "postal_code": "9622", "place_name": "Leditz", "latitude": "46.6833", "longitude": "13.2667"}, {"country_code": "AT", "postal_code": "9623", "place_name": "Dragantschach", "latitude": "46.6296", "longitude": "13.3962"}, {"country_code": "AT", "postal_code": "9623", "place_name": "Nieselach", "latitude": "46.6296", "longitude": "13.3962"}, {"country_code": "AT", "postal_code": "9623", "place_name": "P\u00f6rtschach", "latitude": "46.6296", "longitude": "13.3962"}, {"country_code": "AT", "postal_code": "9623", "place_name": "St. Stefan an der Gail", "latitude": "46.6296", "longitude": "13.3962"}, {"country_code": "AT", "postal_code": "9623", "place_name": "Schm\u00f6lzing", "latitude": "46.6296", "longitude": "13.3962"}, {"country_code": "AT", "postal_code": "9623", "place_name": "Hadersdorf", "latitude": "46.6167", "longitude": "13.55"}, {"country_code": "AT", "postal_code": "9623", "place_name": "Sussawitsch", "latitude": "46.6296", "longitude": "13.3962"}, {"country_code": "AT", "postal_code": "9623", "place_name": "Bach", "latitude": "46.6167", "longitude": "13.5333"}, {"country_code": "AT", "postal_code": "9623", "place_name": "Karnitzen", "latitude": "46.6296", "longitude": "13.3962"}, {"country_code": "AT", "postal_code": "9623", "place_name": "K\u00f6stendorf", "latitude": "46.6167", "longitude": "13.5"}, {"country_code": "AT", "postal_code": "9623", "place_name": "Edling", "latitude": "46.6167", "longitude": "13.5167"}, {"country_code": "AT", "postal_code": "9623", "place_name": "Latschach", "latitude": "46.6296", "longitude": "13.3962"}, {"country_code": "AT", "postal_code": "9623", "place_name": "Tratten", "latitude": "46.6258", "longitude": "13.5386"}, {"country_code": "AT", "postal_code": "9623", "place_name": "Bichlhof", "latitude": "46.6296", "longitude": "13.3962"}, {"country_code": "AT", "postal_code": "9623", "place_name": "Matschiedl", "latitude": "46.63", "longitude": "13.5414"}, {"country_code": "AT", "postal_code": "9623", "place_name": "P\u00f6lland", "latitude": "46.6375", "longitude": "13.5219"}, {"country_code": "AT", "postal_code": "9623", "place_name": "St. Paul an der Gail", "latitude": "46.6186", "longitude": "13.5206"}, {"country_code": "AT", "postal_code": "9624", "place_name": "Mellach", "latitude": "46.6167", "longitude": "13.4167"}, {"country_code": "AT", "postal_code": "9624", "place_name": "Brugg", "latitude": "46.6167", "longitude": "13.4167"}, {"country_code": "AT", "postal_code": "9624", "place_name": "Latschach", "latitude": "46.6", "longitude": "13.4667"}, {"country_code": "AT", "postal_code": "9624", "place_name": "G\u00f6tzing", "latitude": "46.6167", "longitude": "13.4167"}, {"country_code": "AT", "postal_code": "9624", "place_name": "Fritzendorf", "latitude": "46.6333", "longitude": "13.4"}, {"country_code": "AT", "postal_code": "9624", "place_name": "Kreuth ob Mellweg", "latitude": "46.6134", "longitude": "13.4467"}, {"country_code": "AT", "postal_code": "9624", "place_name": "Dellach", "latitude": "46.6078", "longitude": "13.4458"}, {"country_code": "AT", "postal_code": "9624", "place_name": "Micheldorf", "latitude": "46.6167", "longitude": "13.4"}, {"country_code": "AT", "postal_code": "9624", "place_name": "Nampolach", "latitude": "46.6", "longitude": "13.4833"}, {"country_code": "AT", "postal_code": "9624", "place_name": "S\u00fc\u00dfenberg", "latitude": "46.6296", "longitude": "13.3962"}, {"country_code": "AT", "postal_code": "9624", "place_name": "Egg", "latitude": "46.6144", "longitude": "13.4086"}, {"country_code": "AT", "postal_code": "9624", "place_name": "Mellweg", "latitude": "46.6", "longitude": "13.45"}, {"country_code": "AT", "postal_code": "9624", "place_name": "Pa\u00dfriach", "latitude": "46.6167", "longitude": "13.45"}, {"country_code": "AT", "postal_code": "9624", "place_name": "Potschach", "latitude": "46.6296", "longitude": "13.3962"}, {"country_code": "AT", "postal_code": "9631", "place_name": "Waidegg", "latitude": "46.6427", "longitude": "13.1595"}, {"country_code": "AT", "postal_code": "9631", "place_name": "Kreuth ob Rattendorf", "latitude": "46.6386", "longitude": "13.2694"}, {"country_code": "AT", "postal_code": "9631", "place_name": "Kleinbergl", "latitude": "46.6358", "longitude": "13.2722"}, {"country_code": "AT", "postal_code": "9631", "place_name": "Anraun", "latitude": "46.6427", "longitude": "13.1595"}, {"country_code": "AT", "postal_code": "9631", "place_name": "Achleiten", "latitude": "46.6427", "longitude": "13.1595"}, {"country_code": "AT", "postal_code": "9631", "place_name": "Danz", "latitude": "46.6427", "longitude": "13.1595"}, {"country_code": "AT", "postal_code": "9631", "place_name": "Schimanberg", "latitude": "46.6427", "longitude": "13.1595"}, {"country_code": "AT", "postal_code": "9631", "place_name": "Schmidt", "latitude": "46.6427", "longitude": "13.1595"}, {"country_code": "AT", "postal_code": "9631", "place_name": "Tr\u00f6polach", "latitude": "46.6128", "longitude": "13.2756"}, {"country_code": "AT", "postal_code": "9631", "place_name": "Jenig", "latitude": "46.6277", "longitude": "13.2527"}, {"country_code": "AT", "postal_code": "9631", "place_name": "Schlanitzen", "latitude": "46.6", "longitude": "13.2833"}, {"country_code": "AT", "postal_code": "9631", "place_name": "Tramun", "latitude": "46.65", "longitude": "13.25"}, {"country_code": "AT", "postal_code": "9631", "place_name": "Rattendorf", "latitude": "46.6207", "longitude": "13.2538"}, {"country_code": "AT", "postal_code": "9632", "place_name": "Hochwart", "latitude": "46.6495", "longitude": "13.2199"}, {"country_code": "AT", "postal_code": "9632", "place_name": "St\u00f6fflerberg", "latitude": "46.6503", "longitude": "13.194"}, {"country_code": "AT", "postal_code": "9632", "place_name": "Oberd\u00f6bernitzen", "latitude": "46.6335", "longitude": "13.1765"}, {"country_code": "AT", "postal_code": "9632", "place_name": "Krieben", "latitude": "46.6427", "longitude": "13.1595"}, {"country_code": "AT", "postal_code": "9632", "place_name": "Wassertheurerberg", "latitude": "46.6427", "longitude": "13.1595"}, {"country_code": "AT", "postal_code": "9632", "place_name": "Tre\u00dfdorf", "latitude": "46.6399", "longitude": "13.1972"}, {"country_code": "AT", "postal_code": "9632", "place_name": "Unterd\u00f6bernitzen", "latitude": "46.6299", "longitude": "13.1907"}, {"country_code": "AT", "postal_code": "9632", "place_name": "Kirchbach", "latitude": "46.6416", "longitude": "13.1845"}, {"country_code": "AT", "postal_code": "9632", "place_name": "Staudachberg", "latitude": "46.6427", "longitude": "13.1595"}, {"country_code": "AT", "postal_code": "9633", "place_name": "Rinsenegg", "latitude": "46.6427", "longitude": "13.1595"}, {"country_code": "AT", "postal_code": "9633", "place_name": "Sch\u00f6nboden", "latitude": "46.6427", "longitude": "13.1595"}, {"country_code": "AT", "postal_code": "9633", "place_name": "Forst", "latitude": "46.6427", "longitude": "13.1595"}, {"country_code": "AT", "postal_code": "9633", "place_name": "Stranig", "latitude": "46.6355", "longitude": "13.1605"}, {"country_code": "AT", "postal_code": "9633", "place_name": "Rei\u00dfkofelbad", "latitude": "46.6427", "longitude": "13.1595"}, {"country_code": "AT", "postal_code": "9633", "place_name": "Reisach", "latitude": "46.6493", "longitude": "13.1535"}, {"country_code": "AT", "postal_code": "9633", "place_name": "Unterbuchach", "latitude": "46.6278", "longitude": "13.1415"}, {"country_code": "AT", "postal_code": "9634", "place_name": "Goderschach", "latitude": "46.6359", "longitude": "13.1419"}, {"country_code": "AT", "postal_code": "9634", "place_name": "Griminitzen", "latitude": "46.6433", "longitude": "13.115"}, {"country_code": "AT", "postal_code": "9634", "place_name": "Welzberg", "latitude": "46.6427", "longitude": "13.1595"}, {"country_code": "AT", "postal_code": "9634", "place_name": "Gundersheim", "latitude": "46.6473", "longitude": "13.1214"}, {"country_code": "AT", "postal_code": "9634", "place_name": "Lenzhof", "latitude": "46.6427", "longitude": "13.1595"}, {"country_code": "AT", "postal_code": "9634", "place_name": "Grafendorf", "latitude": "46.6584", "longitude": "13.1136"}, {"country_code": "AT", "postal_code": "9634", "place_name": "Bodenm\u00fchl", "latitude": "46.6427", "longitude": "13.1595"}, {"country_code": "AT", "postal_code": "9634", "place_name": "Oberbuchach", "latitude": "46.6315", "longitude": "13.1157"}, {"country_code": "AT", "postal_code": "9634", "place_name": "Katlingberg", "latitude": "46.6427", "longitude": "13.1595"}, {"country_code": "AT", "postal_code": "9634", "place_name": "Schmalzgrube", "latitude": "46.6427", "longitude": "13.1595"}, {"country_code": "AT", "postal_code": "9634", "place_name": "Rauth", "latitude": "46.6427", "longitude": "13.1595"}, {"country_code": "AT", "postal_code": "9635", "place_name": "Weidenburg", "latitude": "46.6475", "longitude": "13.0333"}, {"country_code": "AT", "postal_code": "9635", "place_name": "Stollwitz", "latitude": "46.6705", "longitude": "13.0494"}, {"country_code": "AT", "postal_code": "9635", "place_name": "Monsell", "latitude": "46.6427", "longitude": "13.1595"}, {"country_code": "AT", "postal_code": "9635", "place_name": "Gratzhof", "latitude": "46.6427", "longitude": "13.1595"}, {"country_code": "AT", "postal_code": "9635", "place_name": "R\u00fcben", "latitude": "46.6427", "longitude": "13.1595"}, {"country_code": "AT", "postal_code": "9635", "place_name": "Wieserberg", "latitude": "46.6427", "longitude": "13.1595"}, {"country_code": "AT", "postal_code": "9635", "place_name": "Dellach", "latitude": "46.6617", "longitude": "13.0797"}, {"country_code": "AT", "postal_code": "9635", "place_name": "Gurina", "latitude": "46.6427", "longitude": "13.1595"}, {"country_code": "AT", "postal_code": "9635", "place_name": "N\u00f6lbling", "latitude": "46.6461", "longitude": "13.0867"}, {"country_code": "AT", "postal_code": "9635", "place_name": "St. Daniel", "latitude": "46.6625", "longitude": "13.0575"}, {"country_code": "AT", "postal_code": "9635", "place_name": "Kronhof", "latitude": "46.65", "longitude": "13.0667"}, {"country_code": "AT", "postal_code": "9635", "place_name": "Goldberg", "latitude": "46.6744", "longitude": "13.0703"}, {"country_code": "AT", "postal_code": "9635", "place_name": "Leifling", "latitude": "46.6667", "longitude": "13.1"}, {"country_code": "AT", "postal_code": "9640", "place_name": "H\u00f6fling", "latitude": "46.6666", "longitude": "13.0374"}, {"country_code": "AT", "postal_code": "9640", "place_name": "Pl\u00f6cken", "latitude": "46.6167", "longitude": "12.95"}, {"country_code": "AT", "postal_code": "9640", "place_name": "Dobra", "latitude": "46.7", "longitude": "13"}, {"country_code": "AT", "postal_code": "9640", "place_name": "Laas", "latitude": "46.7", "longitude": "12.9889"}, {"country_code": "AT", "postal_code": "9640", "place_name": "W\u00fcrmlach", "latitude": "46.6566", "longitude": "13.0148"}, {"country_code": "AT", "postal_code": "9640", "place_name": "Sittmoos", "latitude": "46.6833", "longitude": "12.9333"}, {"country_code": "AT", "postal_code": "9640", "place_name": "Lanz", "latitude": "46.7", "longitude": "13"}, {"country_code": "AT", "postal_code": "9640", "place_name": "Gentschach", "latitude": "46.6769", "longitude": "12.9656"}, {"country_code": "AT", "postal_code": "9640", "place_name": "Kreuth", "latitude": "46.6822", "longitude": "12.9856"}, {"country_code": "AT", "postal_code": "9640", "place_name": "H\u00f6fling", "latitude": "46.6666", "longitude": "13.0374"}, {"country_code": "AT", "postal_code": "9640", "place_name": "Mauthen", "latitude": "46.6653", "longitude": "12.9986"}, {"country_code": "AT", "postal_code": "9640", "place_name": "Dolling", "latitude": "46.65", "longitude": "13.0167"}, {"country_code": "AT", "postal_code": "9640", "place_name": "Kosta", "latitude": "46.672", "longitude": "12.999"}, {"country_code": "AT", "postal_code": "9640", "place_name": "Nischlwitz", "latitude": "46.672", "longitude": "12.999"}, {"country_code": "AT", "postal_code": "9640", "place_name": "Passau", "latitude": "46.672", "longitude": "12.999"}, {"country_code": "AT", "postal_code": "9640", "place_name": "Buchach", "latitude": "46.672", "longitude": "12.999"}, {"country_code": "AT", "postal_code": "9640", "place_name": "Plon", "latitude": "46.672", "longitude": "12.999"}, {"country_code": "AT", "postal_code": "9640", "place_name": "Wetzmann", "latitude": "46.672", "longitude": "12.999"}, {"country_code": "AT", "postal_code": "9640", "place_name": "Gailberg", "latitude": "46.672", "longitude": "12.999"}, {"country_code": "AT", "postal_code": "9640", "place_name": "K\u00f6tschach", "latitude": "46.6817", "longitude": "13.0069"}, {"country_code": "AT", "postal_code": "9640", "place_name": "Mandorf", "latitude": "46.6833", "longitude": "13.0167"}, {"country_code": "AT", "postal_code": "9640", "place_name": "Krieghof", "latitude": "46.65", "longitude": "13.0333"}, {"country_code": "AT", "postal_code": "9640", "place_name": "Kreuzberg", "latitude": "46.672", "longitude": "12.999"}, {"country_code": "AT", "postal_code": "9640", "place_name": "Mahlbach", "latitude": "46.672", "longitude": "12.999"}, {"country_code": "AT", "postal_code": "9651", "place_name": "W\u00fcrda", "latitude": "46.6962", "longitude": "12.8153"}, {"country_code": "AT", "postal_code": "9651", "place_name": "St. Jakob im Lesachtal", "latitude": "46.6875", "longitude": "12.9389"}, {"country_code": "AT", "postal_code": "9651", "place_name": "Strajach", "latitude": "46.6849", "longitude": "12.9377"}, {"country_code": "AT", "postal_code": "9651", "place_name": "Aigen", "latitude": "46.6769", "longitude": "12.9206"}, {"country_code": "AT", "postal_code": "9652", "place_name": "Kornat", "latitude": "46.6908", "longitude": "12.8925"}, {"country_code": "AT", "postal_code": "9652", "place_name": "Mattling", "latitude": "46.6881", "longitude": "12.8683"}, {"country_code": "AT", "postal_code": "9652", "place_name": "Wodmaier", "latitude": "46.6837", "longitude": "12.8833"}, {"country_code": "AT", "postal_code": "9652", "place_name": "Nostra", "latitude": "46.6781", "longitude": "12.8722"}, {"country_code": "AT", "postal_code": "9652", "place_name": "Birnbaum", "latitude": "46.6847", "longitude": "12.8886"}, {"country_code": "AT", "postal_code": "9652", "place_name": "Egg", "latitude": "46.6962", "longitude": "12.8153"}, {"country_code": "AT", "postal_code": "9652", "place_name": "Podlanig", "latitude": "46.6962", "longitude": "12.8153"}, {"country_code": "AT", "postal_code": "9653", "place_name": "Klebas", "latitude": "46.6962", "longitude": "12.8153"}, {"country_code": "AT", "postal_code": "9653", "place_name": "Ladstatt", "latitude": "46.6962", "longitude": "12.8153"}, {"country_code": "AT", "postal_code": "9653", "place_name": "Oberring", "latitude": "46.6962", "longitude": "12.8153"}, {"country_code": "AT", "postal_code": "9653", "place_name": "Pallas", "latitude": "46.6962", "longitude": "12.8153"}, {"country_code": "AT", "postal_code": "9653", "place_name": "R\u00fcben", "latitude": "46.6962", "longitude": "12.8153"}, {"country_code": "AT", "postal_code": "9653", "place_name": "Durnthal", "latitude": "46.6962", "longitude": "12.8153"}, {"country_code": "AT", "postal_code": "9653", "place_name": "Stabenthein", "latitude": "46.6962", "longitude": "12.8153"}, {"country_code": "AT", "postal_code": "9653", "place_name": "Obergail", "latitude": "46.6958", "longitude": "12.8086"}, {"country_code": "AT", "postal_code": "9653", "place_name": "Niedergail", "latitude": "46.6836", "longitude": "12.8383"}, {"country_code": "AT", "postal_code": "9653", "place_name": "Tscheltsch", "latitude": "46.6962", "longitude": "12.8153"}, {"country_code": "AT", "postal_code": "9653", "place_name": "Assing", "latitude": "46.7075", "longitude": "12.8303"}, {"country_code": "AT", "postal_code": "9653", "place_name": "Liesing", "latitude": "46.6928", "longitude": "12.8186"}, {"country_code": "AT", "postal_code": "9654", "place_name": "Wiesen", "latitude": "46.7", "longitude": "12.7667"}, {"country_code": "AT", "postal_code": "9654", "place_name": "Tuffbad", "latitude": "46.7236", "longitude": "12.7683"}, {"country_code": "AT", "postal_code": "9654", "place_name": "St. Lorenzen im Lesachtal", "latitude": "46.7047", "longitude": "12.7839"}, {"country_code": "AT", "postal_code": "9654", "place_name": "Frohn", "latitude": "46.6947", "longitude": "12.7661"}, {"country_code": "AT", "postal_code": "9654", "place_name": "Xaveriberg", "latitude": "46.7119", "longitude": "12.745"}, {"country_code": "AT", "postal_code": "9655", "place_name": "Raut", "latitude": "46.7", "longitude": "12.7333"}, {"country_code": "AT", "postal_code": "9655", "place_name": "Salach", "latitude": "46.6962", "longitude": "12.8153"}, {"country_code": "AT", "postal_code": "9655", "place_name": "Promeggen", "latitude": "46.6962", "longitude": "12.8153"}, {"country_code": "AT", "postal_code": "9655", "place_name": "Moos", "latitude": "46.6978", "longitude": "12.7511"}, {"country_code": "AT", "postal_code": "9655", "place_name": "Tiefenbach", "latitude": "46.7", "longitude": "12.7333"}, {"country_code": "AT", "postal_code": "9655", "place_name": "Guggenberg", "latitude": "46.7167", "longitude": "12.7167"}, {"country_code": "AT", "postal_code": "9655", "place_name": "Sterzen", "latitude": "46.7", "longitude": "12.75"}, {"country_code": "AT", "postal_code": "9655", "place_name": "Maria Luggau", "latitude": "46.7075", "longitude": "12.7397"}, {"country_code": "AT", "postal_code": "9020", "place_name": "Niederdorf", "latitude": "46.6167", "longitude": "14.4"}, {"country_code": "AT", "postal_code": "9020", "place_name": "Gundersdorf", "latitude": "46.6556", "longitude": "14.3858"}, {"country_code": "AT", "postal_code": "9020", "place_name": "Walddorf", "latitude": "46.6642", "longitude": "14.3169"}, {"country_code": "AT", "postal_code": "9020", "place_name": "Gottesbichl", "latitude": "46.65", "longitude": "14.3667"}, {"country_code": "AT", "postal_code": "9020", "place_name": "Poppichl", "latitude": "46.6667", "longitude": "14.3"}, {"country_code": "AT", "postal_code": "9020", "place_name": "Aich an der Stra\u00dfe", "latitude": "46.6506", "longitude": "14.3539"}, {"country_code": "AT", "postal_code": "9020", "place_name": "Kreuzbichl", "latitude": "46.6506", "longitude": "14.3539"}, {"country_code": "AT", "postal_code": "9020", "place_name": "Portendorf", "latitude": "46.6506", "longitude": "14.3539"}, {"country_code": "AT", "postal_code": "9020", "place_name": "Farchern", "latitude": "46.6506", "longitude": "14.3539"}, {"country_code": "AT", "postal_code": "9061", "place_name": "Ziegelsdorf", "latitude": "46.6703", "longitude": "14.2036"}, {"country_code": "AT", "postal_code": "9061", "place_name": "Tultschnig", "latitude": "46.65", "longitude": "14.2333"}, {"country_code": "AT", "postal_code": "9061", "place_name": "Nu\u00dfberg", "latitude": "46.6566", "longitude": "14.345"}, {"country_code": "AT", "postal_code": "9061", "place_name": "Poppichl", "latitude": "46.6667", "longitude": "14.3"}, {"country_code": "AT", "postal_code": "9062", "place_name": "Nu\u00dfberg", "latitude": "46.6833", "longitude": "14.2167"}, {"country_code": "AT", "postal_code": "9062", "place_name": "Faning", "latitude": "46.6861", "longitude": "14.2222"}, {"country_code": "AT", "postal_code": "9062", "place_name": "Tuderschitz", "latitude": "46.65", "longitude": "14.2"}, {"country_code": "AT", "postal_code": "9062", "place_name": "Seigbichl", "latitude": "46.6661", "longitude": "14.2111"}, {"country_code": "AT", "postal_code": "9062", "place_name": "B\u00e4rndorf", "latitude": "46.665", "longitude": "14.1344"}, {"country_code": "AT", "postal_code": "9062", "place_name": "Moosburg", "latitude": "46.6575", "longitude": "14.1747"}, {"country_code": "AT", "postal_code": "9062", "place_name": "Kreggab", "latitude": "46.6333", "longitude": "14.1833"}, {"country_code": "AT", "postal_code": "9062", "place_name": "Gradenegg", "latitude": "46.6667", "longitude": "14.1667"}, {"country_code": "AT", "postal_code": "9062", "place_name": "Arlsdorf", "latitude": "46.6566", "longitude": "14.345"}, {"country_code": "AT", "postal_code": "9062", "place_name": "Wielen", "latitude": "46.6566", "longitude": "14.345"}, {"country_code": "AT", "postal_code": "9062", "place_name": "Witsch", "latitude": "46.6566", "longitude": "14.345"}, {"country_code": "AT", "postal_code": "9062", "place_name": "Dellach", "latitude": "46.6667", "longitude": "14.2"}, {"country_code": "AT", "postal_code": "9062", "place_name": "Freudenberg", "latitude": "46.6566", "longitude": "14.345"}, {"country_code": "AT", "postal_code": "9062", "place_name": "Polan", "latitude": "46.6566", "longitude": "14.345"}, {"country_code": "AT", "postal_code": "9062", "place_name": "Windischbach-Gegend", "latitude": "46.6566", "longitude": "14.345"}, {"country_code": "AT", "postal_code": "9062", "place_name": "Windischbach", "latitude": "46.6566", "longitude": "14.345"}, {"country_code": "AT", "postal_code": "9062", "place_name": "Unterlinden", "latitude": "46.6566", "longitude": "14.345"}, {"country_code": "AT", "postal_code": "9062", "place_name": "Prosintschach", "latitude": "46.6566", "longitude": "14.345"}, {"country_code": "AT", "postal_code": "9062", "place_name": "Malleberg", "latitude": "46.6566", "longitude": "14.345"}, {"country_code": "AT", "postal_code": "9062", "place_name": "Gabriel", "latitude": "46.6566", "longitude": "14.345"}, {"country_code": "AT", "postal_code": "9062", "place_name": "Stallhofen", "latitude": "46.6667", "longitude": "14.15"}, {"country_code": "AT", "postal_code": "9062", "place_name": "Ameisbichl", "latitude": "46.6628", "longitude": "14.2167"}, {"country_code": "AT", "postal_code": "9062", "place_name": "St. Peter", "latitude": "46.6566", "longitude": "14.345"}, {"country_code": "AT", "postal_code": "9062", "place_name": "Pernach", "latitude": "46.6667", "longitude": "14.1167"}, {"country_code": "AT", "postal_code": "9062", "place_name": "Tigring", "latitude": "46.6836", "longitude": "14.1867"}, {"country_code": "AT", "postal_code": "9062", "place_name": "Ziegelsdorf", "latitude": "46.6703", "longitude": "14.2036"}, {"country_code": "AT", "postal_code": "9062", "place_name": "Rosenau", "latitude": "46.6833", "longitude": "14.1833"}, {"country_code": "AT", "postal_code": "9062", "place_name": "Goritschitzen", "latitude": "46.65", "longitude": "14.2"}, {"country_code": "AT", "postal_code": "9062", "place_name": "Oberg\u00f6riach", "latitude": "46.6678", "longitude": "14.1228"}, {"country_code": "AT", "postal_code": "9062", "place_name": "Knasweg", "latitude": "46.6783", "longitude": "14.1436"}, {"country_code": "AT", "postal_code": "9062", "place_name": "Krainig", "latitude": "46.6566", "longitude": "14.345"}, {"country_code": "AT", "postal_code": "9062", "place_name": "Unterg\u00f6riach", "latitude": "46.6566", "longitude": "14.345"}, {"country_code": "AT", "postal_code": "9062", "place_name": "Simislau", "latitude": "46.6566", "longitude": "14.345"}, {"country_code": "AT", "postal_code": "9062", "place_name": "V\u00f6gelitz", "latitude": "46.6566", "longitude": "14.345"}, {"country_code": "AT", "postal_code": "9062", "place_name": "Ratzenegg", "latitude": "46.65", "longitude": "14.1833"}, {"country_code": "AT", "postal_code": "9063", "place_name": "Stuttern", "latitude": "46.6811", "longitude": "14.3928"}, {"country_code": "AT", "postal_code": "9063", "place_name": "Karnburg", "latitude": "46.6853", "longitude": "14.315"}, {"country_code": "AT", "postal_code": "9063", "place_name": "Meiselberg", "latitude": "46.6566", "longitude": "14.345"}, {"country_code": "AT", "postal_code": "9063", "place_name": "Rosendorf", "latitude": "46.6566", "longitude": "14.345"}, {"country_code": "AT", "postal_code": "9063", "place_name": "Sagrad", "latitude": "46.6566", "longitude": "14.345"}, {"country_code": "AT", "postal_code": "9063", "place_name": "Maria Saal", "latitude": "46.6808", "longitude": "14.3486"}, {"country_code": "AT", "postal_code": "9063", "place_name": "Bergl", "latitude": "46.6566", "longitude": "14.345"}, {"country_code": "AT", "postal_code": "9063", "place_name": "Gr\u00f6blach", "latitude": "46.6566", "longitude": "14.345"}, {"country_code": "AT", "postal_code": "9063", "place_name": "Judendorf", "latitude": "46.6566", "longitude": "14.345"}, {"country_code": "AT", "postal_code": "9063", "place_name": "M\u00f6derndorf", "latitude": "46.7", "longitude": "14.3333"}, {"country_code": "AT", "postal_code": "9063", "place_name": "Kuchling", "latitude": "46.6566", "longitude": "14.345"}, {"country_code": "AT", "postal_code": "9063", "place_name": "Lind", "latitude": "46.6566", "longitude": "14.345"}, {"country_code": "AT", "postal_code": "9063", "place_name": "Rotheis", "latitude": "46.6566", "longitude": "14.345"}, {"country_code": "AT", "postal_code": "9063", "place_name": "Ratzendorf", "latitude": "46.6566", "longitude": "14.345"}, {"country_code": "AT", "postal_code": "9063", "place_name": "Zell", "latitude": "46.6566", "longitude": "14.345"}, {"country_code": "AT", "postal_code": "9063", "place_name": "Kading", "latitude": "46.6949", "longitude": "14.337"}, {"country_code": "AT", "postal_code": "9063", "place_name": "Meilsberg", "latitude": "46.6566", "longitude": "14.345"}, {"country_code": "AT", "postal_code": "9063", "place_name": "Hart", "latitude": "46.6566", "longitude": "14.345"}, {"country_code": "AT", "postal_code": "9063", "place_name": "H\u00f6fern", "latitude": "46.6566", "longitude": "14.345"}, {"country_code": "AT", "postal_code": "9063", "place_name": "Thurn", "latitude": "46.6566", "longitude": "14.345"}, {"country_code": "AT", "postal_code": "9063", "place_name": "Wutschein", "latitude": "46.6566", "longitude": "14.345"}, {"country_code": "AT", "postal_code": "9063", "place_name": "Dellach", "latitude": "46.6566", "longitude": "14.345"}, {"country_code": "AT", "postal_code": "9063", "place_name": "Techmannsdorf", "latitude": "46.6566", "longitude": "14.345"}, {"country_code": "AT", "postal_code": "9063", "place_name": "Possau", "latitude": "46.7", "longitude": "14.3833"}, {"country_code": "AT", "postal_code": "9063", "place_name": "Wrie\u00dfnitz", "latitude": "46.6833", "longitude": "14.3"}, {"country_code": "AT", "postal_code": "9063", "place_name": "Winklern", "latitude": "46.6833", "longitude": "14.3667"}, {"country_code": "AT", "postal_code": "9063", "place_name": "Arndorf", "latitude": "46.6833", "longitude": "14.35"}, {"country_code": "AT", "postal_code": "9063", "place_name": "St. Michael am Zollfeld", "latitude": "46.7167", "longitude": "14.3833"}, {"country_code": "AT", "postal_code": "9063", "place_name": "Stuttern", "latitude": "46.6811", "longitude": "14.3928"}, {"country_code": "AT", "postal_code": "9063", "place_name": "Zollfeld", "latitude": "46.7", "longitude": "14.35"}, {"country_code": "AT", "postal_code": "9063", "place_name": "Stegendorf", "latitude": "46.6833", "longitude": "14.2833"}, {"country_code": "AT", "postal_code": "9063", "place_name": "Willersdorf", "latitude": "46.7167", "longitude": "14.3833"}, {"country_code": "AT", "postal_code": "9063", "place_name": "T\u00f6ltschach", "latitude": "46.6956", "longitude": "14.3672"}, {"country_code": "AT", "postal_code": "9063", "place_name": "P\u00f6rtschach am Berg", "latitude": "46.6986", "longitude": "14.3194"}, {"country_code": "AT", "postal_code": "9064", "place_name": "Deinsdorf", "latitude": "46.6667", "longitude": "14.4167"}, {"country_code": "AT", "postal_code": "9064", "place_name": "Timenitz", "latitude": "46.6833", "longitude": "14.4167"}, {"country_code": "AT", "postal_code": "9064", "place_name": "Wutschein", "latitude": "46.6667", "longitude": "14.45"}, {"country_code": "AT", "postal_code": "9064", "place_name": "Freudenberg", "latitude": "46.7", "longitude": "14.45"}, {"country_code": "AT", "postal_code": "9064", "place_name": "St. Thomas", "latitude": "46.6667", "longitude": "14.4"}, {"country_code": "AT", "postal_code": "9064", "place_name": "Latschach", "latitude": "46.7134", "longitude": "14.4389"}, {"country_code": "AT", "postal_code": "9064", "place_name": "Treffelsdorf", "latitude": "46.7", "longitude": "14.4"}, {"country_code": "AT", "postal_code": "9064", "place_name": "Zeiselberg", "latitude": "46.65", "longitude": "14.3833"}, {"country_code": "AT", "postal_code": "9064", "place_name": "Sch\u00f6pfendorf", "latitude": "46.6566", "longitude": "14.345"}, {"country_code": "AT", "postal_code": "9064", "place_name": "Lassendorf", "latitude": "46.6725", "longitude": "14.4178"}, {"country_code": "AT", "postal_code": "9064", "place_name": "Magdalensberg", "latitude": "46.6566", "longitude": "14.345"}, {"country_code": "AT", "postal_code": "9064", "place_name": "Leibnitz", "latitude": "46.6566", "longitude": "14.345"}, {"country_code": "AT", "postal_code": "9064", "place_name": "Geiersdorf", "latitude": "46.6833", "longitude": "14.4333"}, {"country_code": "AT", "postal_code": "9064", "place_name": "Vellach", "latitude": "46.6566", "longitude": "14.345"}, {"country_code": "AT", "postal_code": "9064", "place_name": "Reigersdorf", "latitude": "46.65", "longitude": "14.4"}, {"country_code": "AT", "postal_code": "9064", "place_name": "Sillebr\u00fccke", "latitude": "46.6667", "longitude": "14.4333"}, {"country_code": "AT", "postal_code": "9064", "place_name": "Kleing\u00f6rtschach", "latitude": "46.6566", "longitude": "14.345"}, {"country_code": "AT", "postal_code": "9064", "place_name": "Christofberg", "latitude": "46.6566", "longitude": "14.345"}, {"country_code": "AT", "postal_code": "9064", "place_name": "Ottmanach", "latitude": "46.7011", "longitude": "14.4311"}, {"country_code": "AT", "postal_code": "9064", "place_name": "St. Martin", "latitude": "46.6566", "longitude": "14.345"}, {"country_code": "AT", "postal_code": "9064", "place_name": "Kronabeth", "latitude": "46.6566", "longitude": "14.345"}, {"country_code": "AT", "postal_code": "9064", "place_name": "St. Lorenzen", "latitude": "46.6566", "longitude": "14.345"}, {"country_code": "AT", "postal_code": "9064", "place_name": "Pirk", "latitude": "46.6566", "longitude": "14.345"}, {"country_code": "AT", "postal_code": "9064", "place_name": "Gammersdorf", "latitude": "46.6925", "longitude": "14.4136"}, {"country_code": "AT", "postal_code": "9064", "place_name": "Haag", "latitude": "46.6566", "longitude": "14.345"}, {"country_code": "AT", "postal_code": "9064", "place_name": "D\u00fcrnfeld", "latitude": "46.6566", "longitude": "14.345"}, {"country_code": "AT", "postal_code": "9064", "place_name": "G\u00f6riach", "latitude": "46.6566", "longitude": "14.345"}, {"country_code": "AT", "postal_code": "9064", "place_name": "Gro\u00dfg\u00f6rtschach", "latitude": "46.6566", "longitude": "14.345"}, {"country_code": "AT", "postal_code": "9064", "place_name": "Hollern", "latitude": "46.6566", "longitude": "14.345"}, {"country_code": "AT", "postal_code": "9064", "place_name": "Eixendorf", "latitude": "46.6566", "longitude": "14.345"}, {"country_code": "AT", "postal_code": "9064", "place_name": "Eibelhof", "latitude": "46.6566", "longitude": "14.345"}, {"country_code": "AT", "postal_code": "9064", "place_name": "Pischeldorf", "latitude": "46.6833", "longitude": "14.45"}, {"country_code": "AT", "postal_code": "9064", "place_name": "Zinsdorf", "latitude": "46.65", "longitude": "14.4167"}, {"country_code": "AT", "postal_code": "9064", "place_name": "Matzendorf", "latitude": "46.6566", "longitude": "14.345"}, {"country_code": "AT", "postal_code": "9065", "place_name": "Tutzach / Tuce", "latitude": "46.6566", "longitude": "14.345"}, {"country_code": "AT", "postal_code": "9065", "place_name": "Lipizach / Lipice", "latitude": "46.6566", "longitude": "14.345"}, {"country_code": "AT", "postal_code": "9065", "place_name": "Zetterei", "latitude": "46.6566", "longitude": "14.345"}, {"country_code": "AT", "postal_code": "9065", "place_name": "Obitschach", "latitude": "46.6566", "longitude": "14.345"}, {"country_code": "AT", "postal_code": "9065", "place_name": "Priedl", "latitude": "46.6566", "longitude": "14.345"}, {"country_code": "AT", "postal_code": "9065", "place_name": "Rosenegg", "latitude": "46.6566", "longitude": "14.345"}, {"country_code": "AT", "postal_code": "9065", "place_name": "Moosberg", "latitude": "46.6566", "longitude": "14.345"}, {"country_code": "AT", "postal_code": "9065", "place_name": "Kohldorf", "latitude": "46.5667", "longitude": "14.45"}, {"country_code": "AT", "postal_code": "9065", "place_name": "Mieger", "latitude": "46.6566", "longitude": "14.345"}, {"country_code": "AT", "postal_code": "9065", "place_name": "Gradnitz", "latitude": "46.6566", "longitude": "14.345"}, {"country_code": "AT", "postal_code": "9065", "place_name": "Obermieger", "latitude": "46.5833", "longitude": "14.4333"}, {"country_code": "AT", "postal_code": "9065", "place_name": "Hinterberg", "latitude": "46.6566", "longitude": "14.345"}, {"country_code": "AT", "postal_code": "9065", "place_name": "Haber", "latitude": "46.6566", "longitude": "14.345"}, {"country_code": "AT", "postal_code": "9065", "place_name": "Zwanzgerberg", "latitude": "46.5833", "longitude": "14.35"}, {"country_code": "AT", "postal_code": "9065", "place_name": "Gurnitz", "latitude": "46.6", "longitude": "14.3833"}, {"country_code": "AT", "postal_code": "9065", "place_name": "Werouzach / Verovce", "latitude": "46.5833", "longitude": "14.3833"}, {"country_code": "AT", "postal_code": "9065", "place_name": "Ebenthal", "latitude": "46.6081", "longitude": "14.3642"}, {"country_code": "AT", "postal_code": "9065", "place_name": "Reichersdorf", "latitude": "46.6", "longitude": "14.3667"}, {"country_code": "AT", "postal_code": "9065", "place_name": "Goritschach", "latitude": "46.5667", "longitude": "14.4"}, {"country_code": "AT", "postal_code": "9065", "place_name": "Untermieger", "latitude": "46.5833", "longitude": "14.4333"}, {"country_code": "AT", "postal_code": "9065", "place_name": "Saager", "latitude": "46.5667", "longitude": "14.4667"}, {"country_code": "AT", "postal_code": "9065", "place_name": "Rottenstein", "latitude": "46.5667", "longitude": "14.4167"}, {"country_code": "AT", "postal_code": "9065", "place_name": "Berg", "latitude": "46.5833", "longitude": "14.45"}, {"country_code": "AT", "postal_code": "9065", "place_name": "Pfaffendorf", "latitude": "46.6", "longitude": "14.3833"}, {"country_code": "AT", "postal_code": "9065", "place_name": "Kosasmojach", "latitude": "46.5689", "longitude": "14.4308"}, {"country_code": "AT", "postal_code": "9065", "place_name": "Kossiach / Kozje", "latitude": "46.5678", "longitude": "14.4178"}, {"country_code": "AT", "postal_code": "9065", "place_name": "Rain", "latitude": "46.6053", "longitude": "14.3861"}, {"country_code": "AT", "postal_code": "9065", "place_name": "Kreuth / Rute", "latitude": "46.575", "longitude": "14.4269"}, {"country_code": "AT", "postal_code": "9065", "place_name": "Sabuatach", "latitude": "46.5836", "longitude": "14.4683"}, {"country_code": "AT", "postal_code": "9065", "place_name": "Zell", "latitude": "46.6", "longitude": "14.4"}, {"country_code": "AT", "postal_code": "9065", "place_name": "Schwarz / Dvorec", "latitude": "46.5667", "longitude": "14.3833"}, {"country_code": "AT", "postal_code": "9065", "place_name": "Radsberg / Radi\u0161e", "latitude": "46.5872", "longitude": "14.4189"}, {"country_code": "AT", "postal_code": "9071", "place_name": "Tretram", "latitude": "46.5667", "longitude": "14.2667"}, {"country_code": "AT", "postal_code": "9071", "place_name": "Tschachoritsch", "latitude": "46.55", "longitude": "14.2167"}, {"country_code": "AT", "postal_code": "9071", "place_name": "Trabesing", "latitude": "46.5653", "longitude": "14.2531"}, {"country_code": "AT", "postal_code": "9071", "place_name": "Neusa\u00df", "latitude": "46.5511", "longitude": "14.1869"}, {"country_code": "AT", "postal_code": "9071", "place_name": "St. Gandolf", "latitude": "46.5662", "longitude": "14.1898"}, {"country_code": "AT", "postal_code": "9071", "place_name": "Preliebl", "latitude": "46.5662", "longitude": "14.1898"}, {"country_code": "AT", "postal_code": "9071", "place_name": "Pl\u00f6schenberg", "latitude": "46.5662", "longitude": "14.1898"},