[{"country_code": "NZ", "postal_code": "0600", "place_name": "Blockhouse Bay", "latitude": "-36.9182", "longitude": "174.7002"}, {"country_code": "NZ", "postal_code": "0602", "place_name": "Kelston", "latitude": "-36.8982", "longitude": "174.6602"}, {"country_code": "NZ", "postal_code": "0604", "place_name": "Huia", "latitude": "-36.9983", "longitude": "174.5667"}, {"country_code": "NZ", "postal_code": "0610", "place_name": "Te Atatu South", "latitude": "-36.8647", "longitude": "174.6477"}, {"country_code": "NZ", "postal_code": "0612", "place_name": "McLaren Park", "latitude": "-36.8882", "longitude": "174.6102"}, {"country_code": "NZ", "postal_code": "0614", "place_name": "Swanson", "latitude": "-36.8667", "longitude": "174.5833"}, {"country_code": "NZ", "postal_code": "0618", "place_name": "Hobsonville", "latitude": "-36.8", "longitude": "174.6667"}, {"country_code": "NZ", "postal_code": "0620", "place_name": "Forrest Hill", "latitude": "-36.7645", "longitude": "174.7477"}, {"country_code": "NZ", "postal_code": "0622", "place_name": "Belmont", "latitude": "-36.8075", "longitude": "174.7864"}, {"country_code": "NZ", "postal_code": "0624", "place_name": "Devonport", "latitude": "-36.8282", "longitude": "174.7902"}, {"country_code": "NZ", "postal_code": "0626", "place_name": "Chatswood", "latitude": "-36.8184", "longitude": "174.7098"}, {"country_code": "NZ", "postal_code": "0627", "place_name": "North Shore", "latitude": "-36.8", "longitude": "174.75"}, {"country_code": "NZ", "postal_code": "0629", "place_name": "Marlborough", "latitude": "-36.7782", "longitude": "174.7202"}, {"country_code": "NZ", "postal_code": "0630", "place_name": "Browns Bay", "latitude": "-36.7193", "longitude": "174.7367"}, {"country_code": "NZ", "postal_code": "0632", "place_name": "Greenhithe", "latitude": "-36.7667", "longitude": "174.6833"}, {"country_code": "NZ", "postal_code": "0640", "place_name": "New Lynn", "latitude": "-36.9069", "longitude": "174.687"}, {"country_code": "NZ", "postal_code": "0641", "place_name": "Glen Eden", "latitude": "-36.9167", "longitude": "174.65"}, {"country_code": "NZ", "postal_code": "0642", "place_name": "Titirangi", "latitude": "-36.9375", "longitude": "174.6558"}, {"country_code": "NZ", "postal_code": "0643", "place_name": "Green Bay", "latitude": "-36.931", "longitude": "174.6749"}, {"country_code": "NZ", "postal_code": "0644", "place_name": "Blockhouse Bay", "latitude": "-36.9182", "longitude": "174.7002"}, {"country_code": "NZ", "postal_code": "0645", "place_name": "Glendene", "latitude": "-36.8882", "longitude": "174.6402"}, {"country_code": "NZ", "postal_code": "0650", "place_name": "Sunnyvale", "latitude": "-36.8882", "longitude": "174.6302"}, {"country_code": "NZ", "postal_code": "0651", "place_name": "Te Atatu", "latitude": "-36.8333", "longitude": "174.65"}, {"country_code": "NZ", "postal_code": "0652", "place_name": "Te Atatu South", "latitude": "-36.8647", "longitude": "174.6477"}, {"country_code": "NZ", "postal_code": "0653", "place_name": "Swanson", "latitude": "-36.8667", "longitude": "174.5833"}, {"country_code": "NZ", "postal_code": "0654", "place_name": "Te Atatu South", "latitude": "-36.8647", "longitude": "174.6477"}, {"country_code": "NZ", "postal_code": "0655", "place_name": "Swanson", "latitude": "-36.8667", "longitude": "174.5833"}, {"country_code": "NZ", "postal_code": "0656", "place_name": "Massey East", "latitude": "-36.8282", "longitude": "174.6202"}, {"country_code": "NZ", "postal_code": "0657", "place_name": "West Harbour", "latitude": "-36.8182", "longitude": "174.6102"}, {"country_code": "NZ", "postal_code": "0660", "place_name": "Waitakere", "latitude": "-36.8513", "longitude": "174.5448"}, {"country_code": "NZ", "postal_code": "0661", "place_name": "Te Atatu Peninsula", "latitude": "-36.841", "longitude": "174.6522"}, {"country_code": "NZ", "postal_code": "0662", "place_name": "Brighams Creek", "latitude": "-36.7833", "longitude": "174.6"}, {"country_code": "NZ", "postal_code": "0663", "place_name": "Massey East", "latitude": "-36.8282", "longitude": "174.6202"}, {"country_code": "NZ", "postal_code": "0740", "place_name": "Hauraki", "latitude": "-36.7996", "longitude": "174.778"}, {"country_code": "NZ", "postal_code": "0741", "place_name": "Milford", "latitude": "-36.7716", "longitude": "174.7659"}, {"country_code": "NZ", "postal_code": "0742", "place_name": "Torbay", "latitude": "-36.696", "longitude": "174.7512"}, {"country_code": "NZ", "postal_code": "0743", "place_name": "Forrest Hill", "latitude": "-36.7645", "longitude": "174.7477"}, {"country_code": "NZ", "postal_code": "0744", "place_name": "Devonport", "latitude": "-36.7775", "longitude": "174.7399"}, {"country_code": "NZ", "postal_code": "0745", "place_name": "Glenfield", "latitude": "-36.7826", "longitude": "174.7211"}, {"country_code": "NZ", "postal_code": "0746", "place_name": "Birkenhead", "latitude": "-36.8082", "longitude": "174.7202"}, {"country_code": "NZ", "postal_code": "0747", "place_name": "Marlborough", "latitude": "-36.7782", "longitude": "174.7202"}, {"country_code": "NZ", "postal_code": "0748", "place_name": "North Shore", "latitude": "-36.8", "longitude": "174.75"}, {"country_code": "NZ", "postal_code": "0749", "place_name": "Birkdale", "latitude": "-36.7972", "longitude": "174.7046"}, {"country_code": "NZ", "postal_code": "0750", "place_name": "Takapuna", "latitude": "-36.7917", "longitude": "174.7758"}, {"country_code": "NZ", "postal_code": "0751", "place_name": "Glenfield", "latitude": "-36.7826", "longitude": "174.7211"}, {"country_code": "NZ", "postal_code": "0752", "place_name": "Albany", "latitude": "-36.7167", "longitude": "174.7"}, {"country_code": "NZ", "postal_code": "0753", "place_name": "Browns Bay", "latitude": "-36.7193", "longitude": "174.7367"}, {"country_code": "NZ", "postal_code": "0754", "place_name": "Mairangi Bay", "latitude": "-36.7381", "longitude": "174.752"}, {"country_code": "NZ", "postal_code": "0755", "place_name": "Albany", "latitude": "-36.7167", "longitude": "174.7"}, {"country_code": "NZ", "postal_code": "0756", "place_name": "Paremoremo", "latitude": "-36.7667", "longitude": "174.6667"}, {"country_code": "NZ", "postal_code": "0757", "place_name": "Forrest Hill", "latitude": "-36.7645", "longitude": "174.7477"}, {"country_code": "NZ", "postal_code": "0758", "place_name": "Mairangi Bay", "latitude": "-36.7381", "longitude": "174.752"}, {"country_code": "NZ", "postal_code": "0772", "place_name": "Karekare", "latitude": "-36.9833", "longitude": "174.4833"}, {"country_code": "NZ", "postal_code": "0781", "place_name": "Piha", "latitude": "-36.95", "longitude": "174.4667"}, {"country_code": "NZ", "postal_code": "0782", "place_name": "Waitakere", "latitude": "-36.8513", "longitude": "174.5448"}, {"country_code": "NZ", "postal_code": "0792", "place_name": "Red Vale", "latitude": "-36.6833", "longitude": "174.7"}, {"country_code": "NZ", "postal_code": "0793", "place_name": "Coatesville", "latitude": "-36.7167", "longitude": "174.65"}, {"country_code": "NZ", "postal_code": "0794", "place_name": "Dairy Flat", "latitude": "-36.6667", "longitude": "174.65"}, {"country_code": "NZ", "postal_code": "0800", "place_name": "Helensville", "latitude": "-36.6782", "longitude": "174.4502"}, {"country_code": "NZ", "postal_code": "0810", "place_name": "Huapai", "latitude": "-36.7667", "longitude": "174.55"}, {"country_code": "NZ", "postal_code": "0812", "place_name": "Waimauku", "latitude": "-36.75", "longitude": "174.5"}, {"country_code": "NZ", "postal_code": "0814", "place_name": "West Harbour", "latitude": "-36.8182", "longitude": "174.6102"}, {"country_code": "NZ", "postal_code": "0820", "place_name": "Riverhead", "latitude": "-36.75", "longitude": "174.6"}, {"country_code": "NZ", "postal_code": "0830", "place_name": "Parakai", "latitude": "-36.65", "longitude": "174.4333"}, {"country_code": "NZ", "postal_code": "0840", "place_name": "Helensville", "latitude": "-36.6782", "longitude": "174.4502"}, {"country_code": "NZ", "postal_code": "0841", "place_name": "Huapai", "latitude": "-36.7667", "longitude": "174.55"}, {"country_code": "NZ", "postal_code": "0842", "place_name": "Pahitoa", "latitude": "-36.7833", "longitude": "174.4833"}, {"country_code": "NZ", "postal_code": "0843", "place_name": "Kaukapakapa", "latitude": "-36.6167", "longitude": "174.5"}, {"country_code": "NZ", "postal_code": "0871", "place_name": "Kaukapakapa", "latitude": "-36.6167", "longitude": "174.5"}, {"country_code": "NZ", "postal_code": "0873", "place_name": "Parakakau", "latitude": "-36.5833", "longitude": "174.6"}, {"country_code": "NZ", "postal_code": "0874", "place_name": "Parkhurst", "latitude": "-36.65", "longitude": "174.4"}, {"country_code": "NZ", "postal_code": "0875", "place_name": "Helensville", "latitude": "-36.6782", "longitude": "174.4502"}, {"country_code": "NZ", "postal_code": "0881", "place_name": "Woodhill", "latitude": "-36.75", "longitude": "174.4333"}, {"country_code": "NZ", "postal_code": "0882", "place_name": "Waimauku", "latitude": "-36.75", "longitude": "174.5"}, {"country_code": "NZ", "postal_code": "0883", "place_name": "Pahitoa", "latitude": "-36.7833", "longitude": "174.4833"}, {"country_code": "NZ", "postal_code": "0891", "place_name": "Huapai", "latitude": "-36.7667", "longitude": "174.55"}, {"country_code": "NZ", "postal_code": "0892", "place_name": "Kumeu", "latitude": "-36.7667", "longitude": "174.5667"}, {"country_code": "NZ", "postal_code": "0900", "place_name": "Wellsford", "latitude": "-36.2833", "longitude": "174.5167"}, {"country_code": "NZ", "postal_code": "0910", "place_name": "Warkworth", "latitude": "-36.4", "longitude": "174.6667"}, {"country_code": "NZ", "postal_code": "0920", "place_name": "Leigh", "latitude": "-36.2833", "longitude": "174.8167"}, {"country_code": "NZ", "postal_code": "0930", "place_name": "Whangaparaoa", "latitude": "-36.6333", "longitude": "174.7667"}, {"country_code": "NZ", "postal_code": "0931", "place_name": "Orewa", "latitude": "-36.5667", "longitude": "174.7"}, {"country_code": "NZ", "postal_code": "0932", "place_name": "Red Beach", "latitude": "-36.6124", "longitude": "174.6887"}, {"country_code": "NZ", "postal_code": "0940", "place_name": "Wellsford", "latitude": "-36.2833", "longitude": "174.5167"}, {"country_code": "NZ", "postal_code": "0941", "place_name": "Warkworth", "latitude": "-36.4", "longitude": "174.6667"}, {"country_code": "NZ", "postal_code": "0942", "place_name": "Snells Beach", "latitude": "-36.4082", "longitude": "174.7202"}, {"country_code": "NZ", "postal_code": "0943", "place_name": "Whangaparaoa", "latitude": "-36.6333", "longitude": "174.7667"}, {"country_code": "NZ", "postal_code": "0944", "place_name": "Silverdale", "latitude": "-36.6187", "longitude": "174.6776"}, {"country_code": "NZ", "postal_code": "0945", "place_name": "Red Beach", "latitude": "-36.6124", "longitude": "174.6887"}, {"country_code": "NZ", "postal_code": "0946", "place_name": "Orewa", "latitude": "-36.5667", "longitude": "174.7"}, {"country_code": "NZ", "postal_code": "0947", "place_name": "Leigh", "latitude": "-36.2833", "longitude": "174.8167"}, {"country_code": "NZ", "postal_code": "0948", "place_name": "Matakana", "latitude": "-36.35", "longitude": "174.7167"}, {"country_code": "NZ", "postal_code": "0950", "place_name": "Waiwera", "latitude": "-36.55", "longitude": "174.7167"}, {"country_code": "NZ", "postal_code": "0951", "place_name": "Puhoi", "latitude": "-36.5035", "longitude": "174.6676"}, {"country_code": "NZ", "postal_code": "0960", "place_name": "Okiwi", "latitude": "-36.15", "longitude": "175.4167"}, {"country_code": "NZ", "postal_code": "0961", "place_name": "Okupu", "latitude": "-36.2667", "longitude": "175.4333"}, {"country_code": "NZ", "postal_code": "0962", "place_name": "Tryphena", "latitude": "-36.3014", "longitude": "175.4893"}, {"country_code": "NZ", "postal_code": "0963", "place_name": "Port Fitzroy", "latitude": "-36.1667", "longitude": "175.35"}, {"country_code": "NZ", "postal_code": "0972", "place_name": "Wayby", "latitude": "-36.3333", "longitude": "174.5667"}, {"country_code": "NZ", "postal_code": "0973", "place_name": "Wharehine", "latitude": "-36.3167", "longitude": "174.4167"}, {"country_code": "NZ", "postal_code": "0974", "place_name": "Te Hana", "latitude": "-36.2667", "longitude": "174.5167"}, {"country_code": "NZ", "postal_code": "0977", "place_name": "Wharehine", "latitude": "-36.3167", "longitude": "174.4167"}, {"country_code": "NZ", "postal_code": "0981", "place_name": "Woodcocks", "latitude": "-36.45", "longitude": "174.5667"}, {"country_code": "NZ", "postal_code": "0982", "place_name": "Algies Bay", "latitude": "-36.4353", "longitude": "174.7403"}, {"country_code": "NZ", "postal_code": "0983", "place_name": "Pohuehue", "latitude": "-36.45", "longitude": "174.65"}, {"country_code": "NZ", "postal_code": "0984", "place_name": "Ahuroa", "latitude": "-36.4753", "longitude": "174.5542"}, {"country_code": "NZ", "postal_code": "0985", "place_name": "Big Omaha", "latitude": "-36.3333", "longitude": "174.7333"}, {"country_code": "NZ", "postal_code": "0986", "place_name": "Tawharanui", "latitude": "-36.3833", "longitude": "174.8"}, {"country_code": "NZ", "postal_code": "0991", "place_name": "Whangapara", "latitude": "-36.2333", "longitude": "175.4"}, {"country_code": "NZ", "postal_code": "0992", "place_name": "Silverdale", "latitude": "-36.6187", "longitude": "174.6776"}, {"country_code": "NZ", "postal_code": "0993", "place_name": "Red Beach", "latitude": "-36.6124", "longitude": "174.6887"}, {"country_code": "NZ", "postal_code": "1010", "place_name": "Auckland", "latitude": "-36.8485", "longitude": "174.7635"}, {"country_code": "NZ", "postal_code": "1011", "place_name": "Herne Bay", "latitude": "-36.8461", "longitude": "174.7292"}, {"country_code": "NZ", "postal_code": "1021", "place_name": "Arch Hill", "latitude": "-36.8597", "longitude": "174.7531"}, {"country_code": "NZ", "postal_code": "1022", "place_name": "Point Chevalier", "latitude": "-36.8633", "longitude": "174.7049"}, {"country_code": "NZ", "postal_code": "1023", "place_name": "Epsom", "latitude": "-36.8874", "longitude": "174.7706"}, {"country_code": "NZ", "postal_code": "1024", "place_name": "Epsom", "latitude": "-36.8874", "longitude": "174.7706"}, {"country_code": "NZ", "postal_code": "1025", "place_name": "Sandringham", "latitude": "-36.8882", "longitude": "174.7302"}, {"country_code": "NZ", "postal_code": "1026", "place_name": "Waterview", "latitude": "-36.8782", "longitude": "174.6902"}, {"country_code": "NZ", "postal_code": "1041", "place_name": "Mount Roskill", "latitude": "-36.9082", "longitude": "174.7302"}, {"country_code": "NZ", "postal_code": "1042", "place_name": "Hillsborough", "latitude": "-36.9182", "longitude": "174.7502"}, {"country_code": "NZ", "postal_code": "1050", "place_name": "Remuera", "latitude": "-36.8804", "longitude": "174.7982"}, {"country_code": "NZ", "postal_code": "1051", "place_name": "Ellerslie", "latitude": "-36.8982", "longitude": "174.8102"}, {"country_code": "NZ", "postal_code": "1052", "place_name": "Point Resolution", "latitude": "-36.8514", "longitude": "174.7894"}, {"country_code": "NZ", "postal_code": "1060", "place_name": "Penrose", "latitude": "-36.9167", "longitude": "174.8167"}, {"country_code": "NZ", "postal_code": "1061", "place_name": "Te Papapa", "latitude": "-36.9182", "longitude": "174.8002"}, {"country_code": "NZ", "postal_code": "1062", "place_name": "OTAHUHU", "latitude": "-36.9382", "longitude": "174.8402"}, {"country_code": "NZ", "postal_code": "1071", "place_name": "Kohimarama", "latitude": "-36.8582", "longitude": "174.8402"}, {"country_code": "NZ", "postal_code": "1072", "place_name": "Tamaki", "latitude": "-36.8882", "longitude": "174.8602"}, {"country_code": "NZ", "postal_code": "1081", "place_name": "Ostend", "latitude": "-36.7982", "longitude": "175.0402"}, {"country_code": "NZ", "postal_code": "1081", "place_name": "Surfdale", "latitude": "-36.7911", "longitude": "175.0257"}, {"country_code": "NZ", "postal_code": "1140", "place_name": "Mechanics Bay", "latitude": "-36.8382", "longitude": "174.7802"}, {"country_code": "NZ", "postal_code": "1141", "place_name": "Newmarket", "latitude": "-36.8698", "longitude": "174.7757"}, {"country_code": "NZ", "postal_code": "1142", "place_name": "Newton", "latitude": "-36.85", "longitude": "174.75"}, {"country_code": "NZ", "postal_code": "1143", "place_name": "Mechanics Bay", "latitude": "-36.8382", "longitude": "174.7802"}, {"country_code": "NZ", "postal_code": "1144", "place_name": "Freemans Bay", "latitude": "-36.8482", "longitude": "174.7402"}, {"country_code": "NZ", "postal_code": "1145", "place_name": "Grafton", "latitude": "-36.8603", "longitude": "174.7657"}, {"country_code": "NZ", "postal_code": "1147", "place_name": "Herne Bay", "latitude": "-36.8461", "longitude": "174.7292"}, {"country_code": "NZ", "postal_code": "1148", "place_name": "Auckland", "latitude": "-36.8485", "longitude": "174.7635"}, {"country_code": "NZ", "postal_code": "1149", "place_name": "Parnell", "latitude": "-36.8667", "longitude": "174.7833"}, {"country_code": "NZ", "postal_code": "1150", "place_name": "Auckland", "latitude": "-36.8485", "longitude": "174.7635"}, {"country_code": "NZ", "postal_code": "1151", "place_name": "Point Resolution", "latitude": "-36.8514", "longitude": "174.7894"}, {"country_code": "NZ", "postal_code": "1245", "place_name": "Western Springs", "latitude": "-36.8667", "longitude": "174.7333"}, {"country_code": "NZ", "postal_code": "1246", "place_name": "Mount Albert", "latitude": "-36.8782", "longitude": "174.7202"}, {"country_code": "NZ", "postal_code": "1340", "place_name": "Wesley", "latitude": "-36.8982", "longitude": "174.7302"}, {"country_code": "NZ", "postal_code": "1342", "place_name": "Balmoral", "latitude": "-36.8882", "longitude": "174.7402"}, {"country_code": "NZ", "postal_code": "1344", "place_name": "One Tree Hill", "latitude": "-36.8982", "longitude": "174.7802"}, {"country_code": "NZ", "postal_code": "1345", "place_name": "Royal Oak", "latitude": "-36.9082", "longitude": "174.7702"}, {"country_code": "NZ", "postal_code": "1346", "place_name": "Sandringham", "latitude": "-36.8882", "longitude": "174.7302"}, {"country_code": "NZ", "postal_code": "1347", "place_name": "One Tree Hill", "latitude": "-36.8982", "longitude": "174.7802"}, {"country_code": "NZ", "postal_code": "1348", "place_name": "Avondale", "latitude": "-36.8833", "longitude": "174.7"}, {"country_code": "NZ", "postal_code": "1349", "place_name": "Epsom", "latitude": "-36.8874", "longitude": "174.7706"}, {"country_code": "NZ", "postal_code": "1350", "place_name": "Owairaka", "latitude": "-36.8882", "longitude": "174.7102"}, {"country_code": "NZ", "postal_code": "1351", "place_name": "Balmoral", "latitude": "-36.8882", "longitude": "174.7402"}, {"country_code": "NZ", "postal_code": "1352", "place_name": "Mount Eden", "latitude": "-36.8816", "longitude": "174.762"}, {"country_code": "NZ", "postal_code": "1440", "place_name": "Three Kings", "latitude": "-36.8982", "longitude": "174.7502"}, {"country_code": "NZ", "postal_code": "1443", "place_name": "Lynfield", "latitude": "-36.9282", "longitude": "174.7202"}, {"country_code": "NZ", "postal_code": "1445", "place_name": "Waikowhai", "latitude": "-36.9282", "longitude": "174.7302"}, {"country_code": "NZ", "postal_code": "1446", "place_name": "Mount Eden", "latitude": "-36.8816", "longitude": "174.762"}, {"country_code": "NZ", "postal_code": "1541", "place_name": "Greenlane", "latitude": "-36.8906", "longitude": "174.7943"}, {"country_code": "NZ", "postal_code": "1542", "place_name": "Ellerslie", "latitude": "-36.8982", "longitude": "174.8102"}, {"country_code": "NZ", "postal_code": "1543", "place_name": "Greenlane", "latitude": "-36.8906", "longitude": "174.7943"}, {"country_code": "NZ", "postal_code": "1544", "place_name": "Ellerslie", "latitude": "-36.8982", "longitude": "174.8102"}, {"country_code": "NZ", "postal_code": "1545", "place_name": "Panmure", "latitude": "-36.8833", "longitude": "174.8667"}, {"country_code": "NZ", "postal_code": "1546", "place_name": "Ellerslie", "latitude": "-36.8982", "longitude": "174.8102"}, {"country_code": "NZ", "postal_code": "1640", "place_name": "Otahuhu", "latitude": "-36.9382", "longitude": "174.8402"}, {"country_code": "NZ", "postal_code": "1641", "place_name": "Panmure", "latitude": "-36.8833", "longitude": "174.8667"}, {"country_code": "NZ", "postal_code": "1642", "place_name": "Mount Wellington", "latitude": "-36.9082", "longitude": "174.8202"}, {"country_code": "NZ", "postal_code": "1643", "place_name": "Onehunga", "latitude": "-36.9182", "longitude": "174.7802"}, {"country_code": "NZ", "postal_code": "1740", "place_name": "Saint Heliers", "latitude": "-36.85", "longitude": "174.8667"}, {"country_code": "NZ", "postal_code": "1741", "place_name": "Panmure", "latitude": "-36.8833", "longitude": "174.8667"}, {"country_code": "NZ", "postal_code": "1742", "place_name": "Meadowbank", "latitude": "-36.8682", "longitude": "174.8202"}, {"country_code": "NZ", "postal_code": "1743", "place_name": "Point England", "latitude": "-36.8782", "longitude": "174.8602"}, {"country_code": "NZ", "postal_code": "1744", "place_name": "Mission Bay", "latitude": "-36.8547", "longitude": "174.8317"}, {"country_code": "NZ", "postal_code": "1745", "place_name": "Orakei", "latitude": "-36.85", "longitude": "174.8167"}, {"country_code": "NZ", "postal_code": "1746", "place_name": "New Windsor", "latitude": "-36.8982", "longitude": "174.7002"}, {"country_code": "NZ", "postal_code": "1840", "place_name": "Oneroa", "latitude": "-36.7782", "longitude": "175.0102"}, {"country_code": "NZ", "postal_code": "1841", "place_name": "Onetangi", "latitude": "-36.7833", "longitude": "175.0833"}, {"country_code": "NZ", "postal_code": "1842", "place_name": "Blackpool", "latitude": "-36.7889", "longitude": "175.0144"}, {"country_code": "NZ", "postal_code": "1843", "place_name": "Ostend", "latitude": "-36.7982", "longitude": "175.0402"}, {"country_code": "NZ", "postal_code": "1971", "place_name": "Onetangi", "latitude": "-36.7833", "longitude": "175.0833"}, {"country_code": "NZ", "postal_code": "2010", "place_name": "Pakuranga Heights", "latitude": "-36.9082", "longitude": "174.8802"}, {"country_code": "NZ", "postal_code": "2012", "place_name": "Eastern Beach", "latitude": "-36.8682", "longitude": "174.9002"}, {"country_code": "NZ", "postal_code": "2013", "place_name": "East Tamaki", "latitude": "-36.95", "longitude": "174.9"}, {"country_code": "NZ", "postal_code": "2014", "place_name": "Shelly Park", "latitude": "-36.9075", "longitude": "174.9459"}, {"country_code": "NZ", "postal_code": "2016", "place_name": "East Tamaki", "latitude": "-36.95", "longitude": "174.9"}, {"country_code": "NZ", "postal_code": "2018", "place_name": "Beachlands", "latitude": "-36.8833", "longitude": "175"}, {"country_code": "NZ", "postal_code": "2022", "place_name": "Mangere", "latitude": "-36.9681", "longitude": "174.7987"}, {"country_code": "NZ", "postal_code": "2023", "place_name": "Wiri", "latitude": "-36.9982", "longitude": "174.8602"}, {"country_code": "NZ", "postal_code": "2024", "place_name": "Mangere East", "latitude": "-36.9659", "longitude": "174.8239"}, {"country_code": "NZ", "postal_code": "2025", "place_name": "Wiri", "latitude": "-36.9982", "longitude": "174.8602"}, {"country_code": "NZ", "postal_code": "2102", "place_name": "Manurewa", "latitude": "-37.0182", "longitude": "174.8802"}, {"country_code": "NZ", "postal_code": "2103", "place_name": "Weymouth", "latitude": "-37.0333", "longitude": "174.8667"}, {"country_code": "NZ", "postal_code": "2104", "place_name": "Wiri", "latitude": "-36.9982", "longitude": "174.8602"}, {"country_code": "NZ", "postal_code": "2105", "place_name": "Manurewa East", "latitude": "-37.0182", "longitude": "174.9102"}, {"country_code": "NZ", "postal_code": "2110", "place_name": "Red Hill", "latitude": "-37.0582", "longitude": "174.9702"}, {"country_code": "NZ", "postal_code": "2112", "place_name": "Takanini", "latitude": "-37.0482", "longitude": "174.9002"}, {"country_code": "NZ", "postal_code": "2113", "place_name": "Papakura", "latitude": "-37.0657", "longitude": "174.9439"}, {"country_code": "NZ", "postal_code": "2120", "place_name": "Pukekohe", "latitude": "-37.202", "longitude": "174.9036"}, {"country_code": "NZ", "postal_code": "2122", "place_name": "Waiau Pa", "latitude": "-37.1333", "longitude": "174.75"}, {"country_code": "NZ", "postal_code": "2123", "place_name": "Waiuku", "latitude": "-37.2481", "longitude": "174.7349"}, {"country_code": "NZ", "postal_code": "2140", "place_name": "Pakuranga", "latitude": "-36.8833", "longitude": "174.9167"}, {"country_code": "NZ", "postal_code": "2141", "place_name": "East Tamaki", "latitude": "-36.95", "longitude": "174.9"}, {"country_code": "NZ", "postal_code": "2142", "place_name": "East Tamaki", "latitude": "-36.95", "longitude": "174.9"}, {"country_code": "NZ", "postal_code": "2143", "place_name": "Botany Downs", "latitude": "-36.906", "longitude": "174.9179"}, {"country_code": "NZ", "postal_code": "2144", "place_name": "Eastern Beach", "latitude": "-36.8682", "longitude": "174.9002"}, {"country_code": "NZ", "postal_code": "2145", "place_name": "Shelly Park", "latitude": "-36.9075", "longitude": "174.9459"}, {"country_code": "NZ", "postal_code": "2146", "place_name": "Shelly Park", "latitude": "-36.9075", "longitude": "174.9459"}, {"country_code": "NZ", "postal_code": "2147", "place_name": "Beachlands", "latitude": "-36.8833", "longitude": "175"}, {"country_code": "NZ", "postal_code": "2148", "place_name": "Maraetai", "latitude": "-36.8833", "longitude": "175.05"}, {"country_code": "NZ", "postal_code": "2149", "place_name": "Whitford", "latitude": "-36.9333", "longitude": "174.9667"}, {"country_code": "NZ", "postal_code": "2150", "place_name": "Mangere", "latitude": "-36.9681", "longitude": "174.7987"}, {"country_code": "NZ", "postal_code": "2151", "place_name": "Favona", "latitude": "-36.9333", "longitude": "174.8"}, {"country_code": "NZ", "postal_code": "2153", "place_name": "Mangere", "latitude": "-36.9681", "longitude": "174.7987"}, {"country_code": "NZ", "postal_code": "2154", "place_name": "Mangere", "latitude": "-36.9681", "longitude": "174.7987"}, {"country_code": "NZ", "postal_code": "2155", "place_name": "Papatoetoe", "latitude": "-36.9682", "longitude": "174.8402"}, {"country_code": "NZ", "postal_code": "2156", "place_name": "Papatoetoe", "latitude": "-36.9682", "longitude": "174.8402"}, {"country_code": "NZ", "postal_code": "2157", "place_name": "Wiri", "latitude": "-36.9982", "longitude": "174.8602"}, {"country_code": "NZ", "postal_code": "2158", "place_name": "Mangere East", "latitude": "-36.9659", "longitude": "174.8239"}, {"country_code": "NZ", "postal_code": "2159", "place_name": "Otara", "latitude": "-36.9482", "longitude": "174.8702"}, {"country_code": "NZ", "postal_code": "2160", "place_name": "Wiri", "latitude": "-36.9982", "longitude": "174.8602"}, {"country_code": "NZ", "postal_code": "2240", "place_name": "Homai", "latitude": "-37.0167", "longitude": "174.8833"}, {"country_code": "NZ", "postal_code": "2241", "place_name": "Wiri", "latitude": "-36.9982", "longitude": "174.8602"}, {"country_code": "NZ", "postal_code": "2242", "place_name": "Weymouth", "latitude": "-37.0333", "longitude": "174.8667"}, {"country_code": "NZ", "postal_code": "2243", "place_name": "Manurewa East", "latitude": "-37.0182", "longitude": "174.9102"}, {"country_code": "NZ", "postal_code": "2244", "place_name": "Pahurehure", "latitude": "-37.0582", "longitude": "174.9202"}, {"country_code": "NZ", "postal_code": "2245", "place_name": "Takanini", "latitude": "-37.0482", "longitude": "174.9002"}, {"country_code": "NZ", "postal_code": "2246", "place_name": "Pahurehure", "latitude": "-37.0582", "longitude": "174.9202"}, {"country_code": "NZ", "postal_code": "2247", "place_name": "Drury", "latitude": "-37.1", "longitude": "174.95"}, {"country_code": "NZ", "postal_code": "2248", "place_name": "Clevedon", "latitude": "-37", "longitude": "175.05"}, {"country_code": "NZ", "postal_code": "2340", "place_name": "Pukekohe", "latitude": "-37.202", "longitude": "174.9036"}, {"country_code": "NZ", "postal_code": "2341", "place_name": "Waiuku", "latitude": "-37.2481", "longitude": "174.7349"}, {"country_code": "NZ", "postal_code": "2343", "place_name": "Bombay", "latitude": "-37.1667", "longitude": "174.9833"}, {"country_code": "NZ", "postal_code": "2344", "place_name": "Patumahoe", "latitude": "-37.1833", "longitude": "174.8333"}, {"country_code": "NZ", "postal_code": "2345", "place_name": "Waiau Pa", "latitude": "-37.1333", "longitude": "174.75"}, {"country_code": "NZ", "postal_code": "2571", "place_name": "Waikopua", "latitude": "-36.9167", "longitude": "174.9833"}, {"country_code": "NZ", "postal_code": "2576", "place_name": "Whitford", "latitude": "-36.9333", "longitude": "174.9667"}, {"country_code": "NZ", "postal_code": "2577", "place_name": "Drury", "latitude": "-37.1", "longitude": "174.95"}, {"country_code": "NZ", "postal_code": "2578", "place_name": "Ramarama", "latitude": "-37.15", "longitude": "174.95"}, {"country_code": "NZ", "postal_code": "2579", "place_name": "Ararimu", "latitude": "-37.15", "longitude": "175.0333"}, {"country_code": "NZ", "postal_code": "2580", "place_name": "Weymouth", "latitude": "-37.0333", "longitude": "174.8667"}, {"country_code": "NZ", "postal_code": "2582", "place_name": "Clevedon", "latitude": "-37", "longitude": "175.05"}, {"country_code": "NZ", "postal_code": "2583", "place_name": "Paparimu", "latitude": "-37.1333", "longitude": "175.1167"}, {"country_code": "NZ", "postal_code": "2584", "place_name": "Opaheke", "latitude": "-37.0833", "longitude": "174.9667"}, {"country_code": "NZ", "postal_code": "2585", "place_name": "Whakatiri", "latitude": "-36.95", "longitude": "175.1167"}, {"country_code": "NZ", "postal_code": "2675", "place_name": "Ararimu", "latitude": "-37.15", "longitude": "175.0333"}, {"country_code": "NZ", "postal_code": "2676", "place_name": "Paerata", "latitude": "-37.1667", "longitude": "174.9"}, {"country_code": "NZ", "postal_code": "2677", "place_name": "Pukekohe East", "latitude": "-37.2", "longitude": "174.95"}, {"country_code": "NZ", "postal_code": "2678", "place_name": "Mauku", "latitude": "-37.2", "longitude": "174.8167"}, {"country_code": "NZ", "postal_code": "2679", "place_name": "Waiau Pa", "latitude": "-37.1333", "longitude": "174.75"}, {"country_code": "NZ", "postal_code": "2681", "place_name": "Glenbrook", "latitude": "-37.2167", "longitude": "174.7833"}, {"country_code": "NZ", "postal_code": "2683", "place_name": "Waipipi", "latitude": "-37.2167", "longitude": "174.6667"}, {"country_code": "NZ", "postal_code": "2684", "place_name": "Pollok", "latitude": "-37.1333", "longitude": "174.6167"}, {"country_code": "NZ", "postal_code": "2693", "place_name": "Te Kohanga", "latitude": "-37.3141", "longitude": "174.8451"}, {"country_code": "NZ", "postal_code": "2696", "place_name": "Opuatia", "latitude": "-37.4048", "longitude": "175.0002"}, {"country_code": "NZ", "postal_code": "2697", "place_name": "Te Kohanga", "latitude": "-37.3141", "longitude": "174.8451"}, {"country_code": "NZ", "postal_code": "3010", "place_name": "Ohinemutu", "latitude": "-38.1276", "longitude": "176.2446"}, {"country_code": "NZ", "postal_code": "3015", "place_name": "Sunnybrook", "latitude": "-38.1482", "longitude": "176.2102"}, {"country_code": "NZ", "postal_code": "3020", "place_name": "Mamaku", "latitude": "-38.1", "longitude": "176.0833"}, {"country_code": "NZ", "postal_code": "3025", "place_name": "Murupara", "latitude": "-38.4667", "longitude": "176.7"}, {"country_code": "NZ", "postal_code": "3040", "place_name": "Ngapuna", "latitude": "-38.1468", "longitude": "176.2747"}, {"country_code": "NZ", "postal_code": "3041", "place_name": "Ngongotaha", "latitude": "-38.0833", "longitude": "176.2"}, {"country_code": "NZ", "postal_code": "3042", "place_name": "Owhata", "latitude": "-38.1326", "longitude": "176.2982"}, {"country_code": "NZ", "postal_code": "3043", "place_name": "Whakarewarewa", "latitude": "-38.1603", "longitude": "176.2651"}, {"country_code": "NZ", "postal_code": "3044", "place_name": "Glenholme", "latitude": "-38.1487", "longitude": "176.2471"}, {"country_code": "NZ", "postal_code": "3045", "place_name": "Ngapuna", "latitude": "-38.1468", "longitude": "176.2747"}, {"country_code": "NZ", "postal_code": "3046", "place_name": "Koutu", "latitude": "-38.1197", "longitude": "176.2383"}, {"country_code": "NZ", "postal_code": "3047", "place_name": "Mangakakahi", "latitude": "-38.1335", "longitude": "176.2344"}, {"country_code": "NZ", "postal_code": "3048", "place_name": "Tihiotonga", "latitude": "-38.1726", "longitude": "176.2432"}, {"country_code": "NZ", "postal_code": "3049", "place_name": "Mamaku", "latitude": "-38.1", "longitude": "176.0833"}, {"country_code": "NZ", "postal_code": "3060", "place_name": "Reporoa", "latitude": "-38.4359", "longitude": "176.3412"}, {"country_code": "NZ", "postal_code": "3062", "place_name": "Murupara", "latitude": "-38.4667", "longitude": "176.7"}, {"country_code": "NZ", "postal_code": "3072", "place_name": "Tarukenga", "latitude": "-38.0752", "longitude": "176.1581"}, {"country_code": "NZ", "postal_code": "3073", "place_name": "Waimangu", "latitude": "-38.284", "longitude": "176.3826"}, {"country_code": "NZ", "postal_code": "3074", "place_name": "Tikitere", "latitude": "-38.0667", "longitude": "176.3667"}, {"country_code": "NZ", "postal_code": "3077", "place_name": "Guthrie", "latitude": "-38.3", "longitude": "176.15"}, {"country_code": "NZ", "postal_code": "3079", "place_name": "Ruatahuna", "latitude": "-38.6138", "longitude": "176.9592"}, {"country_code": "NZ", "postal_code": "3081", "place_name": "Tahorakui", "latitude": "-38.479", "longitude": "176.2724"}, {"country_code": "NZ", "postal_code": "3083", "place_name": "Tahorakui", "latitude": "-38.479", "longitude": "176.2724"}, {"country_code": "NZ", "postal_code": "3110", "place_name": "Tauranga", "latitude": "-37.6861", "longitude": "176.1667"}, {"country_code": "NZ", "postal_code": "3112", "place_name": "Hairini", "latitude": "-37.7333", "longitude": "176.1667"}, {"country_code": "NZ", "postal_code": "3114", "place_name": "Omokoroa Beach", "latitude": "-37.6333", "longitude": "176.05"}, {"country_code": "NZ", "postal_code": "3116", "place_name": "Omanu", "latitude": "-37.6568", "longitude": "176.2084"}, {"country_code": "NZ", "postal_code": "3118", "place_name": "Papamoa Beach", "latitude": "-37.6973", "longitude": "176.2846"}, {"country_code": "NZ", "postal_code": "3119", "place_name": "Te Puke", "latitude": "-37.7782", "longitude": "176.3302"}, {"country_code": "NZ", "postal_code": "3120", "place_name": "Poroporo", "latitude": "-37.9833", "longitude": "176.9667"}, {"country_code": "NZ", "postal_code": "3121", "place_name": "Ohope Beach", "latitude": "-37.9752", "longitude": "177.0759"}, {"country_code": "NZ", "postal_code": "3122", "place_name": "Opotiki", "latitude": "-38.0091", "longitude": "177.2871"}, {"country_code": "NZ", "postal_code": "3123", "place_name": "Taneatua", "latitude": "-38.0667", "longitude": "177.0167"}, {"country_code": "NZ", "postal_code": "3127", "place_name": "Kawerau", "latitude": "-38.1", "longitude": "176.7"}, {"country_code": "NZ", "postal_code": "3129", "place_name": "Katikati", "latitude": "-37.55", "longitude": "175.9167"}, {"country_code": "NZ", "postal_code": "3140", "place_name": "Tauranga", "latitude": "-37.6861", "longitude": "176.1667"}, {"country_code": "NZ", "postal_code": "3141", "place_name": "Tauranga", "latitude": "-37.6861", "longitude": "176.1667"}, {"country_code": "NZ", "postal_code": "3142", "place_name": "Greerton", "latitude": "-37.7254", "longitude": "176.1335"}, {"country_code": "NZ", "postal_code": "3143", "place_name": "Tauranga", "latitude": "-37.6861", "longitude": "176.1667"}, {"country_code": "NZ", "postal_code": "3144", "place_name": "Tauranga", "latitude": "-37.6861", "longitude": "176.1667"}, {"country_code": "NZ", "postal_code": "3145", "place_name": "Otumoetai", "latitude": "-37.6716", "longitude": "176.1386"}, {"country_code": "NZ", "postal_code": "3146", "place_name": "Judea", "latitude": "-37.6953", "longitude": "176.1441"}, {"country_code": "NZ", "postal_code": "3147", "place_name": "Bethlehem", "latitude": "-37.695", "longitude": "176.1086"}, {"country_code": "NZ", "postal_code": "3148", "place_name": "Hairini", "latitude": "-37.7333", "longitude": "176.1667"}, {"country_code": "NZ", "postal_code": "3149", "place_name": "Omanu", "latitude": "-37.6568", "longitude": "176.2084"}, {"country_code": "NZ", "postal_code": "3150", "place_name": "Mount Maunganui", "latitude": "-37.6417", "longitude": "176.1861"}, {"country_code": "NZ", "postal_code": "3151", "place_name": "Kairua", "latitude": "-37.7167", "longitude": "176.2833"}, {"country_code": "NZ", "postal_code": "3152", "place_name": "Omanu Beach", "latitude": "-37.67", "longitude": "176.229"}, {"country_code": "NZ", "postal_code": "3153", "place_name": "Te Puke", "latitude": "-37.7782", "longitude": "176.3302"}, {"country_code": "NZ", "postal_code": "3154", "place_name": "Omokoroa Beach", "latitude": "-37.6333", "longitude": "176.05"}, {"country_code": "NZ", "postal_code": "3158", "place_name": "Whakatane", "latitude": "-37.9585", "longitude": "176.9855"}, {"country_code": "NZ", "postal_code": "3159", "place_name": "Poroporo", "latitude": "-37.9833", "longitude": "176.9667"}, {"country_code": "NZ", "postal_code": "3160", "place_name": "Edgecumbe", "latitude": "-37.9833", "longitude": "176.8333"}, {"country_code": "NZ", "postal_code": "3161", "place_name": "Ohope Beach", "latitude": "-37.9752", "longitude": "177.0759"}, {"country_code": "NZ", "postal_code": "3162", "place_name": "Opotiki", "latitude": "-38.0091", "longitude": "177.2871"}, {"country_code": "NZ", "postal_code": "3163", "place_name": "Taneatua", "latitude": "-38.0667", "longitude": "177.0167"}, {"country_code": "NZ", "postal_code": "3164", "place_name": "Waimana", "latitude": "-38.15", "longitude": "177.0833"}, {"country_code": "NZ", "postal_code": "3167", "place_name": "Te Teko", "latitude": "-38.0365", "longitude": "176.7936"}, {"country_code": "NZ", "postal_code": "3168", "place_name": "Matata", "latitude": "-37.8833", "longitude": "176.75"}, {"country_code": "NZ", "postal_code": "3169", "place_name": "Kawerau", "latitude": "-38.1", "longitude": "176.7"}, {"country_code": "NZ", "postal_code": "3171", "place_name": "Lower Kaimai", "latitude": "-37.8", "longitude": "176.0333"}, {"country_code": "NZ", "postal_code": "3172", "place_name": "Omokoroa Beach", "latitude": "-37.6333", "longitude": "176.05"}, {"country_code": "NZ", "postal_code": "3173", "place_name": "Oropi", "latitude": "-37.8395", "longitude": "176.1611"}, {"country_code": "NZ", "postal_code": "3175", "place_name": "Upper Papamoa", "latitude": "-37.7667", "longitude": "176.25"}, {"country_code": "NZ", "postal_code": "3176", "place_name": "Whakamarama", "latitude": "-37.7333", "longitude": "176"}, {"country_code": "NZ", "postal_code": "3177", "place_name": "Athenree", "latitude": "-37.4667", "longitude": "175.9167"}, {"country_code": "NZ", "postal_code": "3178", "place_name": "Katikati", "latitude": "-37.55", "longitude": "175.9167"}, {"country_code": "NZ", "postal_code": "3182", "place_name": "Te Puke", "latitude": "-37.7782", "longitude": "176.3302"}, {"country_code": "NZ", "postal_code": "3183", "place_name": "Upper Papamoa", "latitude": "-37.7667", "longitude": "176.25"}, {"country_code": "NZ", "postal_code": "3186", "place_name": "Ohinepanea", "latitude": "-37.8219", "longitude": "176.5643"}, {"country_code": "NZ", "postal_code": "3187", "place_name": "Papamoa", "latitude": "-37.7333", "longitude": "176.3"}, {"country_code": "NZ", "postal_code": "3188", "place_name": "Ngawaro", "latitude": "-37.9333", "longitude": "176.15"}, {"country_code": "NZ", "postal_code": "3189", "place_name": "Paengaroa", "latitude": "-37.8167", "longitude": "176.4167"}, {"country_code": "NZ", "postal_code": "3191", "place_name": "Otangihaku", "latitude": "-38.0333", "longitude": "177"}, {"country_code": "NZ", "postal_code": "3192", "place_name": "Kawerau", "latitude": "-38.1", "longitude": "176.7"}, {"country_code": "NZ", "postal_code": "3193", "place_name": "Edgecumbe", "latitude": "-37.9833", "longitude": "176.8333"}, {"country_code": "NZ", "postal_code": "3194", "place_name": "Awakaponga", "latitude": "-37.9333", "longitude": "176.7667"}, {"country_code": "NZ", "postal_code": "3196", "place_name": "Waimana", "latitude": "-38.15", "longitude": "177.0833"}, {"country_code": "NZ", "postal_code": "3197", "place_name": "Toatoa", "latitude": "-38.1333", "longitude": "177.5"}, {"country_code": "NZ", "postal_code": "3198", "place_name": "Waimana", "latitude": "-38.15", "longitude": "177.0833"}, {"country_code": "NZ", "postal_code": "3199", "place_name": "Omaio", "latitude": "-37.8167", "longitude": "177.6667"}, {"country_code": "NZ", "postal_code": "3473", "place_name": "Kaimai", "latitude": "-37.8333", "longitude": "175.9667"}, {"country_code": "NZ", "postal_code": "3611", "place_name": "Waihi Beach", "latitude": "-37.4", "longitude": "175.9333"}, {"country_code": "NZ", "postal_code": "3642", "place_name": "Waihi Beach", "latitude": "-37.4", "longitude": "175.9333"}, {"country_code": "NZ", "postal_code": "7260", "place_name": "Kekerengu", "latitude": "-42.0012", "longitude": "174.0077"}, {"country_code": "NZ", "postal_code": "7310", "place_name": "Cheviot", "latitude": "-42.8167", "longitude": "173.2667"}, {"country_code": "NZ", "postal_code": "7332", "place_name": "Waiau", "latitude": "-42.65", "longitude": "173.05"}, {"country_code": "NZ", "postal_code": "7334", "place_name": "Hanmer Springs", "latitude": "-42.5167", "longitude": "172.8167"}, {"country_code": "NZ", "postal_code": "7340", "place_name": "Kaikoura Suburban", "latitude": "-42.3833", "longitude": "173.65"}, {"country_code": "NZ", "postal_code": "7341", "place_name": "Cheviot", "latitude": "-42.8167", "longitude": "173.2667"}, {"country_code": "NZ", "postal_code": "7343", "place_name": "Waiau", "latitude": "-42.65", "longitude": "173.05"}, {"country_code": "NZ", "postal_code": "7345", "place_name": "Culverden", "latitude": "-42.7667", "longitude": "172.85"}, {"country_code": "NZ", "postal_code": "7348", "place_name": "Hawarden", "latitude": "-42.9333", "longitude": "172.6333"}, {"country_code": "NZ", "postal_code": "7360", "place_name": "Hanmer Springs", "latitude": "-42.5167", "longitude": "172.8167"}, {"country_code": "NZ", "postal_code": "7373", "place_name": "Charwell Forks", "latitude": "-42.4167", "longitude": "173.3667"}, {"country_code": "NZ", "postal_code": "7374", "place_name": "Goose Bay", "latitude": "-42.479", "longitude": "173.5278"}, {"country_code": "NZ", "postal_code": "7379", "place_name": "Waiau", "latitude": "-42.65", "longitude": "173.05"}, {"country_code": "NZ", "postal_code": "7381", "place_name": "Spotswood", "latitude": "-42.75", "longitude": "173.2667"}, {"country_code": "NZ", "postal_code": "7382", "place_name": "Ethelton", "latitude": "-42.8833", "longitude": "173.0833"}, {"country_code": "NZ", "postal_code": "7383", "place_name": "Domett", "latitude": "-42.85", "longitude": "173.2167"}, {"country_code": "NZ", "postal_code": "7384", "place_name": "Hawkeswood", "latitude": "-42.65", "longitude": "173.3333"}, {"country_code": "NZ", "postal_code": "7385", "place_name": "Masons Flat", "latitude": "-42.9", "longitude": "172.55"}, {"country_code": "NZ", "postal_code": "7387", "place_name": "Tormore", "latitude": "-42.9", "longitude": "173.1333"}, {"country_code": "NZ", "postal_code": "7391", "place_name": "Rotherham", "latitude": "-42.7", "longitude": "172.95"}, {"country_code": "NZ", "postal_code": "7392", "place_name": "Hanmer Springs", "latitude": "-42.5167", "longitude": "172.8167"}, {"country_code": "NZ", "postal_code": "7395", "place_name": "Hanmer Springs", "latitude": "-42.5167", "longitude": "172.8167"}, {"country_code": "NZ", "postal_code": "7400", "place_name": "Bells", "latitude": "-43.3", "longitude": "172.5833"}, {"country_code": "NZ", "postal_code": "7402", "place_name": "Waikuku Beach", "latitude": "-43.2833", "longitude": "172.7167"}, {"country_code": "NZ", "postal_code": "7410", "place_name": "Amberley", "latitude": "-43.1559", "longitude": "172.7297"}, {"country_code": "NZ", "postal_code": "7420", "place_name": "Waikari", "latitude": "-42.9667", "longitude": "172.6833"}, {"country_code": "NZ", "postal_code": "7430", "place_name": "Oxford", "latitude": "-43.3", "longitude": "172.1833"}, {"country_code": "NZ", "postal_code": "7440", "place_name": "Bells", "latitude": "-43.3", "longitude": "172.5833"}, {"country_code": "NZ", "postal_code": "7441", "place_name": "Amberley", "latitude": "-43.1559", "longitude": "172.7297"}, {"country_code": "NZ", "postal_code": "7442", "place_name": "Waikari", "latitude": "-42.9667", "longitude": "172.6833"}, {"country_code": "NZ", "postal_code": "7443", "place_name": "Oxford", "latitude": "-43.3", "longitude": "172.1833"}, {"country_code": "NZ", "postal_code": "7444", "place_name": "Cust", "latitude": "-43.3167", "longitude": "172.3667"}, {"country_code": "NZ", "postal_code": "7445", "place_name": "Sefton", "latitude": "-43.25", "longitude": "172.6667"}, {"country_code": "NZ", "postal_code": "7446", "place_name": "Leithfield", "latitude": "-43.2", "longitude": "172.7333"}, {"country_code": "NZ", "postal_code": "7447", "place_name": "Waipara", "latitude": "-43.0667", "longitude": "172.75"}, {"country_code": "NZ", "postal_code": "7448", "place_name": "Waikuku Beach", "latitude": "-43.2833", "longitude": "172.7167"}, {"country_code": "NZ", "postal_code": "7471", "place_name": "West Eyreton", "latitude": "-43.35", "longitude": "172.3833"}, {"country_code": "NZ", "postal_code": "7472", "place_name": "North Loburn", "latitude": "-43.2167", "longitude": "172.5"}, {"country_code": "NZ", "postal_code": "7473", "place_name": "Waikuku", "latitude": "-43.3", "longitude": "172.6833"}, {"country_code": "NZ", "postal_code": "7474", "place_name": "North Loburn", "latitude": "-43.2167", "longitude": "172.5"}, {"country_code": "NZ", "postal_code": "7481", "place_name": "Amberley", "latitude": "-43.1559", "longitude": "172.7297"}, {"country_code": "NZ", "postal_code": "7482", "place_name": "Waipara", "latitude": "-43.0667", "longitude": "172.75"}, {"country_code": "NZ", "postal_code": "7483", "place_name": "Omihi", "latitude": "-43.0167", "longitude": "172.85"}, {"country_code": "NZ", "postal_code": "7491", "place_name": "Waikari", "latitude": "-42.9667", "longitude": "172.6833"}, {"country_code": "NZ", "postal_code": "7495", "place_name": "Oxford", "latitude": "-43.3", "longitude": "172.1833"}, {"country_code": "NZ", "postal_code": "7500", "place_name": "Sheffield", "latitude": "-43.3833", "longitude": "172.0167"}, {"country_code": "NZ", "postal_code": "7510", "place_name": "Darfield", "latitude": "-43.4833", "longitude": "172.1167"}, {"country_code": "NZ", "postal_code": "7520", "place_name": "Akaroa", "latitude": "-43.8038", "longitude": "172.9682"}, {"country_code": "NZ", "postal_code": "7540", "place_name": "Sheffield", "latitude": "-43.3833", "longitude": "172.0167"}, {"country_code": "NZ", "postal_code": "7541", "place_name": "Darfield", "latitude": "-43.4833", "longitude": "172.1167"}, {"country_code": "NZ", "postal_code": "7542", "place_name": "Akaroa", "latitude": "-43.8038", "longitude": "172.9682"}, {"country_code": "NZ", "postal_code": "7543", "place_name": "Kirwee", "latitude": "-43.5", "longitude": "172.2167"}, {"country_code": "NZ", "postal_code": "7544", "place_name": "Hororata", "latitude": "-43.5333", "longitude": "171.95"}, {"country_code": "NZ", "postal_code": "7545", "place_name": "Duvauchelle", "latitude": "-43.75", "longitude": "172.9333"}, {"country_code": "NZ", "postal_code": "7546", "place_name": "Little River", "latitude": "-43.7667", "longitude": "172.7833"}, {"country_code": "NZ", "postal_code": "7548", "place_name": "Doyleston", "latitude": "-43.75", "longitude": "172.3"}, {"country_code": "NZ", "postal_code": "7571", "place_name": "Hawkins", "latitude": "-43.4833", "longitude": "172.0333"}, {"country_code": "NZ", "postal_code": "7572", "place_name": "Lake Coleridge", "latitude": "-43.3667", "longitude": "171.5333"}, {"country_code": "NZ", "postal_code": "7580", "place_name": "Craigieburn", "latitude": "-43.1", "longitude": "171.8667"}, {"country_code": "NZ", "postal_code": "7581", "place_name": "Akaroa", "latitude": "-43.8038", "longitude": "172.9682"}, {"country_code": "NZ", "postal_code": "7582", "place_name": "Wainui", "latitude": "-43.8167", "longitude": "172.9"}, {"country_code": "NZ", "postal_code": "7583", "place_name": "Robinsons Bay", "latitude": "-43.7667", "longitude": "172.9667"}, {"country_code": "NZ", "postal_code": "7591", "place_name": "Ataahua", "latitude": "-43.7833", "longitude": "172.65"}, {"country_code": "NZ", "postal_code": "7600", "place_name": "Burnham", "latitude": "-43.6167", "longitude": "172.3167"}, {"country_code": "NZ", "postal_code": "7602", "place_name": "Southbridge", "latitude": "-43.8167", "longitude": "172.25"}, {"country_code": "NZ", "postal_code": "7604", "place_name": "Prebbleton", "latitude": "-43.5833", "longitude": "172.5167"}, {"country_code": "NZ", "postal_code": "7608", "place_name": "Lincoln", "latitude": "-43.65", "longitude": "172.4833"}, {"country_code": "NZ", "postal_code": "7610", "place_name": "Woodend", "latitude": "-43.3167", "longitude": "172.6667"}, {"country_code": "NZ", "postal_code": "7614", "place_name": "Rolleston", "latitude": "-43.5833", "longitude": "172.3833"}, {"country_code": "NZ", "postal_code": "7616", "place_name": "Springston", "latitude": "-43.65", "longitude": "172.4167"}, {"country_code": "NZ", "postal_code": "7630", "place_name": "Kaiapoi", "latitude": "-43.3783", "longitude": "172.6401"}, {"country_code": "NZ", "postal_code": "7632", "place_name": "Leeston", "latitude": "-43.7667", "longitude": "172.3"}, {"country_code": "NZ", "postal_code": "7640", "place_name": "Lincoln", "latitude": "-43.65", "longitude": "172.4833"}, {"country_code": "NZ", "postal_code": "7641", "place_name": "Woodend", "latitude": "-43.3167", "longitude": "172.6667"}, {"country_code": "NZ", "postal_code": "7642", "place_name": "Southbridge", "latitude": "-43.8167", "longitude": "172.25"}, {"country_code": "NZ", "postal_code": "7643", "place_name": "Rolleston", "latitude": "-43.5833", "longitude": "172.3833"}, {"country_code": "NZ", "postal_code": "7644", "place_name": "Kaiapoi", "latitude": "-43.3783", "longitude": "172.6401"}, {"country_code": "NZ", "postal_code": "7645", "place_name": "Tai Tapu", "latitude": "-43.6667", "longitude": "172.55"}, {"country_code": "NZ", "postal_code": "7646", "place_name": "Coalgate", "latitude": "-43.4833", "longitude": "171.9667"}, {"country_code": "NZ", "postal_code": "7647", "place_name": "Lincoln", "latitude": "-43.65", "longitude": "172.4833"}, {"country_code": "NZ", "postal_code": "7649", "place_name": "Springfield", "latitude": "-43.3333", "longitude": "171.9167"}, {"country_code": "NZ", "postal_code": "7656", "place_name": "Leeston", "latitude": "-43.7667", "longitude": "172.3"}, {"country_code": "NZ", "postal_code": "7657", "place_name": "Dunsandel", "latitude": "-43.6667", "longitude": "172.1833"}, {"country_code": "NZ", "postal_code": "7670", "place_name": "Coutts Island", "latitude": "-43.4333", "longitude": "172.6167"}, {"country_code": "NZ", "postal_code": "7671", "place_name": "Aylesbury", "latitude": "-43.5333", "longitude": "172.2667"}, {"country_code": "NZ", "postal_code": "7672", "place_name": "Motukarara", "latitude": "-43.7333", "longitude": "172.5833"}, {"country_code": "NZ", "postal_code": "7673", "place_name": "Whitecliffs", "latitude": "-43.4667", "longitude": "171.9"}, {"country_code": "NZ", "postal_code": "7674", "place_name": "Springston South", "latitude": "-43.6833", "longitude": "172.4333"}, {"country_code": "NZ", "postal_code": "7675", "place_name": "Rolleston", "latitude": "-43.5833", "longitude": "172.3833"}, {"country_code": "NZ", "postal_code": "7676", "place_name": "Templeton", "latitude": "-43.55", "longitude": "172.4667"}, {"country_code": "NZ", "postal_code": "7681", "place_name": "Springfield", "latitude": "-43.3333", "longitude": "171.9167"}, {"country_code": "NZ", "postal_code": "7682", "place_name": "Dunsandel", "latitude": "-43.6667", "longitude": "172.1833"}, {"country_code": "NZ", "postal_code": "7683", "place_name": "Southbridge", "latitude": "-43.8167", "longitude": "172.25"}, {"country_code": "NZ", "postal_code": "7691", "place_name": "Flaxton", "latitude": "-43.35", "longitude": "172.6333"}, {"country_code": "NZ", "postal_code": "7692", "place_name": "Wetheral", "latitude": "-43.3667", "longitude": "172.5833"}, {"country_code": "NZ", "postal_code": "7700", "place_name": "Allenton", "latitude": "-43.8883", "longitude": "171.7401"}, {"country_code": "NZ", "postal_code": "7710", "place_name": "Rakaia", "latitude": "-43.75", "longitude": "172.0167"}, {"country_code": "NZ", "postal_code": "7730", "place_name": "Methven", "latitude": "-43.6333", "longitude": "171.65"}, {"country_code": "NZ", "postal_code": "7740", "place_name": "Hampstead", "latitude": "-43.9083", "longitude": "171.7501"}, {"country_code": "NZ", "postal_code": "7741", "place_name": "Tinwald", "latitude": "-43.9167", "longitude": "171.7167"}, {"country_code": "NZ", "postal_code": "7742", "place_name": "Allenton", "latitude": "-43.8883", "longitude": "171.7401"}, {"country_code": "NZ", "postal_code": "7743", "place_name": "Rakaia", "latitude": "-43.75", "longitude": "172.0167"}, {"country_code": "NZ", "postal_code": "7745", "place_name": "Methven", "latitude": "-43.6333", "longitude": "171.65"}, {"country_code": "NZ", "postal_code": "7746", "place_name": "Mount Somers", "latitude": "-43.7167", "longitude": "171.4"}, {"country_code": "NZ", "postal_code": "7747", "place_name": "Hinds", "latitude": "-44", "longitude": "171.5667"}, {"country_code": "NZ", "postal_code": "7748", "place_name": "Mayfield", "latitude": "-43.8167", "longitude": "171.4167"}, {"country_code": "NZ", "postal_code": "7771", "place_name": "Staveley", "latitude": "-43.65", "longitude": "171.4333"}, {"country_code": "NZ", "postal_code": "7772", "place_name": "Mitcham", "latitude": "-43.75", "longitude": "171.85"}, {"country_code": "NZ", "postal_code": "7773", "place_name": "Hinds", "latitude": "-44", "longitude": "171.5667"}, {"country_code": "NZ", "postal_code": "7774", "place_name": "Flemington", "latitude": "-44.0167", "longitude": "171.7333"}, {"country_code": "NZ", "postal_code": "7775", "place_name": "Lismore", "latitude": "-43.9", "longitude": "171.4833"}, {"country_code": "NZ", "postal_code": "7776", "place_name": "Lyndhurst", "latitude": "-43.7", "longitude": "171.7167"}, {"country_code": "NZ", "postal_code": "7777", "place_name": "Seafield", "latitude": "-43.9167", "longitude": "171.9"}, {"country_code": "NZ", "postal_code": "7778", "place_name": "Mayfield", "latitude": "-43.8167", "longitude": "171.4167"}, {"country_code": "NZ", "postal_code": "7781", "place_name": "Dorie", "latitude": "-43.8833", "longitude": "172.15"}, {"country_code": "NZ", "postal_code": "7782", "place_name": "Highbank", "latitude": "-43.6167", "longitude": "171.75"}, {"country_code": "NZ", "postal_code": "7783", "place_name": "Te Pirita", "latitude": "-43.6667", "longitude": "171.95"}, {"country_code": "NZ", "postal_code": "7784", "place_name": "Somerton", "latitude": "-43.75", "longitude": "171.9167"}, {"country_code": "NZ", "postal_code": "7791", "place_name": "Lake Coleridge", "latitude": "-43.3667", "longitude": "171.5333"}, {"country_code": "NZ", "postal_code": "7901", "place_name": "Twizel", "latitude": "-44.2584", "longitude": "170.1006"}, {"country_code": "NZ", "postal_code": "7903", "place_name": "Pleasant Point", "latitude": "-44.2667", "longitude": "171.1333"}, {"country_code": "NZ", "postal_code": "7910", "place_name": "Seaview", "latitude": "-44.3966", "longitude": "171.2415"}, {"country_code": "NZ", "postal_code": "7912", "place_name": "Pareora", "latitude": "-44.5", "longitude": "171.2"}, {"country_code": "NZ", "postal_code": "7920", "place_name": "Temuka", "latitude": "-44.2283", "longitude": "171.2801"}, {"country_code": "NZ", "postal_code": "7924", "place_name": "Waimate", "latitude": "-44.7284", "longitude": "171.0501"}, {"country_code": "NZ", "postal_code": "7925", "place_name": "Fairlie", "latitude": "-44.1", "longitude": "170.8333"}, {"country_code": "NZ", "postal_code": "7930", "place_name": "Geraldine", "latitude": "-44.0906", "longitude": "171.2446"}, {"country_code": "NZ", "postal_code": "7940", "place_name": "Timaru", "latitude": "-44.3967", "longitude": "171.2536"}, {"country_code": "NZ", "postal_code": "7941", "place_name": "Puhuka", "latitude": "-44.3583", "longitude": "171.2301"}, {"country_code": "NZ", "postal_code": "7942", "place_name": "Parkside", "latitude": "-44.4029", "longitude": "171.2546"}, {"country_code": "NZ", "postal_code": "7943", "place_name": "Kensington", "latitude": "-44.412", "longitude": "171.247"}, {"country_code": "NZ", "postal_code": "7944", "place_name": "Twizel", "latitude": "-44.2584", "longitude": "170.1006"}, {"country_code": "NZ", "postal_code": "7945", "place_name": "Lake Tekapo", "latitude": "-44.0064", "longitude": "170.4803"}, {"country_code": "NZ", "postal_code": "7946", "place_name": "Glentanner", "latitude": "-43.9073", "longitude": "170.1234"}, {"country_code": "NZ", "postal_code": "7947", "place_name": "Pleasant Point", "latitude": "-44.2667", "longitude": "171.1333"}, {"country_code": "NZ", "postal_code": "7948", "place_name": "Temuka", "latitude": "-44.2283", "longitude": "171.2801"}, {"country_code": "NZ", "postal_code": "7949", "place_name": "Fairlie", "latitude": "-44.1", "longitude": "170.8333"}, {"country_code": "NZ", "postal_code": "7956", "place_name": "Geraldine", "latitude": "-44.0906", "longitude": "171.2446"}, {"country_code": "NZ", "postal_code": "7957", "place_name": "Cave", "latitude": "-44.3167", "longitude": "170.95"}, {"country_code": "NZ", "postal_code": "7958", "place_name": "Winchester", "latitude": "-44.2", "longitude": "171.2833"}, {"country_code": "NZ", "postal_code": "7960", "place_name": "Waimate", "latitude": "-44.7284", "longitude": "171.0501"}, {"country_code": "NZ", "postal_code": "7971", "place_name": "Esk Valley", "latitude": "-44.5333", "longitude": "171.0833"}, {"country_code": "NZ", "postal_code": "7972", "place_name": "Southburn", "latitude": "-44.45", "longitude": "171.1"}, {"country_code": "NZ", "postal_code": "7973", "place_name": "Seadown", "latitude": "-44.3", "longitude": "171.2667"}, {"country_code": "NZ", "postal_code": "7974", "place_name": "Claremont", "latitude": "-44.4", "longitude": "171.0833"}, {"country_code": "NZ", "postal_code": "7977", "place_name": "Waihaorunga", "latitude": "-44.75", "longitude": "170.8167"}, {"country_code": "NZ", "postal_code": "7978", "place_name": "Waimate", "latitude": "-44.7284", "longitude": "171.0501"}, {"country_code": "NZ", "postal_code": "7979", "place_name": "Waihao Forks", "latitude": "-44.8", "longitude": "170.9333"}, {"country_code": "NZ", "postal_code": "7980", "place_name": "Morven", "latitude": "-44.8333", "longitude": "171.1167"}, {"country_code": "NZ", "postal_code": "7982", "place_name": "Hazelburn", "latitude": "-44.2", "longitude": "170.9833"}, {"country_code": "NZ", "postal_code": "7983", "place_name": "Sutherlands", "latitude": "-44.2833", "longitude": "171.05"}, {"country_code": "NZ", "postal_code": "7984", "place_name": "Mawaro", "latitude": "-44.3", "longitude": "170.8833"}, {"country_code": "NZ", "postal_code": "7985", "place_name": "Waitohi Flat", "latitude": "-44.2167", "longitude": "171.1833"}, {"country_code": "NZ", "postal_code": "7986", "place_name": "Orton", "latitude": "-44.1667", "longitude": "171.4333"}, {"country_code": "NZ", "postal_code": "7987", "place_name": "Waikarua", "latitude": "-44.0333", "longitude": "170.8833"}, {"country_code": "NZ", "postal_code": "7988", "place_name": "Esk Valley", "latitude": "-44.5333", "longitude": "171.0833"}, {"country_code": "NZ", "postal_code": "7990", "place_name": "Sherwood Downs", "latitude": "-43.9667", "longitude": "170.8667"}, {"country_code": "NZ", "postal_code": "7991", "place_name": "Te Moana", "latitude": "-44.0667", "longitude": "171.1333"}, {"country_code": "NZ", "postal_code": "7992", "place_name": "Arundel", "latitude": "-43.9833", "longitude": "171.2833"}, {"country_code": "NZ", "postal_code": "7999", "place_name": "Glentanner", "latitude": "-43.9073", "longitude": "170.1234"}, {"country_code": "NZ", "postal_code": "8011", "place_name": "Christchurch", "latitude": "-43.5333", "longitude": "172.6333"}, {"country_code": "NZ", "postal_code": "8013", "place_name": "Christchurch", "latitude": "-43.5333", "longitude": "172.6333"}, {"country_code": "NZ", "postal_code": "8014", "place_name": "Saint Albans", "latitude": "-43.5167", "longitude": "172.6167"}, {"country_code": "NZ", "postal_code": "8022", "place_name": "Cashmere Hills", "latitude": "-43.5833", "longitude": "172.6333"}, {"country_code": "NZ", "postal_code": "8023", "place_name": "Hillsborough", "latitude": "-43.5626", "longitude": "172.6737"}, {"country_code": "NZ", "postal_code": "8024", "place_name": "Spreydon", "latitude": "-43.5567", "longitude": "172.6169"}, {"country_code": "NZ", "postal_code": "8025", "place_name": "Halswell", "latitude": "-43.5833", "longitude": "172.5667"}, {"country_code": "NZ", "postal_code": "8041", "place_name": "Fendalton", "latitude": "-43.5167", "longitude": "172.6"}, {"country_code": "NZ", "postal_code": "8042", "place_name": "Hei Hei", "latitude": "-43.5283", "longitude": "172.5201"}, {"country_code": "NZ", "postal_code": "8051", "place_name": "Harewood", "latitude": "-43.4833", "longitude": "172.5833"}, {"country_code": "NZ", "postal_code": "8052", "place_name": "Papanui", "latitude": "-43.5", "longitude": "172.6167"}, {"country_code": "NZ", "postal_code": "8053", "place_name": "Burnside", "latitude": "-43.4983", "longitude": "172.5601"}, {"country_code": "NZ", "postal_code": "8061", "place_name": "Aranui", "latitude": "-43.5167", "longitude": "172.7"}, {"country_code": "NZ", "postal_code": "8062", "place_name": "Bromley", "latitude": "-43.5283", "longitude": "172.6801"}, {"country_code": "NZ", "postal_code": "8081", "place_name": "Sumner", "latitude": "-43.5683", "longitude": "172.7601"}, {"country_code": "NZ", "postal_code": "8082", "place_name": "Lyttelton", "latitude": "-43.6031", "longitude": "172.7176"}, {"country_code": "NZ", "postal_code": "8083", "place_name": "Ouruhia", "latitude": "-43.45", "longitude": "172.65"}, {"country_code": "NZ", "postal_code": "8140", "place_name": "Christchurch", "latitude": "-43.5333", "longitude": "172.6333"}, {"country_code": "NZ", "postal_code": "8141", "place_name": "Christchurch", "latitude": "-43.5333", "longitude": "172.6333"}, {"country_code": "NZ", "postal_code": "8142", "place_name": "Christchurch", "latitude": "-43.5333", "longitude": "172.6333"}, {"country_code": "NZ", "postal_code": "8143", "place_name": "Saint Albans", "latitude": "-43.5167", "longitude": "172.6167"}, {"country_code": "NZ", "postal_code": "8144", "place_name": "Christchurch", "latitude": "-43.5333", "longitude": "172.6333"}, {"country_code": "NZ", "postal_code": "8145", "place_name": "Opawa", "latitude": "-43.555", "longitude": "172.6614"}, {"country_code": "NZ", "postal_code": "8146", "place_name": "Saint Albans", "latitude": "-43.5167", "longitude": "172.6167"}, {"country_code": "NZ", "postal_code": "8147", "place_name": "Linwood", "latitude": "-43.5333", "longitude": "172.65"}, {"country_code": "NZ", "postal_code": "8148", "place_name": "Avonside", "latitude": "-43.5183", "longitude": "172.6601"}, {"country_code": "NZ", "postal_code": "8149", "place_name": "Spreydon", "latitude": "-43.5567", "longitude": "172.6169"}, {"country_code": "NZ", "postal_code": "8240", "place_name": "Sydenham", "latitude": "-43.547", "longitude": "172.6359"}, {"country_code": "NZ", "postal_code": "8241", "place_name": "Woolston", "latitude": "-43.5473", "longitude": "172.6774"}, {"country_code": "NZ", "postal_code": "8242", "place_name": "Beckenham", "latitude": "-43.565", "longitude": "172.6411"}, {"country_code": "NZ", "postal_code": "8243", "place_name": "Spreydon", "latitude": "-43.5567", "longitude": "172.6169"}, {"country_code": "NZ", "postal_code": "8244", "place_name": "Somerfield", "latitude": "-43.5593", "longitude": "172.6313"}, {"country_code": "NZ", "postal_code": "8245", "place_name": "Halswell", "latitude": "-43.5833", "longitude": "172.5667"}, {"country_code": "NZ", "postal_code": "8246", "place_name": "Hillsborough", "latitude": "-43.5626", "longitude": "172.6737"}, {"country_code": "NZ", "postal_code": "8247", "place_name": "Mount Pleasant", "latitude": "-43.5628", "longitude": "172.7152"}, {"country_code": "NZ", "postal_code": "8440", "place_name": "Riccarton", "latitude": "-43.5283", "longitude": "172.5901"}, {"country_code": "NZ", "postal_code": "8441", "place_name": "Hornby", "latitude": "-43.55", "longitude": "172.5333"}, {"country_code": "NZ", "postal_code": "8442", "place_name": "Upper Riccarton", "latitude": "-43.5283", "longitude": "172.5701"}, {"country_code": "NZ", "postal_code": "8443", "place_name": "Wigram", "latitude": "-43.55", "longitude": "172.55"}, {"country_code": "NZ", "postal_code": "8444", "place_name": "Ilam", "latitude": "-43.5183", "longitude": "172.5701"}, {"country_code": "NZ", "postal_code": "8445", "place_name": "Templeton", "latitude": "-43.55", "longitude": "172.4667"}, {"country_code": "NZ", "postal_code": "8540", "place_name": "Fendalton", "latitude": "-43.5167", "longitude": "172.6"}, {"country_code": "NZ", "postal_code": "8542", "place_name": "Papanui", "latitude": "-43.5", "longitude": "172.6167"}, {"country_code": "NZ", "postal_code": "8543", "place_name": "Harewood", "latitude": "-43.4833", "longitude": "172.5833"}, {"country_code": "NZ", "postal_code": "8544", "place_name": "Harewood", "latitude": "-43.4833", "longitude": "172.5833"}, {"country_code": "NZ", "postal_code": "8545", "place_name": "Burnside", "latitude": "-43.4983", "longitude": "172.5601"}, {"country_code": "NZ", "postal_code": "8546", "place_name": "Belfast", "latitude": "-43.45", "longitude": "172.6333"}, {"country_code": "NZ", "postal_code": "8640", "place_name": "Dallington", "latitude": "-43.5083", "longitude": "172.6701"}, {"country_code": "NZ", "postal_code": "8641", "place_name": "New Brighton", "latitude": "-43.5167", "longitude": "172.7333"}, {"country_code": "NZ", "postal_code": "8642", "place_name": "Bromley", "latitude": "-43.5283", "longitude": "172.6801"}, {"country_code": "NZ", "postal_code": "8643", "place_name": "Aranui", "latitude": "-43.5167", "longitude": "172.7"}, {"country_code": "NZ", "postal_code": "8840", "place_name": "Sumner", "latitude": "-43.5683", "longitude": "172.7601"}, {"country_code": "NZ", "postal_code": "8841", "place_name": "Lyttelton", "latitude": "-43.6031", "longitude": "172.7176"}, {"country_code": "NZ", "postal_code": "8842", "place_name": "North New Brighton", "latitude": "-43.4918", "longitude": "172.7202"}, {"country_code": "NZ", "postal_code": "8941", "place_name": "Diamond Harbour", "latitude": "-43.6289", "longitude": "172.7254"}, {"country_code": "NZ", "postal_code": "8942", "place_name": "Diamond Harbour", "latitude": "-43.6289", "longitude": "172.7254"}, {"country_code": "NZ", "postal_code": "8971", "place_name": "Allandale", "latitude": "-43.65", "longitude": "172.65"}, {"country_code": "NZ", "postal_code": "8972", "place_name": "Pigeon Bay", "latitude": "-43.688", "longitude": "172.8929"}, {"country_code": "NZ", "postal_code": "9445", "place_name": "Duntroon", "latitude": "-44.8554", "longitude": "170.6848"}, {"country_code": "NZ", "postal_code": "9446", "place_name": "Kurow", "latitude": "-44.7334", "longitude": "170.4696"}, {"country_code": "NZ", "postal_code": "9448", "place_name": "Omarama", "latitude": "-44.4885", "longitude": "169.9663"}, {"country_code": "NZ", "postal_code": "9498", "place_name": "Kaingapai", "latitude": "-44.6", "longitude": "170.5667"}, {"country_code": "NZ", "postal_code": "4010", "place_name": "Kaiti", "latitude": "-38.6682", "longitude": "178.0302"}, {"country_code": "NZ", "postal_code": "4022", "place_name": "Te Karaka", "latitude": "-38.4667", "longitude": "177.8667"}, {"country_code": "NZ", "postal_code": "4032", "place_name": "Ruatoria", "latitude": "-37.8833", "longitude": "178.3333"}, {"country_code": "NZ", "postal_code": "4040", "place_name": "Kaiti", "latitude": "-38.6682", "longitude": "178.0302"}, {"country_code": "NZ", "postal_code": "4041", "place_name": "Tamarau", "latitude": "-38.6782", "longitude": "178.0502"}, {"country_code": "NZ", "postal_code": "4042", "place_name": "Te Karaka", "latitude": "-38.4667", "longitude": "177.8667"}, {"country_code": "NZ", "postal_code": "4043", "place_name": "Ruatoria", "latitude": "-37.8833", "longitude": "178.3333"}, {"country_code": "NZ", "postal_code": "4044", "place_name": "Tiniroto", "latitude": "-38.7667", "longitude": "177.5667"}, {"country_code": "NZ", "postal_code": "4045", "place_name": "Patutahi", "latitude": "-38.6167", "longitude": "177.9"}, {"country_code": "NZ", "postal_code": "4046", "place_name": "Tolaga Bay", "latitude": "-38.3667", "longitude": "178.3"}, {"country_code": "NZ", "postal_code": "4047", "place_name": "Tokomaru", "latitude": "-38.1333", "longitude": "178.3"}, {"country_code": "NZ", "postal_code": "4048", "place_name": "Te Puia", "latitude": "-38.0667", "longitude": "178.3"}, {"country_code": "NZ", "postal_code": "4049", "place_name": "Rangitukia", "latitude": "-37.7667", "longitude": "178.45"}, {"country_code": "NZ", "postal_code": "4050", "place_name": "Te Araroa", "latitude": "-37.6333", "longitude": "178.3667"}, {"country_code": "NZ", "postal_code": "4051", "place_name": "Matawai", "latitude": "-38.35", "longitude": "177.5333"}, {"country_code": "NZ", "postal_code": "4052", "place_name": "Motu", "latitude": "-38.25", "longitude": "177.55"}, {"country_code": "NZ", "postal_code": "4071", "place_name": "Waerengaahika", "latitude": "-38.6", "longitude": "177.9333"}, {"country_code": "NZ", "postal_code": "4072", "place_name": "Pehiri", "latitude": "-38.6333", "longitude": "177.7"}, {"country_code": "NZ", "postal_code": "4073", "place_name": "Whangara", "latitude": "-38.5667", "longitude": "178.2167"}, {"country_code": "NZ", "postal_code": "4075", "place_name": "Rakauroa", "latitude": "-38.4167", "longitude": "177.55"}, {"country_code": "NZ", "postal_code": "4077", "place_name": "Tolaga Bay", "latitude": "-38.3667", "longitude": "178.3"}, {"country_code": "NZ", "postal_code": "4078", "place_name": "Tiniroto", "latitude": "-38.7667", "longitude": "177.5667"}, {"country_code": "NZ", "postal_code": "4079", "place_name": "Tokomaru", "latitude": "-38.1333", "longitude": "178.3"}, {"country_code": "NZ", "postal_code": "4081", "place_name": "Waitakaro", "latitude": "-37.9333", "longitude": "178.2667"}, {"country_code": "NZ", "postal_code": "4082", "place_name": "Ruatoria", "latitude": "-37.8833", "longitude": "178.3333"}, {"country_code": "NZ", "postal_code": "4083", "place_name": "Pakihiroa", "latitude": "-37.85", "longitude": "178.0667"}, {"country_code": "NZ", "postal_code": "4086", "place_name": "Whakaangiangi", "latitude": "-37.7167", "longitude": "178.3"}, {"country_code": "NZ", "postal_code": "4087", "place_name": "Te Araroa", "latitude": "-37.6333", "longitude": "178.3667"}, {"country_code": "NZ", "postal_code": "4091", "place_name": "Ahititi", "latitude": "-38.4333", "longitude": "178.05"}, {"country_code": "NZ", "postal_code": "4092", "place_name": "Otoko", "latitude": "-38.4", "longitude": "177.6667"}, {"country_code": "NZ", "postal_code": "4093", "place_name": "Te Karaka", "latitude": "-38.4667", "longitude": "177.8667"}, {"country_code": "NZ", "postal_code": "4094", "place_name": "Whatatutu", "latitude": "-38.3833", "longitude": "177.8333"}, {"country_code": "NZ", "postal_code": "3360", "place_name": "Tarawera", "latitude": "-39.0333", "longitude": "176.5833"}, {"country_code": "NZ", "postal_code": "4102", "place_name": "Haumoana", "latitude": "-39.6037", "longitude": "176.9457"}, {"country_code": "NZ", "postal_code": "4104", "place_name": "Petane", "latitude": "-39.3833", "longitude": "176.8667"}, {"country_code": "NZ", "postal_code": "4108", "place_name": "North Clyde", "latitude": "-39.0282", "longitude": "177.4202"}, {"country_code": "NZ", "postal_code": "4110", "place_name": "Onekawa", "latitude": "-39.4982", "longitude": "176.8802"}, {"country_code": "NZ", "postal_code": "4112", "place_name": "Puk-kura", "latitude": "-39.5233", "longitude": "176.8442"}, {"country_code": "NZ", "postal_code": "4120", "place_name": "HASTINGS", "latitude": "-39.6381", "longitude": "176.8492"}, {"country_code": "NZ", "postal_code": "4122", "place_name": "Akina", "latitude": "-39.6482", "longitude": "176.8402"}, {"country_code": "NZ", "postal_code": "4130", "place_name": "Havelock North", "latitude": "-39.6667", "longitude": "176.8833"}, {"country_code": "NZ", "postal_code": "4140", "place_name": "Onekawa", "latitude": "-39.5091", "longitude": "176.8896"}, {"country_code": "NZ", "postal_code": "4141", "place_name": "Taradale", "latitude": "-39.5333", "longitude": "176.85"}, {"country_code": "NZ", "postal_code": "4142", "place_name": "Pirimai", "latitude": "-39.5082", "longitude": "176.8802"}, {"country_code": "NZ", "postal_code": "4143", "place_name": "Napier South", "latitude": "-39.4982", "longitude": "176.9002"}, {"country_code": "NZ", "postal_code": "4144", "place_name": "Ahuriri", "latitude": "-39.4833", "longitude": "176.9"}, {"country_code": "NZ", "postal_code": "4145", "place_name": "Greenmeadows", "latitude": "-39.5182", "longitude": "176.8602"}, {"country_code": "NZ", "postal_code": "4146", "place_name": "Pirimai", "latitude": "-39.5082", "longitude": "176.8802"}, {"country_code": "NZ", "postal_code": "4147", "place_name": "Tamatea", "latitude": "-39.5082", "longitude": "176.8602"}, {"country_code": "NZ", "postal_code": "4148", "place_name": "Clive", "latitude": "-39.5833", "longitude": "176.9167"}, {"country_code": "NZ", "postal_code": "4149", "place_name": "Petane", "latitude": "-39.4131", "longitude": "176.8767"}, {"country_code": "NZ", "postal_code": "4153", "place_name": "Saint Leonards", "latitude": "-39.6282", "longitude": "176.8302"}, {"country_code": "NZ", "postal_code": "4154", "place_name": "Flaxmere", "latitude": "-39.6182", "longitude": "176.7802"}, {"country_code": "NZ", "postal_code": "4155", "place_name": "Parkvale", "latitude": "-39.6382", "longitude": "176.8502"}, {"country_code": "NZ", "postal_code": "4156", "place_name": "Parkvale", "latitude": "-39.6382", "longitude": "176.8502"}, {"country_code": "NZ", "postal_code": "4157", "place_name": "Havelock North", "latitude": "-39.6667", "longitude": "176.8833"}, {"country_code": "NZ", "postal_code": "4158", "place_name": "Parkvale", "latitude": "-39.6382", "longitude": "176.8502"}, {"country_code": "NZ", "postal_code": "4159", "place_name": "Mayfair", "latitude": "-39.6382", "longitude": "176.8502"}, {"country_code": "NZ", "postal_code": "4160", "place_name": "Wairoa", "latitude": "-39.0333", "longitude": "177.3667"}, {"country_code": "NZ", "postal_code": "4161", "place_name": "Pahowai", "latitude": "-39.6006", "longitude": "176.8942"}, {"country_code": "NZ", "postal_code": "4162", "place_name": "Tutira", "latitude": "-39.2", "longitude": "176.8667"}, {"country_code": "NZ", "postal_code": "4163", "place_name": "Frasertown", "latitude": "-38.9686", "longitude": "177.4006"}, {"country_code": "NZ", "postal_code": "4164", "place_name": "Tuai", "latitude": "-38.8167", "longitude": "177.1667"}, {"country_code": "NZ", "postal_code": "4165", "place_name": "Nuhaka", "latitude": "-39.05", "longitude": "177.75"}, {"country_code": "NZ", "postal_code": "4166", "place_name": "Mahia", "latitude": "-39.0872", "longitude": "177.9172"}, {"country_code": "NZ", "postal_code": "4171", "place_name": "Blackburn", "latitude": "-39.8667", "longitude": "176.2833"}, {"country_code": "NZ", "postal_code": "4172", "place_name": "Te Awanga", "latitude": "-39.6333", "longitude": "176.9833"}, {"country_code": "NZ", "postal_code": "4174", "place_name": "Te Hauke", "latitude": "-39.7667", "longitude": "176.6833"}, {"country_code": "NZ", "postal_code": "4175", "place_name": "Flaxmere", "latitude": "-39.6182", "longitude": "176.7802"}, {"country_code": "NZ", "postal_code": "4178", "place_name": "Poukawa", "latitude": "-39.7667", "longitude": "176.7333"}, {"country_code": "NZ", "postal_code": "4179", "place_name": "Puketitiri", "latitude": "-39.2833", "longitude": "176.55"}, {"country_code": "NZ", "postal_code": "4181", "place_name": "Tutira", "latitude": "-39.2", "longitude": "176.8667"}, {"country_code": "NZ", "postal_code": "4182", "place_name": "Te Pohue", "latitude": "-39.25", "longitude": "176.6833"}, {"country_code": "NZ", "postal_code": "4183", "place_name": "Taradale", "latitude": "-39.5333", "longitude": "176.85"}, {"country_code": "NZ", "postal_code": "4184", "place_name": "Puketitiri", "latitude": "-39.2833", "longitude": "176.55"}, {"country_code": "NZ", "postal_code": "4186", "place_name": "Patoka", "latitude": "-39.35", "longitude": "176.6167"}, {"country_code": "NZ", "postal_code": "4188", "place_name": "Kotemaori", "latitude": "-39.0667", "longitude": "177.0333"}, {"country_code": "NZ", "postal_code": "4189", "place_name": "Kotemaori", "latitude": "-39.0667", "longitude": "177.0333"}, {"country_code": "NZ", "postal_code": "4191", "place_name": "Raupunga", "latitude": "-39.0333", "longitude": "177.2167"}, {"country_code": "NZ", "postal_code": "4193", "place_name": "Wairoa", "latitude": "-39.0333", "longitude": "177.3667"}, {"country_code": "NZ", "postal_code": "4195", "place_name": "Tuai", "latitude": "-38.8167", "longitude": "177.1667"}, {"country_code": "NZ", "postal_code": "4196", "place_name": "Opoiti", "latitude": "-38.8883", "longitude": "177.4928"}, {"country_code": "NZ", "postal_code": "4197", "place_name": "Raupunga", "latitude": "-39.0333", "longitude": "177.2167"}, {"country_code": "NZ", "postal_code": "4198", "place_name": "Waitaniwha", "latitude": "-39.0592", "longitude": "177.7989"}, {"country_code": "NZ", "postal_code": "4200", "place_name": "Waipukurau", "latitude": "-39.9982", "longitude": "176.5602"}, {"country_code": "NZ", "postal_code": "4202", "place_name": "Otane", "latitude": "-39.8833", "longitude": "176.6333"}, {"country_code": "NZ", "postal_code": "4203", "place_name": "Takapau", "latitude": "-40.0333", "longitude": "176.35"}, {"country_code": "NZ", "postal_code": "4210", "place_name": "Waipawa", "latitude": "-39.9382", "longitude": "176.6002"}, {"country_code": "NZ", "postal_code": "4240", "place_name": "Waipawa", "latitude": "-39.9382", "longitude": "176.6002"}, {"country_code": "NZ", "postal_code": "4241", "place_name": "Otane", "latitude": "-39.8833", "longitude": "176.6333"}, {"country_code": "NZ", "postal_code": "4242", "place_name": "Waipukurau", "latitude": "-39.9982", "longitude": "176.5602"}, {"country_code": "NZ", "postal_code": "4243", "place_name": "Takapau", "latitude": "-40.0333", "longitude": "176.35"}, {"country_code": "NZ", "postal_code": "4244", "place_name": "Onga Onga", "latitude": "-39.9167", "longitude": "176.4167"}, {"country_code": "NZ", "postal_code": "4245", "place_name": "Porangahau", "latitude": "-40.2789", "longitude": "176.6283"}, {"country_code": "NZ", "postal_code": "4271", "place_name": "Patangata", "latitude": "-39.9167", "longitude": "176.7167"}, {"country_code": "NZ", "postal_code": "4272", "place_name": "Ruataniwha", "latitude": "-39.9333", "longitude": "176.5"}, {"country_code": "NZ", "postal_code": "4273", "place_name": "Argyll East", "latitude": "-39.8667", "longitude": "176.5333"}, {"country_code": "NZ", "postal_code": "4274", "place_name": "Tikokino", "latitude": "-39.8167", "longitude": "176.45"}, {"country_code": "NZ", "postal_code": "4275", "place_name": "Waipawa", "latitude": "-39.9382", "longitude": "176.6002"}, {"country_code": "NZ", "postal_code": "4276", "place_name": "Pukehou", "latitude": "-39.8333", "longitude": "176.6333"}, {"country_code": "NZ", "postal_code": "4277", "place_name": "Patangata", "latitude": "-39.9167", "longitude": "176.7167"}, {"country_code": "NZ", "postal_code": "4278", "place_name": "Blackburn", "latitude": "-39.8667", "longitude": "176.2833"}, {"country_code": "NZ", "postal_code": "4279", "place_name": "Blackburn", "latitude": "-39.8667", "longitude": "176.2833"}, {"country_code": "NZ", "postal_code": "4281", "place_name": "Maharakeke", "latitude": "-40.0167", "longitude": "176.45"}, {"country_code": "NZ", "postal_code": "4282", "place_name": "Wanstead", "latitude": "-40.1333", "longitude": "176.5333"}, {"country_code": "NZ", "postal_code": "4283", "place_name": "Ruataniwha", "latitude": "-39.9333", "longitude": "176.5"}, {"country_code": "NZ", "postal_code": "4284", "place_name": "Wallingford", "latitude": "-40.2167", "longitude": "176.6"}, {"country_code": "NZ", "postal_code": "4285", "place_name": "Waipukurau", "latitude": "-39.9982", "longitude": "176.5602"}, {"country_code": "NZ", "postal_code": "4286", "place_name": "Ashley Clinton", "latitude": "-39.95", "longitude": "176.25"}, {"country_code": "NZ", "postal_code": "4288", "place_name": "Maharakeke", "latitude": "-40.0167", "longitude": "176.45"}, {"country_code": "NZ", "postal_code": "4291", "place_name": "Porangahau", "latitude": "-40.2789", "longitude": "176.6283"}, {"country_code": "NZ", "postal_code": "4292", "place_name": "Porangahau", "latitude": "-40.2789", "longitude": "176.6283"}, {"country_code": "NZ", "postal_code": "4293", "place_name": "Porangahau", "latitude": "-40.2789", "longitude": "176.6283"}, {"country_code": "NZ", "postal_code": "4294", "place_name": "Waimarama", "latitude": "-39.8", "longitude": "176.9833"}, {"country_code": "NZ", "postal_code": "4295", "place_name": "Elsthorpe", "latitude": "-39.9167", "longitude": "176.8167"}, {"country_code": "NZ", "postal_code": "3920", "place_name": "Taumarunui", "latitude": "-38.8782", "longitude": "175.2602"}, {"country_code": "NZ", "postal_code": "3924", "place_name": "Manunui", "latitude": "-38.8833", "longitude": "175.3333"}, {"country_code": "NZ", "postal_code": "3926", "place_name": "Ohura", "latitude": "-38.8333", "longitude": "174.9833"}, {"country_code": "NZ", "postal_code": "3946", "place_name": "Taumarunui", "latitude": "-38.8782", "longitude": "175.2602"}, {"country_code": "NZ", "postal_code": "3947", "place_name": "Ohura", "latitude": "-38.8333", "longitude": "174.9833"}, {"country_code": "NZ", "postal_code": "3948", "place_name": "National Park", "latitude": "-39.1833", "longitude": "175.4"}, {"country_code": "NZ", "postal_code": "3979", "place_name": "Waitewhenua", "latitude": "-38.7", "longitude": "174.9667"}, {"country_code": "NZ", "postal_code": "3980", "place_name": "Tatu", "latitude": "-38.9", "longitude": "174.95"}, {"country_code": "NZ", "postal_code": "3989", "place_name": "Oio", "latitude": "-39.05", "longitude": "175.4167"}, {"country_code": "NZ", "postal_code": "3990", "place_name": "Upper Ruatiti", "latitude": "-39.2", "longitude": "175.2"}, {"country_code": "NZ", "postal_code": "3991", "place_name": "Aukopae", "latitude": "-38.9", "longitude": "175.1667"}, {"country_code": "NZ", "postal_code": "3992", "place_name": "Hikumutu", "latitude": "-38.95", "longitude": "175.2833"}, {"country_code": "NZ", "postal_code": "3993", "place_name": "Kirikau", "latitude": "-39.0167", "longitude": "175.1333"}, {"country_code": "NZ", "postal_code": "3994", "place_name": "Ngapuke", "latitude": "-38.85", "longitude": "175.4667"}, {"country_code": "NZ", "postal_code": "3995", "place_name": "Matiere", "latitude": "-38.75", "longitude": "175.1"}, {"country_code": "NZ", "postal_code": "3996", "place_name": "Okahukura", "latitude": "-38.7833", "longitude": "175.2167"}, {"country_code": "NZ", "postal_code": "3997", "place_name": "Ongarue", "latitude": "-38.7167", "longitude": "175.2833"}, {"country_code": "NZ", "postal_code": "3998", "place_name": "Waimiha", "latitude": "-38.6167", "longitude": "175.3167"}, {"country_code": "NZ", "postal_code": "4287", "place_name": "Norsewood", "latitude": "-40.0705", "longitude": "176.2183"}, {"country_code": "NZ", "postal_code": "4412", "place_name": "Awapuni", "latitude": "-40.3762", "longitude": "175.5838"}, {"country_code": "NZ", "postal_code": "4414", "place_name": "Kelvin Grove", "latitude": "-40.3287", "longitude": "175.6451"}, {"country_code": "NZ", "postal_code": "4440", "place_name": "Hokowhitu", "latitude": "-40.3626", "longitude": "175.6338"}, {"country_code": "NZ", "postal_code": "4441", "place_name": "Terrace End", "latitude": "-40.3483", "longitude": "175.6302"}, {"country_code": "NZ", "postal_code": "4442", "place_name": "Takaro", "latitude": "-40.3579", "longitude": "175.5897"}, {"country_code": "NZ", "postal_code": "4443", "place_name": "West End", "latitude": "-40.3659", "longitude": "175.5984"}, {"country_code": "NZ", "postal_code": "4444", "place_name": "Terrace End", "latitude": "-40.3483", "longitude": "175.6302"}, {"country_code": "NZ", "postal_code": "4445", "place_name": "Awapuni", "latitude": "-40.3762", "longitude": "175.5838"}, {"country_code": "NZ", "postal_code": "4446", "place_name": "Hokowhitu", "latitude": "-40.3626", "longitude": "175.6338"}, {"country_code": "NZ", "postal_code": "4470", "place_name": "Ashhurst", "latitude": "-40.2911", "longitude": "175.7547"}, {"country_code": "NZ", "postal_code": "4471", "place_name": "Aokautere", "latitude": "-40.3667", "longitude": "175.6667"}, {"country_code": "NZ", "postal_code": "4473", "place_name": "Carnarvon", "latitude": "-40.2833", "longitude": "175.3167"}, {"country_code": "NZ", "postal_code": "4474", "place_name": "Tokomaru", "latitude": "-40.473", "longitude": "175.5093"}, {"country_code": "NZ", "postal_code": "4475", "place_name": "Kairanga", "latitude": "-40.35", "longitude": "175.5333"}, {"country_code": "NZ", "postal_code": "4476", "place_name": "Rongotea", "latitude": "-40.2926", "longitude": "175.4251"}, {"country_code": "NZ", "postal_code": "4477", "place_name": "Mangawhata", "latitude": "-40.4", "longitude": "175.4333"}, {"country_code": "NZ", "postal_code": "4478", "place_name": "Milson", "latitude": "-40.3283", "longitude": "175.6102"}, {"country_code": "NZ", "postal_code": "4479", "place_name": "Sanson", "latitude": "-40.2201", "longitude": "175.4245"}, {"country_code": "NZ", "postal_code": "4481", "place_name": "Bunnythorpe", "latitude": "-40.2833", "longitude": "175.6333"}, {"country_code": "NZ", "postal_code": "4500", "place_name": "Aramoho", "latitude": "-39.9019", "longitude": "175.0647"}, {"country_code": "NZ", "postal_code": "4501", "place_name": "Gonville", "latitude": "-39.9388", "longitude": "175.0457"}, {"country_code": "NZ", "postal_code": "4540", "place_name": "Wanganui", "latitude": "-39.9333", "longitude": "175.05"}, {"country_code": "NZ", "postal_code": "4541", "place_name": "Wanganui", "latitude": "-39.9333", "longitude": "175.05"}, {"country_code": "NZ", "postal_code": "4542", "place_name": "Wanganui East", "latitude": "-39.9171", "longitude": "175.0616"}, {"country_code": "NZ", "postal_code": "4543", "place_name": "Gonville", "latitude": "-39.9388", "longitude": "175.0457"}, {"country_code": "NZ", "postal_code": "4547", "place_name": "Turakina South", "latitude": "-40.0515", "longitude": "175.2188"}, {"country_code": "NZ", "postal_code": "4548", "place_name": "Ratana", "latitude": "-40.0412", "longitude": "175.1771"}, {"country_code": "NZ", "postal_code": "4571", "place_name": "Brunswick", "latitude": "-39.85", "longitude": "175.0167"}, {"country_code": "NZ", "postal_code": "4572", "place_name": "Wiritoa", "latitude": "-39.9667", "longitude": "175.1"}, {"country_code": "NZ", "postal_code": "4573", "place_name": "Kakatahi", "latitude": "-39.6833", "longitude": "175.3333"}, {"country_code": "NZ", "postal_code": "4574", "place_name": "Mowhanau", "latitude": "-39.8667", "longitude": "174.9"}, {"country_code": "NZ", "postal_code": "4575", "place_name": "Upokonui", "latitude": "-39.7833", "longitude": "175.2167"}, {"country_code": "NZ", "postal_code": "4576", "place_name": "Matahiwi", "latitude": "-39.6", "longitude": "175.15"}, {"country_code": "NZ", "postal_code": "4577", "place_name": "Kauangaroa", "latitude": "-39.9244", "longitude": "175.2829"}, {"country_code": "NZ", "postal_code": "4578", "place_name": "Ahuiti", "latitude": "-39.6333", "longitude": "175"}, {"country_code": "NZ", "postal_code": "4581", "place_name": "Turakina", "latitude": "-40.047", "longitude": "175.2147"}, {"country_code": "NZ", "postal_code": "4582", "place_name": "Okoia", "latitude": "-39.9333", "longitude": "175.1333"}, {"country_code": "NZ", "postal_code": "4584", "place_name": "Whakaihuwaka", "latitude": "-39.7667", "longitude": "175.15"}, {"country_code": "NZ", "postal_code": "4585", "place_name": "Kakatahi", "latitude": "-39.6833", "longitude": "175.3333"}, {"country_code": "NZ", "postal_code": "4586", "place_name": "Kakatahi", "latitude": "-39.6833", "longitude": "175.3333"}, {"country_code": "NZ", "postal_code": "4587", "place_name": "Nukumaru", "latitude": "-39.8333", "longitude": "174.8"}, {"country_code": "NZ", "postal_code": "4625", "place_name": "Ohakune", "latitude": "-39.4082", "longitude": "175.4002"}, {"country_code": "NZ", "postal_code": "4632", "place_name": "Raetihi", "latitude": "-39.4288", "longitude": "175.2773"}, {"country_code": "NZ", "postal_code": "4646", "place_name": "Raetihi", "latitude": "-39.4288", "longitude": "175.2773"}, {"country_code": "NZ", "postal_code": "4660", "place_name": "Ohakune", "latitude": "-39.4082", "longitude": "175.4002"}, {"country_code": "NZ", "postal_code": "4691", "place_name": "Rangataua", "latitude": "-39.4333", "longitude": "175.4667"}, {"country_code": "NZ", "postal_code": "4694", "place_name": "Raetihi", "latitude": "-39.4288", "longitude": "175.2773"}, {"country_code": "NZ", "postal_code": "4696", "place_name": "Te Ranga", "latitude": "-39.3", "longitude": "175.2"}, {"country_code": "NZ", "postal_code": "4702", "place_name": "FEILDING", "latitude": "-40.2183", "longitude": "175.5402"}, {"country_code": "NZ", "postal_code": "4710", "place_name": "Marton", "latitude": "-40.0692", "longitude": "175.3782"}, {"country_code": "NZ", "postal_code": "4720", "place_name": "Taihape", "latitude": "-39.6782", "longitude": "175.798"}, {"country_code": "NZ", "postal_code": "4730", "place_name": "Hunterville", "latitude": "-39.9366", "longitude": "175.5684"}, {"country_code": "NZ", "postal_code": "4740", "place_name": "FEILDING", "latitude": "-40.2183", "longitude": "175.5402"}, {"country_code": "NZ", "postal_code": "4741", "place_name": "Marton", "latitude": "-40.0692", "longitude": "175.3782"}, {"country_code": "NZ", "postal_code": "4742", "place_name": "Taihape", "latitude": "-39.6782", "longitude": "175.798"}, {"country_code": "NZ", "postal_code": "4744", "place_name": "Kimbolton", "latitude": "-40.0555", "longitude": "175.7794"}, {"country_code": "NZ", "postal_code": "4745", "place_name": "Hunterville", "latitude": "-39.9366", "longitude": "175.5684"}, {"country_code": "NZ", "postal_code": "4746", "place_name": "Mangaweka", "latitude": "-39.8094", "longitude": "175.7888"}, {"country_code": "NZ", "postal_code": "4771", "place_name": "Umutoi", "latitude": "-40", "longitude": "175.9667"}, {"country_code": "NZ", "postal_code": "4774", "place_name": "Apiti", "latitude": "-39.9667", "longitude": "175.8833"}, {"country_code": "NZ", "postal_code": "4775", "place_name": "Colyton", "latitude": "-40.2333", "longitude": "175.65"}, {"country_code": "NZ", "postal_code": "4777", "place_name": "Kiwitea", "latitude": "-40.1167", "longitude": "175.7333"}, {"country_code": "NZ", "postal_code": "4779", "place_name": "Waituna West", "latitude": "-40.05", "longitude": "175.6167"}, {"country_code": "NZ", "postal_code": "4780", "place_name": "Rewa", "latitude": "-39.9833", "longitude": "175.6333"}, {"country_code": "NZ", "postal_code": "4781", "place_name": "Silverhope", "latitude": "-39.9659", "longitude": "175.5283"}, {"country_code": "NZ", "postal_code": "4782", "place_name": "Pukeroa", "latitude": "-39.7841", "longitude": "175.4972"}, {"country_code": "NZ", "postal_code": "4783", "place_name": "Pakihikura", "latitude": "-39.9333", "longitude": "175.7167"}, {"country_code": "NZ", "postal_code": "4784", "place_name": "Silverhope", "latitude": "-39.9659", "longitude": "175.5283"}, {"country_code": "NZ", "postal_code": "4785", "place_name": "Poukiore", "latitude": "-39.8694", "longitude": "175.621"}, {"country_code": "NZ", "postal_code": "4786", "place_name": "Rewa", "latitude": "-39.9833", "longitude": "175.6333"}, {"country_code": "NZ", "postal_code": "4788", "place_name": "Marton", "latitude": "-40.0692", "longitude": "175.3782"}, {"country_code": "NZ", "postal_code": "4789", "place_name": "Marton", "latitude": "-40.0692", "longitude": "175.3782"}, {"country_code": "NZ", "postal_code": "4791", "place_name": "Raketapauma", "latitude": "-39.5513", "longitude": "175.65"}, {"country_code": "NZ", "postal_code": "4792", "place_name": "Erehwon", "latitude": "-39.5165", "longitude": "175.9651"}, {"country_code": "NZ", "postal_code": "4793", "place_name": "Ohotu", "latitude": "-39.7119", "longitude": "175.8389"}, {"country_code": "NZ", "postal_code": "4794", "place_name": "Utiku", "latitude": "-39.7334", "longitude": "175.8438"}, {"country_code": "NZ", "postal_code": "4795", "place_name": "Waiouru Military Camp", "latitude": "-39.4706", "longitude": "175.6817"}, {"country_code": "NZ", "postal_code": "4796", "place_name": "Taihape", "latitude": "-39.6782", "longitude": "175.798"}, {"country_code": "NZ", "postal_code": "4797", "place_name": "Ruahine", "latitude": "-39.8333", "longitude": "175.9"}, {"country_code": "NZ", "postal_code": "4810", "place_name": "Ashhurst", "latitude": "-40.2911", "longitude": "175.7547"}, {"country_code": "NZ", "postal_code": "4814", "place_name": "Foxton", "latitude": "-40.4667", "longitude": "175.3"}, {"country_code": "NZ", "postal_code": "4815", "place_name": "Foxton Beach", "latitude": "-40.4667", "longitude": "175.2167"}, {"country_code": "NZ", "postal_code": "4816", "place_name": "Ohakea", "latitude": "-40.2", "longitude": "175.4"}, {"country_code": "NZ", "postal_code": "4817", "place_name": "Sanson", "latitude": "-40.2201", "longitude": "175.4245"}, {"country_code": "NZ", "postal_code": "4818", "place_name": "Bulls", "latitude": "-40.1749", "longitude": "175.3846"}, {"country_code": "NZ", "postal_code": "4820", "place_name": "Longburn", "latitude": "-40.384", "longitude": "175.5429"}, {"country_code": "NZ", "postal_code": "4821", "place_name": "Shannon", "latitude": "-40.5483", "longitude": "175.4202"}, {"country_code": "NZ", "postal_code": "4822", "place_name": "Tangimoana", "latitude": "-40.3", "longitude": "175.25"}, {"country_code": "NZ", "postal_code": "4847", "place_name": "Ashhurst", "latitude": "-40.2911", "longitude": "175.7547"}, {"country_code": "NZ", "postal_code": "4848", "place_name": "Foxton", "latitude": "-40.4667", "longitude": "175.3"}, {"country_code": "NZ", "postal_code": "4849", "place_name": "Foxton Beach", "latitude": "-40.4667", "longitude": "175.2167"}, {"country_code": "NZ", "postal_code": "4860", "place_name": "Shannon", "latitude": "-40.5483", "longitude": "175.4202"}, {"country_code": "NZ", "postal_code": "4862", "place_name": "Sanson", "latitude": "-40.2201", "longitude": "175.4245"}, {"country_code": "NZ", "postal_code": "4863", "place_name": "Bulls", "latitude": "-40.1749", "longitude": "175.3846"}, {"country_code": "NZ", "postal_code": "4864", "place_name": "Tokomaru", "latitude": "-40.473", "longitude": "175.5093"}, {"country_code": "NZ", "postal_code": "4865", "place_name": "Rongotea", "latitude": "-40.2926", "longitude": "175.4251"}, {"country_code": "NZ", "postal_code": "4866", "place_name": "Longburn", "latitude": "-40.384", "longitude": "175.5429"}, {"country_code": "NZ", "postal_code": "4867", "place_name": "Bunnythorpe", "latitude": "-40.2833", "longitude": "175.6333"}, {"country_code": "NZ", "postal_code": "4884", "place_name": "Pohangina", "latitude": "-40.1734", "longitude": "175.7943"}, {"country_code": "NZ", "postal_code": "4891", "place_name": "Himatangi", "latitude": "-40.4", "longitude": "175.3167"}, {"country_code": "NZ", "postal_code": "4893", "place_name": "Marotiri", "latitude": "-40.4833", "longitude": "175.35"}, {"country_code": "NZ", "postal_code": "4894", "place_name": "Bulls", "latitude": "-40.1749", "longitude": "175.3846"}, {"country_code": "NZ", "postal_code": "4900", "place_name": "Eketahuna", "latitude": "-40.6462", "longitude": "175.7037"}, {"country_code": "NZ", "postal_code": "4910", "place_name": "Pahiatua", "latitude": "-40.4534", "longitude": "175.8406"}, {"country_code": "NZ", "postal_code": "4920", "place_name": "Woodville", "latitude": "-40.3372", "longitude": "175.8668"}, {"country_code": "NZ", "postal_code": "4930", "place_name": "Dannevirke", "latitude": "-40.2055", "longitude": "176.1008"}, {"country_code": "NZ", "postal_code": "4940", "place_name": "Eketahuna", "latitude": "-40.6462", "longitude": "175.7037"}, {"country_code": "NZ", "postal_code": "4941", "place_name": "Pahiatua", "latitude": "-40.4534", "longitude": "175.8406"}, {"country_code": "NZ", "postal_code": "4942", "place_name": "Dannevirke", "latitude": "-40.2055", "longitude": "176.1008"}, {"country_code": "NZ", "postal_code": "4943", "place_name": "Norsewood", "latitude": "-40.0705", "longitude": "176.2183"}, {"country_code": "NZ", "postal_code": "4944", "place_name": "Pongaroa", "latitude": "-40.5421", "longitude": "176.1937"}, {"country_code": "NZ", "postal_code": "4945", "place_name": "Woodville", "latitude": "-40.3372", "longitude": "175.8668"}, {"country_code": "NZ", "postal_code": "4970", "place_name": "Ti-tree Point", "latitude": "-40.437", "longitude": "176.4054"}, {"country_code": "NZ", "postal_code": "4971", "place_name": "Waipatiki", "latitude": "-40.373", "longitude": "176.2833"}, {"country_code": "NZ", "postal_code": "4972", "place_name": "Kiritaki", "latitude": "-40.2392", "longitude": "175.9827"}, {"country_code": "NZ", "postal_code": "4973", "place_name": "Waipatiki", "latitude": "-40.373", "longitude": "176.2833"}, {"country_code": "NZ", "postal_code": "4974", "place_name": "Ngamoko", "latitude": "-40.0545", "longitude": "176.1632"}, {"country_code": "NZ", "postal_code": "4975", "place_name": "Tahoraiti", "latitude": "-40.2335", "longitude": "176.0597"}, {"country_code": "NZ", "postal_code": "4976", "place_name": "Raumati", "latitude": "-40.1908", "longitude": "176.1463"}, {"country_code": "NZ", "postal_code": "4977", "place_name": "Makotuku", "latitude": "-40.1206", "longitude": "176.2319"}, {"country_code": "NZ", "postal_code": "4978", "place_name": "Piripiri", "latitude": "-40.1736", "longitude": "176.1347"}, {"country_code": "NZ", "postal_code": "4979", "place_name": "Waione", "latitude": "-40.4695", "longitude": "176.2797"}, {"country_code": "NZ", "postal_code": "4981", "place_name": "Kaitawa", "latitude": "-40.4966", "longitude": "175.89"}, {"country_code": "NZ", "postal_code": "4982", "place_name": "Ngaturi", "latitude": "-40.4682", "longitude": "175.9227"}, {"country_code": "NZ", "postal_code": "4983", "place_name": "Ballance", "latitude": "-40.4022", "longitude": "175.8017"},